Timestamp,stateEstimate.x,stateEstimate.y,stateEstimate.z,stateEstimate.roll,stateEstimate.pitch,stateEstimate.yaw
723592,-0.08027273416519165,0.10149175673723221,0.005796079523861408,0.24520188570022583,0.3267399072647095,0.031222043558955193
723632,-0.07961990684270859,0.10753536224365234,0.006611330900341272,0.05439157038927078,0.233728289604187,-0.005562130361795425
723672,-0.08268667012453079,0.10479635745286942,0.007188885938376188,0.14372074604034424,0.2692052125930786,0.04596959054470062
723713,-0.08355832099914551,0.1073438823223114,0.007891351357102394,0.09891132265329361,0.31162798404693604,0.024257713928818703
723752,-0.08475933223962784,0.10752082616090775,0.008291109465062618,0.09151484817266464,0.3709711730480194,0.033685602247714996
723792,-0.08355752378702164,0.10765166580677032,0.008372101932764053,0.1016058400273323,0.3436347246170044,0.03591888025403023
723832,-0.08374982327222824,0.1088937297463417,0.007878589443862438,0.07011792808771133,0.3310681879520416,0.048102207481861115
723873,-0.08557949960231781,0.10557869076728821,0.006684989668428898,0.1095573827624321,0.32740098237991333,0.15288768708705902
723913,-0.0835014209151268,0.11166918277740479,0.006574986502528191,-0.10732728242874146,0.27788931131362915,0.1845589578151703
723953,-0.08588855713605881,0.11458666622638702,0.006595594342797995,-0.07257089763879776,0.3629583716392517,0.0761556401848793
723992,-0.08541832864284515,0.10657116025686264,0.00508184265345335,0.18194590508937836,0.3063870370388031,0.12076278030872345
724032,-0.08447352051734924,0.10779805481433868,0.005524415522813797,0.13017620146274567,0.28415998816490173,0.11875789612531662
724072,-0.08578331768512726,0.10735486447811127,0.004561168607324362,0.12658841907978058,0.2776901423931122,0.1673504114151001
724112,-0.08629876375198364,0.10374576598405838,0.004738063085824251,0.12956716120243073,0.24389417469501495,0.32087981700897217
724152,-0.08809944242238998,0.10381541401147842,0.004974466282874346,0.13528162240982056,0.3510684072971344,0.2731896638870239
724192,-0.08830185979604721,0.10284624993801117,0.006790947634726763,0.12031496316194534,0.34125158190727234,0.3226303458213806
724232,-0.08894497901201248,0.10072652995586395,0.006413505412638187,0.16904892027378082,0.3710482716560364,0.3472456634044647
724272,-0.08753652125597,0.10247910022735596,0.006902199238538742,0.1163933277130127,0.2891216278076172,0.33688172698020935
724312,-0.0908057913184166,0.10119595378637314,0.007927448488771915,0.1393742710351944,0.34860482811927795,0.3916088342666626
724352,-0.08692071586847305,0.10097195208072662,0.008174173533916473,0.162861630320549,0.2677125036716461,0.3412347733974457
724392,-0.08353468030691147,0.10261019319295883,0.006788767408579588,0.11462989449501038,0.21428647637367249,0.3084256649017334
724432,-0.08257941156625748,0.10109274834394455,0.006645635236054659,0.17660172283649445,0.24376285076141357,0.28638142347335815
724472,-0.08395855128765106,0.10302520543336868,0.007018671836704016,0.08679792284965515,0.2600191533565521,0.3075582683086395
724512,-0.08464141935110092,0.10060533136129379,0.007281087804585695,0.09862424433231354,0.23671388626098633,0.4293771982192993
724552,-0.08419666439294815,0.09809436649084091,0.007060246076434851,0.17517802119255066,0.2693951725959778,0.4314596354961395
724592,-0.08139410614967346,0.10165311396121979,0.0068668038584291935,0.07835850119590759,0.2513325810432434,0.36650505661964417
724632,-0.07784706354141235,0.10110770910978317,0.005933819338679314,0.04449332132935524,0.20708473026752472,0.4072416424751282
724672,-0.0774519219994545,0.10443232953548431,0.005653948523104191,-0.013131693005561829,0.20336294174194336,0.37930190563201904
724712,-0.08098094910383224,0.10192571580410004,0.005885288584977388,0.09646333009004593,0.3230131268501282,0.3949352204799652
724752,-0.08179688453674316,0.10279741138219833,0.006046813912689686,0.08342447876930237,0.3262251615524292,0.40896230936050415
724792,-0.08079925179481506,0.10321588814258575,0.0058017815463244915,0.13592025637626648,0.3375987112522125,0.33222123980522156
724832,-0.07684492319822311,0.1036166176199913,0.00605714600533247,0.10507741570472717,0.285047322511673,0.28929734230041504
724873,-0.07785940170288086,0.1036415696144104,0.005835173185914755,0.1471347212791443,0.28296738862991333,0.276430606842041
724913,-0.07940645515918732,0.104097381234169,0.005739191547036171,0.12999045848846436,0.3393287658691406,0.2734766900539398
724953,-0.0782138928771019,0.10191464424133301,0.005180568899959326,0.16387328505516052,0.2923339605331421,0.3204287886619568
724993,-0.08063162863254547,0.10559191554784775,0.005748753435909748,0.06739949434995651,0.3626214563846588,0.29867178201675415
725032,-0.07950454950332642,0.10900018364191055,0.005659378599375486,-0.04283841699361801,0.2937353849411011,0.3225055932998657
725072,-0.07802187651395798,0.1054239571094513,0.006164239253848791,0.0800742655992508,0.25427863001823425,0.3377285599708557
725113,-0.08080191910266876,0.10416622459888458,0.006417313124984503,0.1689452975988388,0.34271788597106934,0.3293361961841583
725153,-0.08424507826566696,0.10676298290491104,0.006137796211987734,0.06301558762788773,0.32764002680778503,0.44215327501296997
725193,-0.08326046913862228,0.10556668043136597,0.006404044106602669,0.12205430120229721,0.2309735268354416,0.48502296209335327
725232,-0.08503410220146179,0.10619860142469406,0.005217812489718199,0.08064287155866623,0.291135311126709,0.49893227219581604
725272,-0.08527170866727829,0.10469925403594971,0.00476691173389554,0.1157408058643341,0.28156378865242004,0.5345731377601624
725312,-0.08433002233505249,0.10541894286870956,0.00488410796970129,0.09370090812444687,0.270544171333313,0.5078789591789246
725352,-0.08320485800504684,0.1046757772564888,0.005022221244871616,0.09869895875453949,0.2570531964302063,0.49843356013298035
725392,-0.08052200078964233,0.10333332419395447,0.0051811328157782555,0.1167035698890686,0.22697553038597107,0.475698858499527
725432,-0.08155062794685364,0.10081884264945984,0.005397701170295477,0.18734264373779297,0.26136666536331177,0.5096268653869629
725472,-0.08237508684396744,0.10064004361629486,0.005164839792996645,0.1686840057373047,0.27078670263290405,0.5543735027313232
725512,-0.08123767375946045,0.10266727209091187,0.004898945800960064,0.17561236023902893,0.2293521612882614,0.4772534668445587
725552,-0.08295509219169617,0.10092636197805405,0.0051124440506100655,0.34027814865112305,0.30142274498939514,0.422463059425354
725592,-0.08145157247781754,0.1034073457121849,0.004952345974743366,0.19392330944538116,0.26290208101272583,0.40190544724464417
725632,-0.07749569416046143,0.10770069807767868,0.0056207687593996525,0.05021204799413681,0.1255192756652832,0.3427461087703705
725672,-0.07793202251195908,0.1081935241818428,0.004864059388637543,0.08428928256034851,0.08034657686948776,0.39565709233283997
725712,-0.07612722367048264,0.10834307223558426,0.005129346624016762,0.0420144759118557,0.08592411130666733,0.3737676739692688
725752,-0.07647058367729187,0.10711102187633514,0.004969984758645296,0.12897028028964996,0.1905280202627182,0.3283698558807373
725792,-0.0758422389626503,0.10766266286373138,0.0047643245197832584,0.10692789405584335,0.1460510492324829,0.3667891025543213
725832,-0.07480316609144211,0.11455050855875015,0.005001090466976166,-0.08446408808231354,0.0976538434624672,0.3218335807323456
725872,-0.07593323290348053,0.11241444200277328,0.006009326316416264,-0.00011260736209806055,0.1469510942697525,0.3879307806491852
725912,-0.07412959635257721,0.10748551040887833,0.006591802462935448,0.1500728875398636,0.14545315504074097,0.42428237199783325
725952,-0.07162055373191833,0.10837236791849136,0.006345837377011776,0.13980643451213837,0.199278324842453,0.29185420274734497
725992,-0.07232017070055008,0.10739938914775848,0.00659025926142931,0.1532706916332245,0.2501828372478485,0.2825823724269867
726032,-0.06893091648817062,0.10801293700933456,0.0062384712509810925,0.12959957122802734,0.2080467790365219,0.20731575787067413
726072,-0.06738227605819702,0.10705681145191193,0.005997151136398315,0.20371569693088531,0.24381867051124573,0.14310942590236664
726112,-0.06838502734899521,0.10798140615224838,0.004595777951180935,0.17833015322685242,0.26767536997795105,0.1524580419063568
726152,-0.06787412613630295,0.10773838311433792,0.004413032904267311,0.20656000077724457,0.2487681806087494,0.1721687912940979
726192,-0.07144296914339066,0.10868557542562485,0.00566753838211298,0.17937959730625153,0.3779483437538147,0.18230310082435608
726232,-0.06320110708475113,0.11291664093732834,0.005582451820373535,0.0418122373521328,0.1468271017074585,0.08728516101837158
726273,-0.06861228495836258,0.11027584224939346,0.005720599554479122,0.1929931640625,0.3661946952342987,0.12953443825244904
726312,-0.0687522441148758,0.10886161029338837,0.004946837667375803,0.1911996603012085,0.3862667679786682,0.10839077085256577
726352,-0.07031672447919846,0.11022889614105225,0.004802364856004715,0.14305898547172546,0.4090420603752136,0.12821680307388306
726392,-0.07095026224851608,0.1087132915854454,0.00543651357293129,0.22578050196170807,0.41800054907798767,0.12763623893260956
726432,-0.06751546263694763,0.10999857634305954,0.006216691806912422,0.19962146878242493,0.318255752325058,0.08058364689350128
726472,-0.06612284481525421,0.11080995947122574,0.00676971860229969,0.17065919935703278,0.2964082360267639,0.02715996652841568
726512,-0.06832744926214218,0.10774631798267365,0.005985256750136614,0.24576672911643982,0.36452215909957886,0.018871532753109932
726552,-0.06812755018472672,0.10795631259679794,0.005363922566175461,0.19466108083724976,0.43315112590789795,-0.050734978169202805
726592,-0.06765087693929672,0.10891464352607727,0.005039711017161608,0.18777894973754883,0.42006221413612366,-0.07957345992326736
726632,-0.06703411042690277,0.10657380521297455,0.00572123983874917,0.21451929211616516,0.3724665641784668,-0.06973953545093536
726672,-0.06716186553239822,0.10901539027690887,0.005218233447521925,0.20645084977149963,0.3888411819934845,-0.08735465258359909
726712,-0.07229181379079819,0.11156486719846725,0.004951797425746918,0.2090049684047699,0.5089377760887146,-0.05797065421938896
726752,-0.07082971930503845,0.11324815452098846,0.005641851108521223,0.11148548126220703,0.3486426770687103,-0.0027970389928668737
726792,-0.07030224800109863,0.11571566015481949,0.005253815092146397,0.08508209884166718,0.3350052237510681,-0.0406353585422039
726832,-0.06803354620933533,0.1151336207985878,0.005730586592108011,0.13754279911518097,0.2562767267227173,-0.08338724821805954
726872,-0.06786923855543137,0.11459734290838242,0.006043659057468176,0.1517714262008667,0.29263800382614136,-0.11449805647134781
726912,-0.06788945943117142,0.11489462852478027,0.005845345091074705,0.1623782068490982,0.3154039978981018,-0.14049473404884338
726952,-0.06581512093544006,0.11340221762657166,0.006145701743662357,0.1615113615989685,0.22459259629249573,-0.1096469834446907
726992,-0.06675252318382263,0.11234606057405472,0.005953843239694834,0.18701918423175812,0.222350612282753,-0.07536884397268295
727032,-0.0685596764087677,0.11146630346775055,0.005838522221893072,0.17903706431388855,0.25344419479370117,-0.026726629585027695
727072,-0.06445556879043579,0.1130436584353447,0.0061775739304721355,0.047061480581760406,0.06515346467494965,0.037254173308610916
727112,-0.06451012194156647,0.11478495597839355,0.005480511114001274,0.04325655847787857,0.16746194660663605,-0.02978581376373768
727153,-0.059575945138931274,0.11468029767274857,0.005875535309314728,0.038695044815540314,0.009001669473946095,0.0032645370811223984
727192,-0.057816725224256516,0.11582142859697342,0.006264430936425924,0.01568806730210781,0.024600382894277573,-0.01216104719787836
727232,-0.05441247299313545,0.11482258141040802,0.005988819990307093,0.060421016067266464,-0.09879455715417862,0.0694730207324028
727272,-0.05426296964287758,0.11555621773004532,0.006383154075592756,0.037337467074394226,-0.11460467427968979,0.11218905448913574
727313,-0.05322577431797981,0.11591769754886627,0.006628945469856262,0.05899862200021744,-0.0560746043920517,0.11698158830404282
727353,-0.053343627601861954,0.11785127222537994,0.006264147348701954,0.014753451570868492,0.030925843864679337,0.057097431272268295
727392,-0.053379252552986145,0.11667757481336594,0.006525075063109398,0.07421451061964035,0.09153223037719727,0.08514709770679474
727432,-0.051504652947187424,0.11828302592039108,0.006205904297530651,0.0695585086941719,0.06121169775724411,0.12230166792869568
727473,-0.052163559943437576,0.1176137775182724,0.005972729995846748,0.0725034847855568,0.11875788122415543,0.10054723173379898
727512,-0.05086589604616165,0.11553224176168442,0.006178474519401789,0.13540486991405487,0.14507223665714264,0.11358048766851425
727552,-0.05232090875506401,0.11743380129337311,0.0062478287145495415,0.15361104905605316,0.20984618365764618,0.1760024130344391
727592,-0.05622224509716034,0.1188458576798439,0.00648672878742218,0.15933717787265778,0.280571848154068,0.3395763635635376
727632,-0.05471065267920494,0.12010885775089264,0.005182414315640926,0.1580684632062912,0.23419281840324402,0.38763228058815
727672,-0.05759355425834656,0.12099510431289673,0.006128054112195969,0.12683169543743134,0.24673400819301605,0.4869355261325836
727712,-0.060111649334430695,0.11853089183568954,0.006350865587592125,0.2043617069721222,0.3266069293022156,0.4974999725818634
727752,-0.05885584279894829,0.11999023705720901,0.005551161710172892,0.18914148211479187,0.32418277859687805,0.4971767067909241
727792,-0.07321321964263916,0.11572463810443878,0.005684790667146444,0.28254324197769165,0.7733100652694702,0.558745801448822
727832,-0.07391487061977386,0.1151561364531517,0.004909349139779806,0.29809674620628357,0.7037584185600281,0.5643712282180786
727872,-0.0771021768450737,0.11731485277414322,0.004336499609053135,0.16215896606445312,0.699765145778656,0.637468695640564
727912,-0.07697071135044098,0.11490002274513245,0.005124538671225309,0.17473949491977692,0.6287060976028442,0.5856243968009949
727952,-0.07588684558868408,0.11360787600278854,0.005362980999052525,0.22008824348449707,0.5081894397735596,0.5497168302536011
727992,-0.07743235677480698,0.11399959772825241,0.0058252946473658085,0.1701705902814865,0.4873972535133362,0.5833446383476257
728032,-0.075314961373806,0.11538973450660706,0.005806962493807077,0.1389523595571518,0.4201517105102539,0.5399976968765259
728072,-0.07293684035539627,0.1154380738735199,0.005416813772171736,0.1699940413236618,0.3254706859588623,0.4935581386089325
728112,-0.07458099722862244,0.11515216529369354,0.005825574044138193,0.12425459176301956,0.3551996052265167,0.5473425388336182
728152,-0.07290937006473541,0.1148553341627121,0.006293340586125851,0.1169639304280281,0.2978906035423279,0.5211685299873352
728192,-0.07342691719532013,0.1071254089474678,0.006561747752130032,0.4025123715400696,0.2895534634590149,0.41425958275794983
728232,-0.07251928746700287,0.10627537965774536,0.005872036796063185,0.3639695644378662,0.26687681674957275,0.41607415676116943
728272,-0.07011566311120987,0.10760808736085892,0.005768936593085527,0.2952851355075836,0.23566566407680511,0.41043370962142944
728312,-0.07014136016368866,0.10474111139774323,0.005856611765921116,0.34569016098976135,0.18969684839248657,0.39878419041633606
728352,-0.0626099705696106,0.0979435071349144,0.004787228535860777,0.5117045044898987,0.024664513766765594,0.31750068068504333
728392,-0.06342917680740356,0.09851150214672089,0.005546835251152515,0.43919381499290466,0.06866651773452759,0.303276926279068
728432,-0.062021661549806595,0.09852579981088638,0.00479805888608098,0.32046622037887573,0.07387850433588028,0.2840695083141327
728472,-0.060666777193546295,0.10028082132339478,0.005101408809423447,0.26854926347732544,0.11790736019611359,0.33449217677116394
728512,-0.060907650738954544,0.09865857660770416,0.005328306928277016,0.2782701849937439,0.0861513689160347,0.2594590187072754
728552,-0.06465446949005127,0.10298308730125427,0.00513489218428731,0.10314147174358368,0.23160912096500397,0.21605592966079712
728592,-0.06285009533166885,0.10276737809181213,0.0048883832059800625,0.11916185170412064,0.2238258421421051,0.24045780301094055
728632,-0.06440999358892441,0.10078654438257217,0.0036037873942404985,0.12648651003837585,0.22296901047229767,0.1621517688035965
728672,-0.06553627550601959,0.10143681615591049,0.00417979434132576,0.0997428297996521,0.25257593393325806,0.12797319889068604
728712,-0.06552667915821075,0.10272698104381561,0.004439456854015589,0.08653740584850311,0.2697639763355255,0.11623731255531311
728752,-0.06670475751161575,0.10430416464805603,0.004650583025068045,-0.06483841687440872,0.25703954696655273,0.010622863657772541
728792,-0.06258410215377808,0.10061396658420563,0.00430067116394639,0.1636093407869339,0.17027001082897186,0.13876886665821075
728832,-0.06518129259347916,0.09910668432712555,0.004474443383514881,0.1557186096906662,0.19948086142539978,0.014856579713523388
728872,-0.06539960205554962,0.09888631105422974,0.004541013855487108,0.15596094727516174,0.21786464750766754,0.0028448058292269707
728912,-0.06832700222730637,0.10123834758996964,0.004226944409310818,0.10800473392009735,0.2986834943294525,-0.05699631944298744
728952,-0.0713084265589714,0.09908262640237808,0.003956180065870285,0.13112872838974,0.3250148594379425,-0.16732390224933624
728992,-0.07058506458997726,0.10163547098636627,0.004629048984497786,0.05007750168442726,0.2767454981803894,-0.15660768747329712
729032,-0.07170114666223526,0.10221704840660095,0.005919453222304583,0.025736387819051743,0.28950199484825134,-0.1943582147359848
729072,-0.07102949172258377,0.09963052719831467,0.005649314261972904,0.07047327607870102,0.19954732060432434,-0.23554831743240356
729112,-0.07115519046783447,0.10083267092704773,0.005726961884647608,0.03878100961446762,0.22197356820106506,-0.23086264729499817
729152,-0.07489316910505295,0.10023026913404465,0.006199266295880079,0.04927096888422966,0.26215222477912903,-0.33865153789520264
729192,-0.07410521805286407,0.09993764013051987,0.006388747598975897,0.0625418946146965,0.2205432951450348,-0.33260178565979004
729232,-0.07822181284427643,0.09546659141778946,0.006582117639482021,0.2796228229999542,0.3320010006427765,-0.3484811782836914
729273,-0.08361463993787766,0.09382931143045425,0.007129925303161144,0.26777681708335876,0.469687283039093,-0.4421664774417877
729312,-0.08204323798418045,0.09325045347213745,0.0062566413544118404,0.2564777731895447,0.46561577916145325,-0.3427780270576477
729352,-0.07235872745513916,0.09980577975511551,0.005356303416192532,0.01818835362792015,0.1779203563928604,-0.20867466926574707
729392,-0.0703098475933075,0.09726685285568237,0.006397211458534002,0.09884987026453018,0.1287858486175537,-0.22706781327724457
729432,-0.06953296810388565,0.10071983933448792,0.005622308701276779,0.08757112920284271,0.17556706070899963,-0.14706160128116608
729473,-0.07620091736316681,0.10464461147785187,0.005555473268032074,0.017112893983721733,0.43181008100509644,-0.18026211857795715
729512,-0.077408567070961,0.1030760258436203,0.0059861596673727036,0.053943175822496414,0.400619775056839,-0.2334102839231491
729552,-0.07884553074836731,0.10494641214609146,0.006327998824417591,0.06980019062757492,0.39760345220565796,-0.2725977301597595
729592,-0.0776447132229805,0.10535214096307755,0.006598366890102625,0.016129011288285255,0.26725277304649353,-0.33642205595970154
729632,-0.07752060145139694,0.10392555594444275,0.0063561866991221905,0.09856531769037247,0.24756412208080292,-0.34841740131378174
729672,-0.09109421074390411,0.0982404425740242,0.005152303259819746,0.31703469157218933,0.6509772539138794,-0.4797763228416443
729712,-0.09084465354681015,0.09645719081163406,0.00489446148276329,0.3343842327594757,0.5549638271331787,-0.49245163798332214
729752,-0.09239666908979416,0.09897620230913162,0.004665602929890156,0.2091791182756424,0.5505481958389282,-0.4409053921699524
729792,-0.08856978267431259,0.10194432735443115,0.005716782063245773,0.08900512754917145,0.3265444040298462,-0.4379886984825134
729832,-0.08447624742984772,0.102704256772995,0.006139478180557489,0.04371687024831772,0.20848064124584198,-0.3586418032646179
729873,-0.08159159123897552,0.10285937041044235,0.006531913299113512,0.07290735095739365,0.16848872601985931,-0.3099076747894287
729912,-0.08218780159950256,0.10074325650930405,0.006836723070591688,0.127276211977005,0.15500104427337646,-0.35453134775161743
729953,-0.08271635323762894,0.10690876096487045,0.006003402639180422,-0.08372412621974945,0.15030111372470856,-0.4186403751373291
729993,-0.08622489124536514,0.10467332601547241,0.0063794199377298355,0.01168869435787201,0.15249194204807281,-0.5013167262077332
730032,-0.08607638627290726,0.10494853556156158,0.006115306634455919,0.005931053310632706,0.1451757848262787,-0.502463161945343
730073,-0.0869731605052948,0.10487488657236099,0.006821126211434603,0.05091165751218796,0.18262870609760284,-0.49583494663238525
730113,-0.08929099887609482,0.10292305797338486,0.006481269374489784,0.09642904251813889,0.21864451467990875,-0.5282317399978638
730153,-0.08849833905696869,0.10444114357233047,0.006554228253662586,0.08000119775533676,0.22042216360569,-0.5236859917640686
730192,-0.08766099065542221,0.10492042452096939,0.006872248835861683,0.13997796177864075,0.2371467500925064,-0.4955345690250397
730233,-0.08656132966279984,0.10617030411958694,0.006060796324163675,0.18386627733707428,0.1938086897134781,-0.5036407709121704
730273,-0.08426602184772491,0.10543940216302872,0.00622263690456748,0.19778472185134888,0.17386573553085327,-0.4752591550350189
730313,-0.08656026422977448,0.10391779989004135,0.0059880404733121395,0.20863565802574158,0.2173873484134674,-0.513910710811615
730353,-0.08588770776987076,0.1082262322306633,0.00619569793343544,0.0066179255954921246,0.18601025640964508,-0.5555380582809448
730392,-0.08541063219308853,0.10738993436098099,0.0065107187256217,0.06853533536195755,0.21313923597335815,-0.5368368029594421
730433,-0.08304743468761444,0.10606402158737183,0.006132088601589203,0.0728636160492897,0.21651455760002136,-0.49808624386787415
730473,-0.08065415918827057,0.10553692281246185,0.006847659591585398,0.09258753806352615,0.19897234439849854,-0.45652762055397034
730512,-0.08086932450532913,0.10566198080778122,0.0070027136243879795,0.11975255608558655,0.2168923318386078,-0.44857728481292725
730552,-0.07940877228975296,0.10668366402387619,0.006991508882492781,0.051504649221897125,0.17074550688266754,-0.4645559787750244
730592,-0.08062644302845001,0.10735061019659042,0.006548772100359201,0.058401383459568024,0.230390727519989,-0.46833333373069763
730632,-0.07815252989530563,0.10201438516378403,0.0052973865531384945,0.22916710376739502,0.12767350673675537,-0.4404735267162323
730672,-0.07451288402080536,0.10298620909452438,0.005390325095504522,0.1391402631998062,0.04996572434902191,-0.4520852863788605
730712,-0.07388972491025925,0.10329172760248184,0.004979081451892853,0.18537430465221405,0.08409448713064194,-0.4454970359802246
730752,-0.07641167938709259,0.10429634898900986,0.00477053364738822,0.07363167405128479,0.19905874133110046,-0.5075851082801819
730792,-0.07442164421081543,0.10347460210323334,0.005375802516937256,0.11221661418676376,0.18597187101840973,-0.4926043748855591
730832,-0.0736023411154747,0.10324276983737946,0.00543470261618495,0.12255099415779114,0.20771664381027222,-0.4922407567501068
730872,-0.06706468760967255,0.10998610407114029,0.005697815213352442,-0.16176718473434448,-0.08414079248905182,-0.5868945717811584
730912,-0.06653270125389099,0.11169714480638504,0.006272215396165848,-0.09221307188272476,0.022172560915350914,-0.5274777412414551
730952,-0.06299234181642532,0.11365988105535507,0.005662541836500168,-0.05505934730172157,0.04179743677377701,-0.46459054946899414
730992,-0.06164482608437538,0.10880272090435028,0.004875463433563709,0.12381276488304138,-0.0007341716554947197,-0.4061315357685089
731032,-0.058091286569833755,0.11819852888584137,0.004606351256370544,-0.19793550670146942,0.04766838252544403,-0.5615453124046326
731072,-0.05913754925131798,0.11610907316207886,0.005461717024445534,-0.09754354506731033,0.11739824712276459,-0.6037521362304688
731112,-0.060163166373968124,0.11770894378423691,0.006019023712724447,-0.0659763440489769,0.18699240684509277,-0.5496389865875244
731152,-0.061313893646001816,0.11789887398481369,0.005165188107639551,-0.04756354168057442,0.18084485828876495,-0.4971947968006134
731192,-0.06496699154376984,0.1142614409327507,0.005433753132820129,0.076963409781456,0.3568427860736847,-0.6199577450752258
731232,-0.06802871078252792,0.11477585881948471,0.005196962505578995,0.10180886089801788,0.47600892186164856,-0.6499196887016296
731272,-0.06819020956754684,0.11514890193939209,0.004922783933579922,0.07832351326942444,0.42744728922843933,-0.6393678784370422
731312,-0.07084056735038757,0.11552989482879639,0.004260218236595392,0.07210217416286469,0.5067424774169922,-0.6620081663131714
731352,-0.0707550123333931,0.11688124388456345,0.003886756720021367,0.12408529222011566,0.40219420194625854,-0.4849695563316345
731392,-0.06920745968818665,0.11492317169904709,0.004007852636277676,0.15037132799625397,0.36837059259414673,-0.5999476909637451
731432,-0.06969791650772095,0.11411792784929276,0.00529799610376358,0.19947341084480286,0.36259588599205017,-0.591206967830658
731472,-0.0710800439119339,0.11477401107549667,0.005791263189166784,0.16409580409526825,0.3481401801109314,-0.5406907796859741
731512,-0.07174259424209595,0.11287660151720047,0.005992645863443613,0.19985201954841614,0.36272671818733215,-0.5929156541824341
731552,-0.07480477541685104,0.11186517030000687,0.0065843453630805016,0.27265655994415283,0.46797603368759155,-0.5830937027931213
731593,-0.07716061919927597,0.11092683672904968,0.005573198199272156,0.20895887911319733,0.5200121402740479,-0.6063878536224365
731633,-0.07709304243326187,0.1106528714299202,0.005253446754068136,0.22906841337680817,0.503493070602417,-0.6005549430847168
731673,-0.07449598610401154,0.11094127595424652,0.006790823768824339,0.22715871036052704,0.3842875361442566,-0.6215406656265259
731712,-0.07919419556856155,0.10986416786909103,0.006511376705020666,0.22774487733840942,0.4530542194843292,-0.5687872171401978
731752,-0.07696020603179932,0.10950558632612228,0.00631778733804822,0.2133186161518097,0.3353573977947235,-0.5882277488708496
731792,-0.0801158994436264,0.10899995267391205,0.00613877410069108,0.14746636152267456,0.3409051299095154,-0.5366479158401489
731832,-0.08235979080200195,0.10853398591279984,0.005469782743602991,0.18121770024299622,0.3932144045829773,-0.5176458954811096
731872,-0.08091903477907181,0.10497551411390305,0.004217228852212429,0.3585788309574127,0.26834622025489807,-0.5766283273696899
731912,-0.08225751668214798,0.10832920670509338,0.005131518002599478,0.12881462275981903,0.24967195093631744,-0.47795024514198303
731952,-0.0807776004076004,0.10726986080408096,0.004368157126009464,0.17615213990211487,0.23771348595619202,-0.5034602880477905
731992,-0.07484234869480133,0.11232931911945343,0.0038866670802235603,0.03457477316260338,-0.0175725519657135,-0.49564722180366516
732032,-0.07508673518896103,0.1113453134894371,0.004055902827531099,0.03367895260453224,0.021709894761443138,-0.4945951998233795
732072,-0.07524976134300232,0.11246420443058014,0.00475948303937912,0.014583968557417393,0.06985696405172348,-0.4930402338504791
732112,-0.07793327420949936,0.11090785264968872,0.005787204951047897,0.08857174217700958,0.12503309547901154,-0.4277994632720947
732152,-0.07790713757276535,0.11116768419742584,0.005871898028999567,0.09828204661607742,0.14188425242900848,-0.4135013222694397
732192,-0.08660296350717545,0.10793232172727585,0.005830936133861542,0.27684327960014343,0.4770984649658203,-0.3609580993652344
732232,-0.08766426146030426,0.10926399379968643,0.006772842723876238,0.2653532028198242,0.37077200412750244,-0.28304359316825867
732272,-0.08689313381910324,0.11402826011180878,0.006639448460191488,0.08425422012805939,0.37130290269851685,-0.3347456753253937
732312,-0.0842108279466629,0.1147342324256897,0.006856952793896198,0.054229676723480225,0.2559105157852173,-0.3349825143814087
732352,-0.09059787541627884,0.11473199725151062,0.00601575430482626,0.05859159305691719,0.5145962834358215,-0.35739457607269287
732392,-0.08546434342861176,0.11485577374696732,0.006354487035423517,0.1342209279537201,0.3480496406555176,-0.39617833495140076
732432,-0.0855725109577179,0.11570475250482559,0.0053200614638626575,0.09495469182729721,0.3572613298892975,-0.411600798368454
732472,-0.08276031166315079,0.11518000066280365,0.006518745329231024,0.11192680895328522,0.2569478750228882,-0.4230085015296936
732512,-0.08640217781066895,0.11462808400392532,0.006652609910815954,0.1429498791694641,0.3106299936771393,-0.3841593265533447
732552,-0.08675730228424072,0.11297181993722916,0.006290162913501263,0.16264505684375763,0.29648056626319885,-0.3661542534828186
732592,-0.08518361300230026,0.11500000953674316,0.00656109256669879,0.1392446607351303,0.2661340832710266,-0.38396838307380676
732632,-0.0873359963297844,0.11284717917442322,0.006165401544421911,0.17418533563613892,0.36137524247169495,-0.39108917117118835
732672,-0.0904303565621376,0.1057359054684639,0.006715528201311827,0.302101194858551,0.3661111295223236,-0.308576762676239
732712,-0.08937358856201172,0.10535558313131332,0.005520607344806194,0.28045690059661865,0.33869022130966187,-0.318769246339798
732753,-0.08724269270896912,0.10794361680746078,0.005420531611889601,0.22027641534805298,0.27556514739990234,-0.3695303499698639
732793,-0.07853614538908005,0.10933326929807663,0.005420546047389507,0.15372422337532043,0.007322837132960558,-0.4320915937423706
732832,-0.08301488310098648,0.11067289859056473,0.00566967623308301,0.10592681169509888,0.14792266488075256,-0.3852206766605377
732873,-0.08368466049432755,0.11124341189861298,0.005244361236691475,0.06199377402663231,0.16799873113632202,-0.3726085424423218
732912,-0.08450287580490112,0.10617925971746445,0.004946752451360226,0.29495856165885925,0.2604975700378418,-0.3455996811389923
732953,-0.0859428271651268,0.10475971549749374,0.005190170835703611,0.24161972105503082,0.27314305305480957,-0.30739831924438477
732993,-0.08916299045085907,0.10243880748748779,0.005787614267319441,0.24936099350452423,0.3898748755455017,-0.256215900182724
733032,-0.08967176824808121,0.1021113395690918,0.005298658739775419,0.2553444504737854,0.410274863243103,-0.2518809139728546
733072,-0.08459538221359253,0.10096197575330734,0.005382021889090538,0.23670227825641632,0.24183999001979828,-0.27017346024513245
733112,-0.0806448683142662,0.09990721940994263,0.0065957787446677685,0.25317707657814026,0.21425335109233856,-0.2778032422065735
733152,-0.08066161721944809,0.10283850133419037,0.007191657088696957,0.17590011656284332,0.24448978900909424,-0.3137517273426056
733192,-0.07864805310964584,0.10105960071086884,0.005848427768796682,0.16293646395206451,0.25261765718460083,-0.2985460162162781
733232,-0.08055032789707184,0.09562433511018753,0.006228893529623747,0.3457166850566864,0.36903515458106995,-0.26778537034988403
733272,-0.08235298097133636,0.0968395471572876,0.006170438602566719,0.27121224999427795,0.35187000036239624,-0.3010414242744446
733312,-0.08132252097129822,0.09667043387889862,0.00603050971403718,0.2339930385351181,0.3213210701942444,-0.29162323474884033
733352,-0.08364209532737732,0.09784350544214249,0.0055179838091135025,0.20774021744728088,0.33953994512557983,-0.33563899993896484
733392,-0.08389205485582352,0.09683690965175629,0.0055673206225037575,0.16502906382083893,0.2870735824108124,-0.34467095136642456
733432,-0.08481771498918533,0.09564852714538574,0.0055748349986970425,0.19607581198215485,0.29842132329940796,-0.35069039463996887
733472,-0.08381626754999161,0.0969121977686882,0.005972282495349646,0.15722301602363586,0.259670615196228,-0.37845584750175476
733512,-0.08499056845903397,0.09569569677114487,0.006225087214261293,0.16150729358196259,0.27953213453292847,-0.37538400292396545
733552,-0.0859566479921341,0.09639517217874527,0.006438566371798515,0.18828125298023224,0.3430274426937103,-0.4018882215023041
733592,-0.08592591434717178,0.09759312123060226,0.006195630878210068,0.12737713754177094,0.284877210855484,-0.4244478642940521
733632,-0.09192292392253876,0.093058280646801,0.00633870018646121,0.25028181076049805,0.48187750577926636,-0.3933597505092621
733672,-0.0912228375673294,0.09213476628065109,0.006367015652358532,0.3073095977306366,0.42965906858444214,-0.4347473978996277
733712,-0.09174536913633347,0.09144911915063858,0.006795060820877552,0.307589054107666,0.3741433918476105,-0.4820384383201599
733752,-0.09333635121583939,0.09268774837255478,0.006030374672263861,0.2445475459098816,0.39197102189064026,-0.5035533905029297
733792,-0.09464012831449509,0.095466248691082,0.006402827333658934,0.14519239962100983,0.323738694190979,-0.6273033618927002
733832,-0.09545951336622238,0.09398220479488373,0.006225639022886753,0.1627875715494156,0.36428511142730713,-0.5688272714614868
733872,-0.09730764478445053,0.09351366013288498,0.0059426273219287395,0.16729749739170074,0.3987984359264374,-0.5749644041061401
733912,-0.09573666751384735,0.09492935240268707,0.004868766292929649,0.08070826530456543,0.34595978260040283,-0.5063269138336182
733952,-0.09343930333852768,0.09436535090208054,0.005341132637113333,0.150309756398201,0.3205312490463257,-0.5034029483795166
733992,-0.09031345695257187,0.09654196351766586,0.0054278140887618065,0.16042450070381165,0.20250751078128815,-0.6002090573310852
734032,-0.08874774724245071,0.09989364445209503,0.005417957901954651,-0.018261322751641273,0.17778615653514862,-0.5092528462409973
734072,-0.08878716081380844,0.10184977203607559,0.005410424899309874,-0.05204486474394798,0.19836793839931488,-0.5402212142944336
734112,-0.09398229420185089,0.10240046679973602,0.005082134157419205,-0.05935252457857132,0.3827209174633026,-0.5788922905921936
734152,-0.09100496768951416,0.10137514770030975,0.005560323130339384,-0.012402945198118687,0.2753366529941559,-0.4948209822177887
734192,-0.0900731161236763,0.10259249806404114,0.005612834822386503,-0.008930021896958351,0.24647672474384308,-0.5112784504890442
734232,-0.09067858010530472,0.1015305370092392,0.006380394101142883,0.025651780888438225,0.2560289800167084,-0.46866849064826965
734272,-0.08836988359689713,0.1014016717672348,0.006859978660941124,0.08815877139568329,0.19859755039215088,-0.45757216215133667
734312,-0.08775331825017929,0.10083923488855362,0.006568073760718107,0.08523523062467575,0.1761990338563919,-0.41315266489982605
734352,-0.08791055530309677,0.09968630224466324,0.0058365473523736,0.04839694872498512,0.18172010779380798,-0.3160795569419861
734392,-0.08694073557853699,0.09971584379673004,0.005391196813434362,0.05286101996898651,0.25215888023376465,-0.26727718114852905
734432,-0.08629345148801804,0.09966889023780823,0.006355830002576113,0.046912599354982376,0.20092330873012543,-0.2543083429336548
734472,-0.08431972563266754,0.09982430934906006,0.0062050120905041695,0.05075100436806679,0.2173774540424347,-0.22633881866931915
734512,-0.08444014936685562,0.10006602108478546,0.006485086400061846,0.09769817441701889,0.2239823341369629,-0.28167814016342163
734552,-0.08724964410066605,0.09878740459680557,0.006684386171400547,0.0981241762638092,0.2631354033946991,-0.2638342082500458
734592,-0.08699551224708557,0.09969762712717056,0.006346833426505327,0.07383694499731064,0.21274368464946747,-0.2800014615058899
734632,-0.08850311487913132,0.10019378364086151,0.0069022411480546,0.07988298684358597,0.22751353681087494,-0.3120277225971222
734672,-0.08919215947389603,0.09854085743427277,0.006487787235528231,0.10267765074968338,0.2691330313682556,-0.26830679178237915
734712,-0.08704447746276855,0.09818954765796661,0.006168518681079149,0.12976519763469696,0.1967443972826004,-0.2633849084377289
734752,-0.08821070939302444,0.09837619215250015,0.005868447478860617,0.1330142617225647,0.2551460564136505,-0.2741502821445465
734792,-0.08946429193019867,0.10017617791891098,0.005633256398141384,0.10788016021251678,0.26485246419906616,-0.32973557710647583
734832,-0.08861100673675537,0.10172856599092484,0.004867305979132652,0.09333939105272293,0.21683591604232788,-0.3826371431350708
734872,-0.087877057492733,0.10087131708860397,0.004875836428254843,0.1143571063876152,0.1700899749994278,-0.3724757134914398
734912,-0.08991743624210358,0.09864544123411179,0.005134164821356535,0.22851186990737915,0.20082902908325195,-0.3928148150444031
734952,-0.09154226630926132,0.09741482138633728,0.005246492102742195,0.25733882188796997,0.2385176569223404,-0.4062516689300537
734992,-0.0948048010468483,0.09550134092569351,0.004890305455774069,0.2600134313106537,0.3545265197753906,-0.37659236788749695
735032,-0.0907323881983757,0.096186563372612,0.0051874201744794846,0.21987572312355042,0.26724618673324585,-0.3683302700519562
735072,-0.095773845911026,0.09478814899921417,0.006369889713823795,0.24456006288528442,0.37882721424102783,-0.3866463601589203
735112,-0.09692208468914032,0.09489232301712036,0.005753012839704752,0.19822223484516144,0.395883709192276,-0.3836497664451599
735152,-0.09684388339519501,0.09352728724479675,0.005322953220456839,0.29209625720977783,0.3446338176727295,-0.4710598289966583
735192,-0.09584982693195343,0.0946803092956543,0.005028529558330774,0.2304326742887497,0.31601929664611816,-0.4682655334472656
735232,-0.0948500782251358,0.09398636221885681,0.004377959296107292,0.2445032298564911,0.2570818364620209,-0.5133035182952881
735272,-0.09773974865674973,0.09308655560016632,0.004395607393234968,0.17075608670711517,0.3422856628894806,-0.4364151656627655
735312,-0.09459538757801056,0.09048008173704147,0.0043477863073349,0.19198955595493317,0.18978218734264374,-0.43294820189476013
735352,-0.0946667492389679,0.09278982877731323,0.004803376272320747,0.1313692033290863,0.22729657590389252,-0.43104568123817444
735392,-0.10020200908184052,0.08731561154127121,0.005110135301947594,0.2903223931789398,0.3967296779155731,-0.38981595635414124
735432,-0.09987078607082367,0.08846251666545868,0.005533355753868818,0.2202424257993698,0.3739660680294037,-0.3895803987979889
735472,-0.09729885309934616,0.08996997028589249,0.0049108522944152355,0.14830859005451202,0.27713581919670105,-0.40263086557388306
735512,-0.09842879325151443,0.09003964811563492,0.0053377519361674786,0.1089506670832634,0.3097810447216034,-0.3658466935157776
735552,-0.09871681034564972,0.08899576961994171,0.005532196257263422,0.1555342972278595,0.34758660197257996,-0.3153496980667114
735592,-0.10558914393186569,0.08976385742425919,0.006603458896279335,0.12193119525909424,0.5157564282417297,-0.3877495229244232
735632,-0.10151239484548569,0.09075260162353516,0.006075355224311352,0.05965233966708183,0.38280293345451355,-0.25859779119491577
735672,-0.10160629451274872,0.08868152648210526,0.0060502695851027966,0.1663062572479248,0.29820504784584045,-0.39599090814590454
735712,-0.09911976009607315,0.08685624599456787,0.006819732487201691,0.13856589794158936,0.11874376237392426,-0.35971981287002563
735752,-0.10004457086324692,0.08288361877202988,0.006085917819291353,0.3169941008090973,0.17669926583766937,-0.4132997393608093
735792,-0.09830905497074127,0.08578228205442429,0.006537019740790129,0.1633954644203186,0.09993825852870941,-0.4436311721801758
735832,-0.09795314073562622,0.0839565098285675,0.0062420726753771305,0.22093559801578522,0.07254782319068909,-0.4733622968196869
735872,-0.10124851018190384,0.08775516599416733,0.006081229075789452,0.06488820165395737,0.19967275857925415,-0.5110315680503845
735912,-0.10089665651321411,0.08467868715524673,0.006520779803395271,0.19097597897052765,0.2520892918109894,-0.3983086347579956
735953,-0.09948155283927917,0.08446913212537766,0.006903546862304211,0.16054683923721313,0.2033878117799759,-0.3445749282836914
735992,-0.10078412294387817,0.08751656860113144,0.007485140115022659,0.11185558885335922,0.23809511959552765,-0.472573459148407
736032,-0.1027933806180954,0.08662860095500946,0.006944997701793909,0.12616755068302155,0.2357856184244156,-0.5594587922096252
736072,-0.09939116984605789,0.08825301378965378,0.006931580603122711,0.08548492938280106,0.18980197608470917,-0.4794681668281555
736112,-0.09977008402347565,0.08798375725746155,0.006341198924928904,0.11029986292123795,0.23722608387470245,-0.456816166639328
736152,-0.09661288559436798,0.088162861764431,0.006441452074795961,0.06885647028684616,0.11694199591875076,-0.42820021510124207
736192,-0.09810516238212585,0.08863897621631622,0.006128388922661543,0.11331330239772797,0.1574169546365738,-0.5349820852279663
736232,-0.09683939814567566,0.0893094539642334,0.005845341831445694,0.06597187370061874,0.16777613759040833,-0.4573976397514343
736272,-0.0983690619468689,0.08909442275762558,0.00530289439484477,0.08403615653514862,0.2609809637069702,-0.4460822343826294
736312,-0.09897194802761078,0.09017158299684525,0.0044705551117658615,0.0678018257021904,0.2289968580007553,-0.5358477234840393
736352,-0.09681360423564911,0.08887145668268204,0.004988174885511398,0.11254191398620605,0.1822199821472168,-0.447166383266449
736392,-0.09789545089006424,0.09060076624155045,0.004750842694193125,0.056200794875621796,0.18269802629947662,-0.5152185559272766
736432,-0.10150937736034393,0.08890321105718613,0.004210984334349632,0.1674806922674179,0.2970171272754669,-0.5839017033576965
736472,-0.10346898436546326,0.0885222926735878,0.004301406443119049,0.15222838521003723,0.29088640213012695,-0.6491621732711792
736512,-0.10159948468208313,0.08945641666650772,0.005137029103934765,0.13100098073482513,0.32367855310440063,-0.5347834229469299
736552,-0.10168236494064331,0.09092741459608078,0.006204082630574703,0.02362912893295288,0.34096047282218933,-0.46297842264175415
736592,-0.10128627717494965,0.09381897002458572,0.007469740230590105,-0.06214325875043869,0.32519057393074036,-0.43478626012802124
736632,-0.10288779437541962,0.09373854100704193,0.0074381898157298565,0.008128529414534569,0.3291566073894501,-0.4875975251197815
736672,-0.1019839271903038,0.09470216184854507,0.00732076819986105,-0.0037440082523971796,0.29607588052749634,-0.43569713830947876
736712,-0.09849795699119568,0.09544094651937485,0.007313637528568506,0.029062163084745407,0.19984285533428192,-0.38782843947410583
736752,-0.09947861731052399,0.09801112115383148,0.006709710694849491,-0.08982814848423004,0.302303284406662,-0.30464908480644226
736793,-0.09202813357114792,0.0973396897315979,0.005507499445229769,-0.010069194249808788,-0.00679389201104641,-0.229531928896904
736833,-0.09092196822166443,0.09998820722103119,0.005810158792883158,-0.005551367532461882,-0.0021704728715121746,-0.299145370721817
736873,-0.09338174015283585,0.0978696197271347,0.0061316899955272675,0.06538071483373642,0.10641022026538849,-0.3041420876979828
736913,-0.09270648658275604,0.0991208627820015,0.006297542713582516,0.0708092525601387,0.12984880805015564,-0.3288624584674835
736952,-0.09435633569955826,0.09774346649646759,0.006363280583173037,0.13500502705574036,0.15644489228725433,-0.33617928624153137
736993,-0.09174942225217819,0.09780692309141159,0.005619293078780174,0.11237581819295883,0.10024642199277878,-0.3081050217151642
737032,-0.09132681041955948,0.09859096258878708,0.0057739876210689545,0.0770253911614418,0.14689640700817108,-0.31346356868743896
737072,-0.09460186213254929,0.09797731786966324,0.0061616115272045135,0.14036956429481506,0.22589680552482605,-0.32601985335350037
737112,-0.09139391034841537,0.09945208579301834,0.005952066276222467,0.08294900506734848,0.12175581604242325,-0.3216843008995056
737152,-0.09002391993999481,0.10209812223911285,0.007225702051073313,0.04644657298922539,0.15572291612625122,-0.3561386168003082
737192,-0.0917707309126854,0.10032059252262115,0.0062969583086669445,0.1236623153090477,0.20738382637500763,-0.337923139333725
737232,-0.0922657772898674,0.09798195958137512,0.0065567162819206715,0.21074676513671875,0.203016996383667,-0.3237478733062744
737272,-0.09203513711690903,0.09913989156484604,0.005744254682213068,0.2280990332365036,0.19011709094047546,-0.3281302750110626
737312,-0.09187168627977371,0.100875124335289,0.005638077389448881,0.15044258534908295,0.2169269174337387,-0.336443692445755
737352,-0.09021389484405518,0.10132361948490143,0.005580610129982233,0.12591245770454407,0.23882748186588287,-0.33885276317596436
737392,-0.09108936786651611,0.09973055124282837,0.006413054186850786,0.13539516925811768,0.28392845392227173,-0.33144527673721313
737432,-0.08883734792470932,0.09828802198171616,0.005347800441086292,0.1751951277256012,0.24344484508037567,-0.33346325159072876
737472,-0.08856838196516037,0.09891786426305771,0.006553277838975191,0.19013060629367828,0.24002310633659363,-0.3344208896160126
737512,-0.08882230520248413,0.09666578471660614,0.007468322291970253,0.21096667647361755,0.2448568195104599,-0.3296658396720886
737552,-0.08933079987764359,0.09910963475704193,0.008118093013763428,0.12379976361989975,0.33563610911369324,-0.3178007900714874
737592,-0.0876668319106102,0.10033751279115677,0.007991832681000233,0.13685934245586395,0.26265689730644226,-0.3269710838794708
737632,-0.08942275494337082,0.0999126061797142,0.007316572591662407,0.09535815566778183,0.34192365407943726,-0.31360796093940735
737672,-0.08726967871189117,0.1006089374423027,0.007280082441866398,0.13098901510238647,0.25416070222854614,-0.32398664951324463
737712,-0.09098374843597412,0.09853523224592209,0.006339671555906534,0.20825843513011932,0.3769320845603943,-0.3198540210723877
737752,-0.08832070231437683,0.09903661161661148,0.005611520726233721,0.1626758575439453,0.3433891534805298,-0.31857120990753174
737792,-0.08806033432483673,0.0993150845170021,0.006880982778966427,0.20263539254665375,0.33995234966278076,-0.3230443298816681
737832,-0.08707816898822784,0.0984933152794838,0.005963665433228016,0.1875421106815338,0.37504568696022034,-0.3176761269569397
737872,-0.08710713684558868,0.09857362508773804,0.007016329560428858,0.16953162848949432,0.35404151678085327,-0.3174993395805359
737912,-0.08739525079727173,0.09750527143478394,0.005804005078971386,0.18639618158340454,0.31564655900001526,-0.3258703351020813
737953,-0.08682575076818466,0.10081830620765686,0.005221718456596136,0.056203894317150116,0.27801984548568726,-0.3058474659919739
737993,-0.08663677424192429,0.10015224665403366,0.005619509145617485,0.10446266829967499,0.2803354859352112,-0.3085043132305145
738033,-0.08858762681484222,0.09877103567123413,0.00626412546262145,0.16510187089443207,0.3139432668685913,-0.31270691752433777
738072,-0.08849135786294937,0.09824724495410919,0.00558623718097806,0.16021709144115448,0.31368598341941833,-0.3071688711643219
738113,-0.08942708373069763,0.09713955223560333,0.005770696327090263,0.22402624785900116,0.3648669123649597,-0.31472358107566833
738153,-0.08902791887521744,0.09753865003585815,0.005262860096991062,0.1411900669336319,0.34042805433273315,-0.3008744716644287
738193,-0.0907524824142456,0.09756617248058319,0.004996111150830984,0.15861041843891144,0.39896857738494873,-0.30184951424598694
738232,-0.09312708675861359,0.09792551398277283,0.004328068345785141,0.14575017988681793,0.4037114977836609,-0.3082423508167267
738272,-0.09025155007839203,0.0971335768699646,0.005859873723238707,0.14305651187896729,0.31056511402130127,-0.3281610310077667
738312,-0.09027057886123657,0.09677141159772873,0.0054262191988527775,0.15205998718738556,0.26984065771102905,-0.34196579456329346
738352,-0.09018953889608383,0.09980971366167068,0.0051010772585868835,-0.026166964322328568,0.2552195191383362,-0.32823312282562256
738392,-0.09168177098035812,0.09839954972267151,0.0057989791966974735,0.05023643374443054,0.306272953748703,-0.34107017517089844
738432,-0.08900230377912521,0.10243416577577591,0.005317309871315956,-0.07099873572587967,0.20590046048164368,-0.32625535130500793
738472,-0.0874498039484024,0.10688430815935135,0.005710348021239042,-0.25189825892448425,0.20306240022182465,-0.3345842957496643
738512,-0.08692104369401932,0.108787402510643,0.00574135547503829,-0.2113407999277115,0.2298945039510727,-0.352387011051178
738552,-0.09082720428705215,0.10766469687223434,0.0057786391116678715,-0.1256667822599411,0.2953365445137024,-0.33145198225975037
738592,-0.08798136562108994,0.1096062883734703,0.00569603405892849,-0.12453717738389969,0.2409375011920929,-0.3189762532711029
738632,-0.08730228990316391,0.11040665209293365,0.005696321837604046,-0.054065171629190445,0.2278069704771042,-0.31546658277511597
738672,-0.09670569002628326,0.10382652282714844,0.0060835643671453,0.21908646821975708,0.5535334944725037,-0.43121305108070374
738712,-0.09101298451423645,0.10637348145246506,0.006274654995650053,0.15399880707263947,0.31666290760040283,-0.359659343957901
738752,-0.0967792421579361,0.0985160768032074,0.006919169332832098,0.49015548825263977,0.49566221237182617,-0.3967394232749939
738792,-0.09557880461215973,0.09646245837211609,0.00650122482329607,0.48022428154945374,0.4390442371368408,-0.4012525677680969
738832,-0.09728284925222397,0.09886068105697632,0.0054210820235311985,0.3752310276031494,0.43875977396965027,-0.393923282623291
738872,-0.09704913198947906,0.09680526703596115,0.005443579517304897,0.40618541836738586,0.35834386944770813,-0.39180219173431396
738912,-0.09602638334035873,0.09898915141820908,0.006298908032476902,0.2917695641517639,0.3708858788013458,-0.3942827582359314
738952,-0.09639038890600204,0.10022230446338654,0.0065042851492762566,0.25990554690361023,0.34869274497032166,-0.4390726685523987
738992,-0.09630018472671509,0.09992659091949463,0.006652649026364088,0.19636830687522888,0.3157656192779541,-0.42102906107902527
739032,-0.095809705555439,0.10044745355844498,0.006319757085293531,0.20481543242931366,0.23151354491710663,-0.5012331008911133
739072,-0.097075916826725,0.10001681745052338,0.006499083712697029,0.19528773427009583,0.22416608035564423,-0.5085645318031311
739112,-0.09503167867660522,0.0990961343050003,0.005375884938985109,0.18776997923851013,0.21755856275558472,-0.4733913242816925
739152,-0.0934884324669838,0.09541187435388565,0.005676674656569958,0.3384922742843628,0.1998603492975235,-0.5007737874984741
739193,-0.09063181281089783,0.0979573130607605,0.0058904606848955154,0.15117166936397552,0.1485501080751419,-0.48394641280174255
739232,-0.09285750985145569,0.09356570988893509,0.006096419878304005,0.35581129789352417,0.3404708802700043,-0.40223246812820435
739273,-0.09268655627965927,0.10128577798604965,0.005246705841273069,0.04118429869413376,0.28638318181037903,-0.49376165866851807
739312,-0.09219036251306534,0.10002025961875916,0.005772376898676157,0.08068770170211792,0.2624998688697815,-0.4720569849014282
739352,-0.09215828776359558,0.10258267819881439,0.0060441577807068825,0.01993679255247116,0.2721674144268036,-0.4906030595302582
739392,-0.09217172861099243,0.10179287195205688,0.005886760074645281,0.028980571776628494,0.27665838599205017,-0.46158790588378906
739432,-0.08983337879180908,0.10033132880926132,0.0062265824526548386,0.1143108680844307,0.24383485317230225,-0.45400670170783997
739472,-0.08859051764011383,0.10283228009939194,0.006021150853484869,0.09245092421770096,0.21235983073711395,-0.5175952315330505
739512,-0.09034158289432526,0.10314194858074188,0.006743521895259619,0.06436870992183685,0.27449333667755127,-0.521111011505127
739552,-0.08872900158166885,0.09993510693311691,0.006806693971157074,0.20406217873096466,0.15980833768844604,-0.5054217576980591
739592,-0.09021001309156418,0.10199099779129028,0.006882807705551386,0.12422336637973785,0.25278136134147644,-0.5230221748352051
739632,-0.09056910127401352,0.10287316888570786,0.0056278295814991,0.09581689536571503,0.28870394825935364,-0.5353884696960449
739672,-0.08839280158281326,0.10314233601093292,0.005439963191747665,0.12068646401166916,0.22384214401245117,-0.5471778512001038
739712,-0.09044647961854935,0.10250364243984222,0.0054401555098593235,0.11743383854627609,0.2718425691127777,-0.5436156988143921
739752,-0.08979209512472153,0.10299133509397507,0.005688002333045006,0.12980620563030243,0.2579396963119507,-0.5577943325042725
739792,-0.09006893634796143,0.10248562693595886,0.005596826784312725,0.11938412487506866,0.25089317560195923,-0.5374799370765686
739832,-0.09031478315591812,0.10087597370147705,0.005210315342992544,0.11132097244262695,0.19253098964691162,-0.49319881200790405
739872,-0.092583566904068,0.10062779486179352,0.005829302594065666,0.1666163206100464,0.2469380646944046,-0.5237835049629211
739912,-0.096736840903759,0.10652544349431992,0.0061934469267725945,-0.03338121995329857,0.35264888405799866,-0.5997706651687622
739952,-0.09543824195861816,0.10542961210012436,0.0064935386180877686,0.016742657870054245,0.3168032765388489,-0.5623238682746887
739992,-0.09551471471786499,0.10970696806907654,0.006254853680729866,-0.054211974143981934,0.286264568567276,-0.6062642335891724
740032,-0.09524589031934738,0.11117646098136902,0.00528092123568058,-0.11069868505001068,0.2589586079120636,-0.5547594428062439
740072,-0.09304811805486679,0.11138266324996948,0.0057195816189050674,-0.037664253264665604,0.23940180242061615,-0.5604251623153687
740112,-0.09241969138383865,0.11140689998865128,0.005250837188214064,0.006869623903185129,0.22850333154201508,-0.5614576935768127
740152,-0.09299083799123764,0.10969480127096176,0.00572618655860424,0.03651157021522522,0.19888828694820404,-0.46625450253486633
740192,-0.09456989914178848,0.10831515491008759,0.0057075475342571735,0.11364485323429108,0.30470359325408936,-0.5317562818527222
740232,-0.09316693246364594,0.1107897236943245,0.005161304958164692,0.13859403133392334,0.32425153255462646,-0.6479110717773438
740272,-0.0913015604019165,0.10859938710927963,0.004820188507437706,0.1539418250322342,0.2464018017053604,-0.5621298551559448
740312,-0.0913192629814148,0.11119656264781952,0.004965313710272312,0.11836165934801102,0.3250093162059784,-0.6746220588684082
740352,-0.09293141961097717,0.10999404639005661,0.006304237525910139,0.13559235632419586,0.3041853904724121,-0.5950157642364502
740392,-0.09222284704446793,0.10924609005451202,0.005768476519733667,0.15227974951267242,0.27538901567459106,-0.6000348925590515
740432,-0.09379652887582779,0.10956466197967529,0.005323590710759163,0.1847030520439148,0.33815181255340576,-0.6402665376663208
740473,-0.09383324533700943,0.10843060910701752,0.004999192431569099,0.19036465883255005,0.28625184297561646,-0.5710431933403015
740513,-0.0926540419459343,0.11028861254453659,0.004333703313022852,0.1597944051027298,0.2582376301288605,-0.6281141042709351
740552,-0.09437842667102814,0.1136980876326561,0.004672658629715443,0.04479807987809181,0.29444772005081177,-0.6252851486206055
740592,-0.09776679426431656,0.11232814192771912,0.0053842212073504925,0.07483052462339401,0.3328413963317871,-0.5270830392837524
740632,-0.0954027771949768,0.11441915482282639,0.005528897047042847,0.07552433013916016,0.1965615451335907,-0.5527442097663879
740673,-0.09527923166751862,0.11361906677484512,0.005990945268422365,0.13837279379367828,0.20753386616706848,-0.5838061571121216
740712,-0.09540866315364838,0.11371766775846481,0.006335310637950897,0.13308516144752502,0.19946499168872833,-0.6325963735580444
740752,-0.09333935379981995,0.11380086839199066,0.006515043787658215,0.17803139984607697,0.21297650039196014,-0.6757556796073914
740792,-0.0920628234744072,0.11648804694414139,0.006174800917506218,0.14157775044441223,0.24258242547512054,-0.8010068535804749
740832,-0.09101404249668121,0.11625497788190842,0.0066045597195625305,0.16902786493301392,0.20570231974124908,-0.804919421672821
740872,-0.09288482367992401,0.11418481916189194,0.007269465364515781,0.20791363716125488,0.2560889720916748,-0.7258574962615967
740912,-0.08970458805561066,0.11540289223194122,0.00724090076982975,0.1494901180267334,0.20221474766731262,-0.7892410755157471
740952,-0.09089794754981995,0.11404604464769363,0.007168683689087629,0.2159477174282074,0.23787546157836914,-0.7620707750320435
740992,-0.08889845758676529,0.11344798654317856,0.00662336777895689,0.17733824253082275,0.24053791165351868,-0.7883496880531311
741032,-0.0884375050663948,0.11383876949548721,0.005728285294026136,0.1847887933254242,0.25540363788604736,-0.8352081775665283
741072,-0.08890055865049362,0.11391648650169373,0.0064418725669384,0.18041209876537323,0.22756771743297577,-0.7931994199752808
741112,-0.08881448209285736,0.11230520159006119,0.006179424002766609,0.19092141091823578,0.2205403596162796,-0.7538376450538635
741152,-0.08893207460641861,0.1109311655163765,0.004669716116040945,0.2559782862663269,0.2753704786300659,-0.7826746702194214
741192,-0.08738626539707184,0.11162986606359482,0.004753024782985449,0.2173306792974472,0.30294710397720337,-0.8347592353820801
741232,-0.08570273965597153,0.1098899245262146,0.004526927601546049,0.24220451712608337,0.29155096411705017,-0.8443373441696167
741272,-0.0878637433052063,0.11316075921058655,0.004834081511944532,0.15084168314933777,0.38112273812294006,-0.8694841265678406
741312,-0.08804213255643845,0.11065920442342758,0.005873783957213163,0.19393713772296906,0.3279174566268921,-0.8053354024887085
741352,-0.08841070532798767,0.11222556978464127,0.006532527506351471,0.19125434756278992,0.34286731481552124,-0.858905017375946
741392,-0.0867202877998352,0.11471614241600037,0.0065894643776118755,0.1536666750907898,0.28684115409851074,-0.9270457029342651
741432,-0.08561154454946518,0.11341145634651184,0.006998185999691486,0.1832040399312973,0.2289815992116928,-0.8993977904319763
741472,-0.08365018665790558,0.11309656500816345,0.007110837381333113,0.19734705984592438,0.23959451913833618,-0.9476200938224792
741512,-0.08227942883968353,0.11479204893112183,0.007059954106807709,0.16708506643772125,0.2048192173242569,-0.9692349433898926
741552,-0.08232983201742172,0.1144171729683876,0.0070495931431651115,0.17220494151115417,0.16366195678710938,-0.9320352077484131
741592,-0.08626925200223923,0.1141248419880867,0.006988727953284979,0.2114211469888687,0.2538229823112488,-0.8909832835197449
741632,-0.08600912988185883,0.11485624313354492,0.006882222834974527,0.13399207592010498,0.2272745817899704,-0.8504113554954529
741672,-0.08649448305368423,0.11279381066560745,0.006862689275294542,0.21343086659908295,0.29171517491340637,-0.8601970672607422
741712,-0.0882406011223793,0.11463270336389542,0.005979652516543865,0.13739939033985138,0.2508160471916199,-0.7925423979759216
741752,-0.08808951079845428,0.11434446275234222,0.006024845875799656,0.11357463151216507,0.2622936964035034,-0.7793494462966919
741792,-0.08910153061151505,0.11218760907649994,0.0061895959079265594,0.22828881442546844,0.256640762090683,-0.75986248254776
741832,-0.08779007196426392,0.11142920702695847,0.005495983641594648,0.2048133760690689,0.2422100156545639,-0.7494879364967346
741872,-0.08663169294595718,0.11098001897335052,0.005390408914536238,0.20403559505939484,0.2370341271162033,-0.7650922536849976
741912,-0.08627503365278244,0.11277436465024948,0.005382894538342953,0.16290628910064697,0.29861897230148315,-0.8290178179740906
741953,-0.08985541015863419,0.10862869024276733,0.00562335504218936,0.23714956641197205,0.35617274045944214,-0.7458032369613647
741992,-0.08212650567293167,0.1118117943406105,0.005641195457428694,0.10653918981552124,0.11176350712776184,-0.787719190120697
742032,-0.07941458374261856,0.11274825036525726,0.006449527107179165,0.055654194205999374,0.08335366100072861,-0.7872443199157715
742072,-0.08042559027671814,0.1104060634970665,0.0061983875930309296,0.13536837697029114,0.18255487084388733,-0.780337393283844
742112,-0.08018488436937332,0.11071351170539856,0.00560269970446825,0.15840555727481842,0.13972453773021698,-0.7569495439529419
742152,-0.0814560204744339,0.1116577535867691,0.006024426314979792,0.07871399074792862,0.1650058627128601,-0.719481348991394
742192,-0.08734457939863205,0.11234844475984573,0.005434883758425713,0.03883444517850876,0.4375825524330139,-0.7491651177406311
