Timestamp,stateEstimate.x,stateEstimate.y,stateEstimate.z,stateEstimate.roll,stateEstimate.pitch,stateEstimate.yaw
26460,-0.04532327875494957,0.27722153067588806,0.2607264518737793,-0.2712893486022949,0.261302649974823,-0.08234050869941711
26500,-0.04704807326197624,0.28194984793663025,0.2601300776004791,-0.2927233874797821,0.26744166016578674,-0.07562822848558426
26540,-0.04645206034183502,0.28037160634994507,0.26061058044433594,-0.2878343462944031,0.2664604187011719,-0.07369180768728256
26580,-0.04412006586790085,0.2814493477344513,0.2615033984184265,-0.29493439197540283,0.2509075999259949,-0.08011579513549805
26620,-0.05244433134794235,0.2847660779953003,0.2583079934120178,-0.30783969163894653,0.29975825548171997,-0.057737842202186584
26660,-0.04411565139889717,0.2881588339805603,0.25738757848739624,-0.3156837224960327,0.24805301427841187,-0.08030542731285095
26700,-0.03815486654639244,0.28510481119155884,0.25736990571022034,-0.29581335186958313,0.21986103057861328,-0.09258253872394562
26740,-0.03495257347822189,0.28432390093803406,0.26062411069869995,-0.28839945793151855,0.2064443975687027,-0.10406859964132309
26780,-0.03368319943547249,0.2820405662059784,0.25822144746780396,-0.2744806408882141,0.20795847475528717,-0.10208137333393097
26820,-0.03223428875207901,0.2806445062160492,0.25888025760650635,-0.2646196484565735,0.20613691210746765,-0.10518407076597214
26860,-0.03708665072917938,0.2819342315196991,0.2581765949726105,-0.27311110496520996,0.22844217717647552,-0.0884672999382019
26900,-0.04045005515217781,0.2801033854484558,0.26397889852523804,-0.25540098547935486,0.24199838936328888,-0.0855872854590416
26940,-0.045610081404447556,0.28388696908950806,0.2609688639640808,-0.27005356550216675,0.2677551209926605,-0.06867236644029617
26980,-0.05049807205796242,0.2843313217163086,0.2657727599143982,-0.27091625332832336,0.2926223576068878,-0.058698803186416626
27020,-0.04597621411085129,0.2815859019756317,0.2663250267505646,-0.2515992820262909,0.2676127254962921,-0.07282445579767227
27060,-0.04928954318165779,0.2828923463821411,0.25926902890205383,-0.2618250548839569,0.2980673313140869,-0.05872650444507599
27100,-0.04325234889984131,0.2826409935951233,0.2523522973060608,-0.26657727360725403,0.26866182684898376,-0.06857891380786896
27140,-0.04677259176969528,0.2821415364742279,0.25219669938087463,-0.26082494854927063,0.28517892956733704,-0.059146493673324585
27180,-0.035049326717853546,0.2745918035507202,0.2437429130077362,-0.2194596827030182,0.225635826587677,-0.08023054152727127
27220,-0.033555734902620316,0.268119752407074,0.24352088570594788,-0.19050642848014832,0.2228948175907135,-0.08394766598939896
27260,-0.02914837747812271,0.26726263761520386,0.2445542812347412,-0.19518835842609406,0.19368845224380493,-0.08943373709917068
27300,-0.02599938027560711,0.2673628330230713,0.2498965710401535,-0.20210999250411987,0.18071214854717255,-0.0919433981180191
27340,-0.018235336989164352,0.26804471015930176,0.2450866401195526,-0.20865444839000702,0.1555526703596115,-0.0944843590259552
27380,-0.017507756128907204,0.2619585692882538,0.2430650144815445,-0.19013401865959167,0.1602727323770523,-0.09363054484128952
27420,-0.01789092645049095,0.25986912846565247,0.24502597749233246,-0.18505734205245972,0.17315761744976044,-0.09617242962121964
27460,-0.012827135622501373,0.2613460421562195,0.2443237453699112,-0.20382510125637054,0.14659978449344635,-0.0855991318821907
27500,-0.010938294231891632,0.2624242603778839,0.24468553066253662,-0.20803548395633698,0.15188993513584137,-0.08391023427248001
27540,-0.012867771089076996,0.26400813460350037,0.24172139167785645,-0.20798136293888092,0.1867777556180954,-0.09041709452867508
27580,-0.01017762627452612,0.26526862382888794,0.24153876304626465,-0.22177094221115112,0.17104464769363403,-0.08273680508136749
27620,-0.0024338257499039173,0.26376086473464966,0.2391689568758011,-0.21573568880558014,0.14114078879356384,-0.07909657806158066
27660,-0.008187738247215748,0.26149287819862366,0.23163998126983643,-0.21720358729362488,0.19206035137176514,-0.08590399473905563
27700,-0.004428822547197342,0.26270633935928345,0.23433062434196472,-0.2214270383119583,0.18189692497253418,-0.08453582227230072
27740,-0.00026624061865732074,0.25226131081581116,0.24370241165161133,-0.1592102199792862,0.16906404495239258,-0.10387258231639862
27780,-0.008241302333772182,0.24867933988571167,0.23499158024787903,-0.1475972831249237,0.2376127392053604,-0.12473232299089432
27820,-0.017075542360544205,0.2474822998046875,0.22773049771785736,-0.13779820501804352,0.3175315260887146,-0.15020304918289185
27860,-0.017986318096518517,0.24469591677188873,0.2259877771139145,-0.13497130572795868,0.3287702202796936,-0.1549355387687683
27900,-0.0173378586769104,0.24376289546489716,0.22279655933380127,-0.1405787616968155,0.3346737027168274,-0.15425732731819153
27940,-0.0184792447835207,0.24180032312870026,0.21964465081691742,-0.14740337431430817,0.34457889199256897,-0.1588091403245926
27980,-0.020333189517259598,0.2422451376914978,0.2225007265806198,-0.15999557077884674,0.3423740267753601,-0.1566976010799408
28020,-0.01924734190106392,0.23730222880840302,0.22124353051185608,-0.1350792944431305,0.34389543533325195,-0.1534254103899002
28060,-0.021138958632946014,0.23653097450733185,0.2201385349035263,-0.14040420949459076,0.3668056130409241,-0.16290299594402313
28100,-0.022553056478500366,0.24024149775505066,0.21853381395339966,-0.169255793094635,0.37663543224334717,-0.17511163651943207
28140,-0.018740562722086906,0.24365682899951935,0.22502750158309937,-0.21084372699260712,0.34961774945259094,-0.1752699762582779
28180,-0.015486832708120346,0.24709099531173706,0.2221047431230545,-0.23032373189926147,0.3361451327800751,-0.17902210354804993
28220,-0.019899265840649605,0.25444501638412476,0.2256363332271576,-0.27518072724342346,0.37410321831703186,-0.20449525117874146
28260,-0.017200356349349022,0.25273868441581726,0.2273978441953659,-0.26783719658851624,0.3558545410633087,-0.1988866627216339
28300,-0.007920222356915474,0.2473752200603485,0.2275209128856659,-0.24126233160495758,0.30733612179756165,-0.17923367023468018
28340,-0.00386631116271019,0.24894464015960693,0.2301606386899948,-0.2566615045070648,0.2837880253791809,-0.183285191655159
28380,-0.0005555590614676476,0.24654489755630493,0.22550630569458008,-0.2511896789073944,0.27506354451179504,-0.18090230226516724
28420,-0.004516311455518007,0.24708008766174316,0.221199631690979,-0.2464187741279602,0.30940985679626465,-0.1789349466562271
28460,-0.006263279356062412,0.24622966349124908,0.212848499417305,-0.2495930790901184,0.3328491747379303,-0.17764019966125488
28500,-0.011202125810086727,0.24777351319789886,0.2108401507139206,-0.26541605591773987,0.3570770025253296,-0.18264523148536682
28540,-0.013701442629098892,0.24698981642723083,0.2121523767709732,-0.2559316158294678,0.3695763945579529,-0.17440080642700195
28580,-0.011408781632781029,0.24652230739593506,0.20524495840072632,-0.26136112213134766,0.35434094071388245,-0.18063898384571075
28620,-0.008201095275580883,0.2467658966779709,0.21505221724510193,-0.26804861426353455,0.3437552750110626,-0.1871420443058014
28660,-0.002830233657732606,0.24458418786525726,0.21286949515342712,-0.25820016860961914,0.3138708472251892,-0.18878133594989777
28700,-0.0026689525693655014,0.2434665411710739,0.2140222191810608,-0.2483450025320053,0.3091732859611511,-0.1840004324913025
28740,-0.002436587819829583,0.2451573759317398,0.21604731678962708,-0.25925523042678833,0.30272331833839417,-0.18997600674629211
28780,-0.005105896387249231,0.24424655735492706,0.21095505356788635,-0.25350791215896606,0.3274257183074951,-0.17750020325183868
28820,-0.007373487111181021,0.2513449490070343,0.20125989615917206,-0.29441124200820923,0.35102951526641846,-0.1848396360874176
28860,-0.007255615200847387,0.2578384578227997,0.19860485196113586,-0.3254157602787018,0.35829266905784607,-0.19702114164829254
28900,-0.005278668832033873,0.2667584717273712,0.1924419105052948,-0.36920633912086487,0.3535253405570984,-0.2180415838956833
28940,-0.0025347918272018433,0.2592625319957733,0.19950242340564728,-0.3218124806880951,0.33980417251586914,-0.20339170098304749
28980,-0.005377008114010096,0.2612592875957489,0.2009810507297516,-0.32165077328681946,0.3620029389858246,-0.19280581176280975
29020,-0.010841519571840763,0.25483039021492004,0.20427605509757996,-0.283412903547287,0.4101533591747284,-0.1439036875963211
29060,-0.014263194054365158,0.2548924684524536,0.20604926347732544,-0.27497202157974243,0.43355870246887207,-0.12175894528627396
29100,-0.017024340108036995,0.25280889868736267,0.20683419704437256,-0.262478768825531,0.4463365972042084,-0.0986187756061554
29140,-0.019313573837280273,0.2523195743560791,0.20932786166667938,-0.25860142707824707,0.4569016396999359,-0.08975403010845184
29180,-0.016359897330403328,0.2533402144908905,0.2111167013645172,-0.26359277963638306,0.43246039748191833,-0.11244548857212067
29220,-0.014525853097438812,0.2541944086551666,0.21723142266273499,-0.2632712125778198,0.42023080587387085,-0.12080413848161697
29260,-0.015846120193600655,0.2540321350097656,0.21869111061096191,-0.26622188091278076,0.4321345090866089,-0.11618487536907196
29300,-0.02375587448477745,0.24809186160564423,0.22173449397087097,-0.2262924313545227,0.4770587980747223,-0.06351509690284729
29340,-0.02382180653512478,0.2468583881855011,0.22187551856040955,-0.22663052380084991,0.47476568818092346,-0.0628918707370758
29380,-0.026381665840744972,0.24623075127601624,0.21988032758235931,-0.23364749550819397,0.4809858500957489,-0.064846470952034
29420,-0.02403501234948635,0.24506941437721252,0.2160722315311432,-0.23270484805107117,0.4561358094215393,-0.07306171208620071
29460,-0.029753584414720535,0.24286597967147827,0.2144300639629364,-0.22178538143634796,0.4832415282726288,-0.054774828255176544
29500,-0.0376378633081913,0.24010756611824036,0.2195911705493927,-0.20186646282672882,0.5227857828140259,-0.029540449380874634
29540,-0.0397622175514698,0.23546643555164337,0.22084622085094452,-0.17810578644275665,0.5346679091453552,-0.009469747543334961
29580,-0.045429714024066925,0.2357197254896164,0.22586774826049805,-0.19338129460811615,0.5501177906990051,-0.017424626275897026
29620,-0.045674268156290054,0.23628373444080353,0.22929753363132477,-0.19481931626796722,0.5405691266059875,-0.021754667162895203
29660,-0.04181218519806862,0.2347341775894165,0.22752469778060913,-0.1849077045917511,0.508755624294281,-0.017362838611006737
29700,-0.05221371725201607,0.24111464619636536,0.23380686342716217,-0.23694293200969696,0.5539572834968567,-0.055881910026073456
29740,-0.06197615712881088,0.2381991446018219,0.2311495989561081,-0.21316681802272797,0.6089497804641724,-0.04497208446264267
29780,-0.06627487391233444,0.2397715002298355,0.2374044507741928,-0.22951851785182953,0.6096712350845337,-0.05388454720377922
29820,-0.06665558367967606,0.240061953663826,0.23868834972381592,-0.22956974804401398,0.5858898758888245,-0.050665970891714096
29860,-0.06319580972194672,0.23767510056495667,0.2436474710702896,-0.22485874593257904,0.5379686951637268,-0.04411039501428604
29900,-0.06238853186368942,0.23934076726436615,0.24787349998950958,-0.2338549941778183,0.5265399217605591,-0.05039435625076294
29940,-0.06889794021844864,0.23080255091190338,0.2547892928123474,-0.1702248603105545,0.561261773109436,-0.004819460678845644
29980,-0.06860138475894928,0.2273130565881729,0.2573385536670685,-0.16144192218780518,0.5493180155754089,0.0026388608384877443
30020,-0.06921001523733139,0.22963829338550568,0.25838443636894226,-0.17948108911514282,0.5451722145080566,-0.008357573300600052
30060,-0.06514522433280945,0.2300729602575302,0.25747695565223694,-0.19302597641944885,0.5092832446098328,-0.011775338090956211
30100,-0.06731930375099182,0.23207956552505493,0.2582473158836365,-0.21833549439907074,0.5195386409759521,-0.02898935228586197
30140,-0.06814050674438477,0.2302827686071396,0.2553791105747223,-0.21775978803634644,0.5143014788627625,-0.02529303729534149
30180,-0.06132267042994499,0.2303939312696457,0.24825818836688995,-0.2394830733537674,0.46181991696357727,-0.021511096507310867
30220,-0.05831851437687874,0.22736549377441406,0.24059821665287018,-0.2292746603488922,0.4380374848842621,-0.01225812453776598
30260,-0.059902239590883255,0.22864070534706116,0.24161075055599213,-0.2410106360912323,0.4387832581996918,-0.016494888812303543
30300,-0.06023312732577324,0.23066626489162445,0.23990483582019806,-0.2590351998806,0.4339240789413452,-0.018280180171132088
30340,-0.05565139278769493,0.23129452764987946,0.23698601126670837,-0.2546261250972748,0.412556916475296,-0.013929634355008602
30380,-0.05276495963335037,0.2288529872894287,0.23921993374824524,-0.24121177196502686,0.38777944445610046,-0.01054331474006176
30420,-0.05324184149503708,0.23308350145816803,0.2423686385154724,-0.27213045954704285,0.38573893904685974,-0.004425291437655687
30460,-0.05048028752207756,0.23178201913833618,0.24841466546058655,-0.26217272877693176,0.3714282512664795,-0.0050891791470348835
30500,-0.048354923725128174,0.23100975155830383,0.25381481647491455,-0.2621299922466278,0.3523944616317749,0.00023125862935557961
30540,-0.0456489659845829,0.23151370882987976,0.2578847408294678,-0.26880210638046265,0.3516858220100403,0.0025619566440582275
30580,-0.0472983755171299,0.23170316219329834,0.2603602707386017,-0.25947216153144836,0.3764306604862213,-0.004978931043297052
30620,-0.05086320638656616,0.23312142491340637,0.25059154629707336,-0.2686839997768402,0.4103376865386963,0.0013554260367527604
30660,-0.046374350786209106,0.2352655977010727,0.24740807712078094,-0.2915741205215454,0.3887014389038086,0.02592267282307148
30700,-0.03479890897870064,0.23466885089874268,0.24515505135059357,-0.29667404294013977,0.31462419033050537,0.03410787135362625
30740,-0.03565460070967674,0.23331482708454132,0.24320709705352783,-0.28020405769348145,0.3257071077823639,0.02156480774283409
30780,-0.032740477472543716,0.23365901410579681,0.22897908091545105,-0.28762125968933105,0.3187744915485382,0.035232555121183395
30820,-0.03637121990323067,0.234270840883255,0.22198323905467987,-0.2825290858745575,0.3500916361808777,0.03555212914943695
30860,-0.032865531742572784,0.2426246851682663,0.2248953878879547,-0.3351900279521942,0.32566675543785095,0.10083790123462677
30900,-0.03413715958595276,0.24618731439113617,0.22408899664878845,-0.3548756539821625,0.3406277894973755,0.1308232992887497
30940,-0.03200209140777588,0.2481278032064438,0.22746914625167847,-0.36123931407928467,0.3301941752433777,0.1353507786989212
30980,-0.028125395998358727,0.2461358606815338,0.23001694679260254,-0.33943971991539,0.30817529559135437,0.10269547998905182
31020,-0.02829841896891594,0.24706971645355225,0.23252911865711212,-0.33808135986328125,0.3063828945159912,0.0981362983584404
31060,-0.026842910796403885,0.25217700004577637,0.23081769049167633,-0.3561311662197113,0.31289318203926086,0.13062255084514618
31100,-0.02694455161690712,0.2506217360496521,0.22583560645580292,-0.34159350395202637,0.3283775746822357,0.11837945878505707
31140,-0.0259512048214674,0.2490261346101761,0.2270132303237915,-0.3241838812828064,0.3364364504814148,0.09795168787240982
31180,-0.023911310359835625,0.24935415387153625,0.23142246901988983,-0.3243784010410309,0.34350401163101196,0.09801241755485535
31220,-0.024963952600955963,0.2515893280506134,0.23061007261276245,-0.33344489336013794,0.35273677110671997,0.11413183808326721
31260,-0.023775706067681313,0.25206390023231506,0.2268371731042862,-0.32515984773635864,0.35245245695114136,0.10519423335790634
31300,-0.02466260828077793,0.2531202733516693,0.22192010283470154,-0.32407036423683167,0.36713898181915283,0.11443343758583069
31340,-0.022251751273870468,0.24842801690101624,0.2214493453502655,-0.29016780853271484,0.35467398166656494,0.06977561116218567
31380,-0.017700590193271637,0.24968735873699188,0.22325141727924347,-0.29188108444213867,0.3337920010089874,0.06134970113635063
31420,-0.016583411023020744,0.2518007755279541,0.22556433081626892,-0.3137079179286957,0.3298260271549225,0.0800648033618927
31460,-0.02030773088335991,0.24985092878341675,0.22244742512702942,-0.2952076494693756,0.3752930462360382,0.08320369571447372
31500,-0.021055223420262337,0.25327828526496887,0.2260858565568924,-0.30287644267082214,0.3764377534389496,0.09308881312608719
31540,-0.020796213299036026,0.2525588870048523,0.22676777839660645,-0.3041389286518097,0.3737989366054535,0.09532923996448517
31580,-0.022966716438531876,0.25052881240844727,0.22018449008464813,-0.28483492136001587,0.40301814675331116,0.09001084417104721
31620,-0.02216169238090515,0.25147902965545654,0.22451545298099518,-0.2981938421726227,0.3950304388999939,0.09807862341403961
31660,-0.02523370459675789,0.24759133160114288,0.22077418863773346,-0.2776733338832855,0.42156633734703064,0.09500560164451599
31700,-0.022428402677178383,0.24736863374710083,0.2200096696615219,-0.2793387770652771,0.41321417689323425,0.09592486917972565
31740,-0.016828052699565887,0.24482983350753784,0.21712350845336914,-0.2682253420352936,0.3880779445171356,0.08970026671886444
31780,-0.018992535769939423,0.2464076727628708,0.20760104060173035,-0.28037744760513306,0.42764127254486084,0.09607061743736267
31820,-0.019099975004792213,0.24582302570343018,0.20800411701202393,-0.27068036794662476,0.43326708674430847,0.09146281331777573
31860,-0.013444405049085617,0.2464965432882309,0.20940858125686646,-0.27071505784988403,0.40546584129333496,0.09177155047655106
31900,-0.012995335273444653,0.24801737070083618,0.20984476804733276,-0.2824469208717346,0.4007177948951721,0.09539352357387543
31940,-0.011825508438050747,0.2487890124320984,0.20844653248786926,-0.2883814573287964,0.4019136130809784,0.09670794010162354
31980,-0.015531283803284168,0.24676193296909332,0.21166008710861206,-0.2685807943344116,0.4350748658180237,0.09428786486387253
32020,-0.016469832509756088,0.24503876268863678,0.21673104166984558,-0.2571667432785034,0.4484896659851074,0.0937250554561615
32060,-0.01735851541161537,0.24538937211036682,0.21641671657562256,-0.2646026909351349,0.4556891620159149,0.09312433749437332
32100,-0.020906120538711548,0.24584130942821503,0.2173955887556076,-0.2714232802391052,0.4900000989437103,0.08590895682573318
32140,-0.02630017139017582,0.24486365914344788,0.2169281393289566,-0.27304670214653015,0.517312228679657,0.07681402564048767
32180,-0.026909522712230682,0.24247004091739655,0.21763871610164642,-0.26393380761146545,0.5228689312934875,0.07368411123752594
32220,-0.030337227508425713,0.24446454644203186,0.2159646451473236,-0.27481919527053833,0.5368622541427612,0.06634150445461273
32260,-0.03342520073056221,0.24606136977672577,0.22078894078731537,-0.2846682071685791,0.550482988357544,0.05747649818658829
32300,-0.028516970574855804,0.2473945915699005,0.21886497735977173,-0.28953081369400024,0.5106328129768372,0.06593210250139236
32340,-0.02930581569671631,0.25166454911231995,0.22019948065280914,-0.3126283586025238,0.5176069140434265,0.04712238907814026
32380,-0.03084571100771427,0.25280770659446716,0.22328031063079834,-0.3160664439201355,0.5280449986457825,0.04527638480067253
32420,-0.03247976303100586,0.25106367468833923,0.22301703691482544,-0.3016941249370575,0.5371332168579102,0.05031625181436539
32460,-0.03478015959262848,0.25388506054878235,0.22311949729919434,-0.3137376308441162,0.5444774627685547,0.03402947634458542
32500,-0.03393261134624481,0.25269070267677307,0.22157450020313263,-0.297918438911438,0.5359886884689331,0.04712846502661705
32540,-0.03541877120733261,0.25533929467201233,0.22270752489566803,-0.3085716664791107,0.5377250909805298,0.03497906029224396
32580,-0.030406778678297997,0.2537546455860138,0.22423286736011505,-0.29890158772468567,0.49176329374313354,0.055214110761880875
32620,-0.032432377338409424,0.2545776963233948,0.22661848366260529,-0.30112871527671814,0.492547869682312,0.05313324183225632
32660,-0.030731983482837677,0.2548659145832062,0.22966842353343964,-0.3144489526748657,0.4779808223247528,0.039312344044446945
32700,-0.027135541662573814,0.2570001780986786,0.22557607293128967,-0.3256481885910034,0.4501456618309021,0.028249124065041542
32740,-0.025403868407011032,0.261270672082901,0.22525228559970856,-0.34899622201919556,0.4332328140735626,0.007511462550610304
32780,-0.020931189879775047,0.25826597213745117,0.22503940761089325,-0.32511836290359497,0.4091569781303406,0.023497913032770157
32820,-0.020119449123740196,0.25765660405158997,0.22135016322135925,-0.32912591099739075,0.4028049111366272,0.018710335716605186
32860,-0.020629223436117172,0.2583802342414856,0.21505986154079437,-0.3397296667098999,0.40451452136039734,0.01049850694835186
32900,-0.019511595368385315,0.25467875599861145,0.2191421091556549,-0.31562650203704834,0.4011073410511017,0.026189984753727913
32940,-0.018325602635741234,0.25596341490745544,0.21716611087322235,-0.32474008202552795,0.4197560250759125,0.016368918120861053
32980,-0.015879429876804352,0.2542964220046997,0.2209499329328537,-0.3072722852230072,0.4077635109424591,0.027695229277014732
33020,-0.016306525096297264,0.25137680768966675,0.224127396941185,-0.2915164828300476,0.4154631793498993,0.03307344391942024
33060,-0.013336382806301117,0.2527369260787964,0.22855505347251892,-0.3018133342266083,0.38910970091819763,0.03152263164520264
33100,-0.018519917502999306,0.2510709762573242,0.2289160043001175,-0.29498690366744995,0.4257104992866516,0.02606252394616604
33140,-0.020838718861341476,0.25386062264442444,0.22284704446792603,-0.30911967158317566,0.449604868888855,0.019285913556814194
33180,-0.020075542852282524,0.254203200340271,0.22653600573539734,-0.30294549465179443,0.4467228949069977,0.018538495525717735
33220,-0.014917828142642975,0.25008153915405273,0.22731609642505646,-0.2827707529067993,0.40897136926651,0.02852884866297245
33260,-0.023605620488524437,0.250521719455719,0.21654285490512848,-0.29300162196159363,0.4778642952442169,0.010790880769491196
33300,-0.02780875936150551,0.24672497808933258,0.2188860923051834,-0.26242154836654663,0.4963757395744324,0.010719374753534794
33340,-0.02587943710386753,0.2436985820531845,0.22229787707328796,-0.25133875012397766,0.4870709478855133,0.015072965994477272
33380,-0.02712440863251686,0.24423842132091522,0.22338075935840607,-0.2615891098976135,0.4842038154602051,0.014759535901248455
33420,-0.02904479205608368,0.2416502982378006,0.22179758548736572,-0.24373632669448853,0.48667868971824646,0.016178909689188004
33460,-0.03170358017086983,0.24395671486854553,0.22470587491989136,-0.25572270154953003,0.5014588236808777,0.008460800163447857
33500,-0.03333837538957596,0.2421759068965912,0.2267865687608719,-0.2592668831348419,0.4993048906326294,0.0059161921963095665
33540,-0.03459607809782028,0.24302425980567932,0.22565346956253052,-0.2699015438556671,0.5032719373703003,0.000655244686640799
33580,-0.03819024935364723,0.24890413880348206,0.23242442309856415,-0.2977678179740906,0.5066363215446472,-0.007490719202905893
33620,-0.03866305574774742,0.2494480013847351,0.23696871101856232,-0.3054156005382538,0.4923327565193176,-0.004549097735434771
33660,-0.03931887820363045,0.24834315478801727,0.24083103239536285,-0.2979517877101898,0.492667555809021,-0.0012628769036382437
33700,-0.040418606251478195,0.24842619895935059,0.23914603888988495,-0.29616332054138184,0.5030477643013,-0.0033237922471016645
33740,-0.042468126863241196,0.24782732129096985,0.23869724571704865,-0.28832343220710754,0.51833575963974,-0.005579517688602209
33780,-0.042832862585783005,0.24842612445354462,0.23830454051494598,-0.3060718774795532,0.5192330479621887,-0.013294966891407967
33820,-0.0430111400783062,0.25322389602661133,0.24438269436359406,-0.3309245705604553,0.5111923217773438,-0.02199997566640377
33860,-0.039222195744514465,0.2516336143016815,0.24855615198612213,-0.31593286991119385,0.46891075372695923,-0.01366489939391613
33900,-0.04428812488913536,0.2539792060852051,0.24898074567317963,-0.33076712489128113,0.4949181079864502,-0.021717162802815437
33940,-0.04319115728139877,0.2539355456829071,0.24817198514938354,-0.3219916820526123,0.4938727021217346,-0.016787366941571236
33980,-0.04208012670278549,0.2518705427646637,0.24885334074497223,-0.31515514850616455,0.482982873916626,-0.01697540655732155
34020,-0.041196901351213455,0.25355562567710876,0.25428393483161926,-0.3200942277908325,0.4660702645778656,-0.021774541586637497
34060,-0.03850627318024635,0.25730040669441223,0.25735196471214294,-0.3459708094596863,0.44190412759780884,-0.031978487968444824
34100,-0.036888595670461655,0.2566109597682953,0.25929728150367737,-0.3442603647708893,0.4343419671058655,-0.032245323061943054
34140,-0.03624000400304794,0.25464215874671936,0.2636292278766632,-0.3287510871887207,0.4250679016113281,-0.030961085110902786
34180,-0.034611545503139496,0.2502630054950714,0.2633897066116333,-0.3029640018939972,0.4089708924293518,-0.031940657645463943
34220,-0.03975262492895126,0.2504633963108063,0.2565489411354065,-0.3016057014465332,0.4474116563796997,-0.022868070751428604
34260,-0.041524775326251984,0.25162920355796814,0.25881603360176086,-0.30610162019729614,0.4544135332107544,-0.024126216769218445
34300,-0.035256657749414444,0.2487398236989975,0.26030227541923523,-0.2853538393974304,0.40691742300987244,-0.03035670332610607
34340,-0.028037887066602707,0.24665828049182892,0.26229438185691833,-0.2880006432533264,0.361311137676239,-0.03732439503073692
34380,-0.027363765984773636,0.2505073845386505,0.262550950050354,-0.308961421251297,0.36473745107650757,-0.0378243550658226
34420,-0.029522836208343506,0.2526484429836273,0.2591555118560791,-0.3160102665424347,0.3865964114665985,-0.03533466160297394
34460,-0.026369906961917877,0.2502601742744446,0.2517213225364685,-0.3069946765899658,0.37738630175590515,-0.03737260028719902
34500,-0.02563704364001751,0.2524724304676056,0.2481415718793869,-0.3202052414417267,0.37030085921287537,-0.03542876988649368
34540,-0.024112317711114883,0.2521962821483612,0.2514244616031647,-0.31426292657852173,0.36103206872940063,-0.04043145105242729
34580,-0.019488520920276642,0.2529636025428772,0.2532234191894531,-0.3053933382034302,0.3362814784049988,-0.04870898276567459
34620,-0.02391405776143074,0.2542460262775421,0.24850408732891083,-0.30948254466056824,0.36743107438087463,-0.043240033090114594
34660,-0.024052530527114868,0.25655701756477356,0.2476106882095337,-0.3013731837272644,0.3897241950035095,-0.04148474335670471
34700,-0.024657094851136208,0.25721627473831177,0.2476145178079605,-0.30551770329475403,0.3983701765537262,-0.0390407033264637
34740,-0.021632714197039604,0.25790250301361084,0.24982333183288574,-0.31174665689468384,0.37350866198539734,-0.04066001623868942
34780,-0.017896676436066628,0.2566625475883484,0.25080668926239014,-0.3028660714626312,0.3580029606819153,-0.04657308757305145
34820,-0.01678021252155304,0.2563287913799286,0.2459341585636139,-0.2981511056423187,0.36653730273246765,-0.043016064912080765
34860,-0.015561970882117748,0.25451523065567017,0.24196171760559082,-0.282606840133667,0.3633894622325897,-0.0493144653737545
34900,-0.017161153256893158,0.25462275743484497,0.2422245293855667,-0.286037802696228,0.380549818277359,-0.04711764305830002
34940,-0.017719432711601257,0.257872998714447,0.2427622526884079,-0.30364394187927246,0.39046651124954224,-0.03385870158672333
34980,-0.013220596127212048,0.2571350336074829,0.24438679218292236,-0.2988494038581848,0.3659699559211731,-0.04390054568648338
35020,-0.014675839804112911,0.2626064419746399,0.2442282885313034,-0.3239704966545105,0.37243854999542236,-0.030316714197397232
35060,-0.0192228052765131,0.2630296051502228,0.24189399182796478,-0.3088046610355377,0.406117707490921,-0.02884877286851406
35100,-0.023892179131507874,0.2643059194087982,0.236652672290802,-0.31504297256469727,0.4440224766731262,-0.015984050929546356
35140,-0.023120848461985588,0.2629778981208801,0.23605987429618835,-0.30084362626075745,0.4454785883426666,-0.020716797560453415
35180,-0.024419430643320084,0.2594219744205475,0.2302437424659729,-0.28326570987701416,0.4658411741256714,-0.020391851663589478
35220,-0.02641916833817959,0.2583082616329193,0.2291342169046402,-0.26344308257102966,0.48387885093688965,-0.02054613083600998
35260,-0.027114886790513992,0.2580518126487732,0.22981953620910645,-0.26171547174453735,0.4806150496006012,-0.022342335432767868
35300,-0.030370712280273438,0.2572602331638336,0.22520755231380463,-0.259164959192276,0.495125949382782,-0.01806599460542202
35340,-0.030787046998739243,0.2548513114452362,0.22074823081493378,-0.24990828335285187,0.4914650022983551,-0.017635688185691833
35380,-0.029495663940906525,0.2576355040073395,0.22213265299797058,-0.27157530188560486,0.4853174686431885,-0.019621318206191063
35420,-0.022908130660653114,0.2501908540725708,0.22312262654304504,-0.2358139455318451,0.4466129541397095,-0.022889476269483566
35460,-0.01695854216814041,0.24798737466335297,0.22403283417224884,-0.22203709185123444,0.4050717055797577,-0.026697037741541862
35500,-0.016463784500956535,0.25047558546066284,0.22782638669013977,-0.2409813106060028,0.40688520669937134,-0.02658793143928051
35540,-0.022057050839066505,0.2530350685119629,0.22449111938476562,-0.25549641251564026,0.4458664655685425,-0.024645570665597916
35580,-0.021056657657027245,0.2538371682167053,0.22266478836536407,-0.2639726400375366,0.4344155788421631,-0.027895517647266388
35620,-0.02300027757883072,0.2538608908653259,0.22842107713222504,-0.26399025321006775,0.4393681585788727,-0.02764543704688549
35660,-0.015156728215515614,0.2535878121852875,0.2341846376657486,-0.2679773271083832,0.3888344168663025,-0.025365838780999184
35700,-0.018627461045980453,0.25696709752082825,0.23381981253623962,-0.282731831073761,0.41453617811203003,-0.028797943145036697
35740,-0.018597779795527458,0.2540335953235626,0.2316715270280838,-0.27106592059135437,0.4148896038532257,-0.028735654428601265
35780,-0.018518151715397835,0.2547392249107361,0.22156241536140442,-0.2741378843784332,0.4278269112110138,-0.033544741570949554
35820,-0.014505756087601185,0.2554911673069,0.22577716410160065,-0.26842108368873596,0.40192726254463196,-0.03326621651649475
35860,-0.006068412214517593,0.25549718737602234,0.22414396703243256,-0.27009838819503784,0.35495561361312866,-0.030951380729675293
35900,-0.0009812387870624661,0.25257012248039246,0.22508883476257324,-0.25338661670684814,0.3286234736442566,-0.029024163261055946
35940,-0.007766092196106911,0.2511701285839081,0.22422748804092407,-0.23204387724399567,0.3765091300010681,-0.03268462046980858
35980,-0.013287384994328022,0.24852381646633148,0.2189866155385971,-0.21531790494918823,0.4150812327861786,-0.03677020221948624
36020,-0.013656681403517723,0.24775555729866028,0.2167753428220749,-0.21410562098026276,0.4146047532558441,-0.03381752222776413
36060,-0.01843280903995037,0.24505527317523956,0.21862132847309113,-0.20370589196681976,0.44651147723197937,-0.03361332044005394
36100,-0.01995830237865448,0.24370026588439941,0.21268577873706818,-0.20277443528175354,0.4568421542644501,-0.03545621410012245
36140,-0.017817728221416473,0.24254664778709412,0.21145352721214294,-0.1889602541923523,0.4378814101219177,-0.0347757413983345
36180,-0.0169206690043211,0.23815590143203735,0.20606373250484467,-0.19094990193843842,0.4493274986743927,-0.03546973317861557
36220,-0.018394025042653084,0.23830026388168335,0.20378611981868744,-0.19264155626296997,0.4589632749557495,-0.038704633712768555
36260,-0.018053917214274406,0.23819546401500702,0.2036541849374771,-0.20420335233211517,0.451471209526062,-0.04307078197598457
36300,-0.013698522932827473,0.23686806857585907,0.20386603474617004,-0.20340700447559357,0.4256698787212372,-0.0367264598608017
36340,-0.016391102224588394,0.23900477588176727,0.20461998879909515,-0.21616609394550323,0.4293471872806549,-0.03905294090509415
36380,-0.01797269657254219,0.23916122317314148,0.2049720287322998,-0.22032500803470612,0.43050479888916016,-0.042320895940065384
36420,-0.01778321899473667,0.24223363399505615,0.205203115940094,-0.24744530022144318,0.4080657958984375,-0.04680698737502098
36460,-0.020992005243897438,0.24618177115917206,0.21241043508052826,-0.2688060700893402,0.41092562675476074,-0.05557263642549515
36500,-0.018750449642539024,0.24468402564525604,0.2166910171508789,-0.2559063732624054,0.40113773941993713,-0.05097285285592079
36540,-0.016565773636102676,0.2447471171617508,0.22404319047927856,-0.2578968107700348,0.38096997141838074,-0.049354638904333115
36580,-0.02199604921042919,0.2494196891784668,0.22004935145378113,-0.2928731441497803,0.4116494059562683,-0.06306537240743637
36620,-0.020750418305397034,0.24862654507160187,0.22279971837997437,-0.2821464538574219,0.407848984003067,-0.05918780714273453
36660,-0.02336190640926361,0.25164031982421875,0.22112613916397095,-0.29441484808921814,0.42591413855552673,-0.06484247744083405
36700,-0.020503457635641098,0.2506095767021179,0.2232765406370163,-0.29096749424934387,0.41012805700302124,-0.0645020455121994
36740,-0.01801510900259018,0.24885764718055725,0.23036974668502808,-0.27944278717041016,0.38783323764801025,-0.05935653671622276
36780,-0.023572539910674095,0.25068047642707825,0.23780380189418793,-0.28581807017326355,0.40172693133354187,-0.062441691756248474
36820,-0.02521413192152977,0.25197717547416687,0.24161367118358612,-0.29419663548469543,0.40153464674949646,-0.06409946084022522
36860,-0.0279023926705122,0.25547727942466736,0.24444495141506195,-0.30844229459762573,0.42014870047569275,-0.06957761943340302
36900,-0.02542726695537567,0.255819708108902,0.24850082397460938,-0.3035222589969635,0.4061405062675476,-0.07429280877113342
36940,-0.026816369965672493,0.2543734312057495,0.24513952434062958,-0.2892680764198303,0.40892720222473145,-0.06570034474134445
36980,-0.026017414405941963,0.25717073678970337,0.24590666592121124,-0.2973156273365021,0.39078861474990845,-0.07479890435934067
37020,-0.021652474999427795,0.2517726719379425,0.2458276003599167,-0.27484259009361267,0.3559871315956116,-0.07605092972517014
37060,-0.02544824779033661,0.2535945177078247,0.24383272230625153,-0.28473350405693054,0.3750693202018738,-0.06762527674436569
37100,-0.029174143448472023,0.2572447955608368,0.24413509666919708,-0.31287577748298645,0.389355331659317,-0.0728464350104332
37140,-0.02305625192821026,0.25576087832450867,0.2430422157049179,-0.31753599643707275,0.3496408462524414,-0.08649706095457077
37180,-0.022594742476940155,0.2559439539909363,0.25291645526885986,-0.3155350387096405,0.35410401225090027,-0.08520656824111938
37220,-0.02118072658777237,0.2542559504508972,0.2532268166542053,-0.3024299442768097,0.3605199456214905,-0.07924585789442062
37260,-0.027257196605205536,0.24817568063735962,0.24713961780071259,-0.27842167019844055,0.3971386253833771,-0.05883507430553436
37300,-0.027026785537600517,0.2480209320783615,0.2482175976037979,-0.2821239233016968,0.39064109325408936,-0.0588672012090683
37340,-0.02429322525858879,0.24726566672325134,0.25078052282333374,-0.2920026183128357,0.36893683671951294,-0.06822632253170013
37380,-0.02298211120069027,0.2442622184753418,0.24326007068157196,-0.27390027046203613,0.3657281994819641,-0.06310312449932098
37420,-0.025809094309806824,0.2451186627149582,0.234739750623703,-0.2826528549194336,0.3901926875114441,-0.05684405937790871
37460,-0.027504654601216316,0.24507388472557068,0.23871679604053497,-0.2849840223789215,0.39549970626831055,-0.05748729035258293
37500,-0.031003747135400772,0.24749444425106049,0.2422976791858673,-0.3046603202819824,0.41159334778785706,-0.059582438319921494
37540,-0.031257595866918564,0.24750250577926636,0.24646107852458954,-0.30142050981521606,0.4142247438430786,-0.06027195230126381
37580,-0.032951898872852325,0.24915628135204315,0.25057855248451233,-0.30631229281425476,0.42581433057785034,-0.06114496290683746
37620,-0.028161467984318733,0.24848361313343048,0.25519007444381714,-0.29885202646255493,0.3971380889415741,-0.06338900327682495
37660,-0.027371017262339592,0.2508724331855774,0.2543187737464905,-0.3107806146144867,0.39117687940597534,-0.0667012631893158
37700,-0.033804070204496384,0.25085705518722534,0.2473897486925125,-0.3153381943702698,0.4271252751350403,-0.05885642394423485
37740,-0.03602232411503792,0.25002557039260864,0.24331499636173248,-0.3109583258628845,0.4440213441848755,-0.05440320819616318
37780,-0.03528321161866188,0.24515439569950104,0.2463589310646057,-0.28329357504844666,0.4348583519458771,-0.047366198152303696
37820,-0.029946010559797287,0.24423319101333618,0.2449827492237091,-0.28468409180641174,0.4019695520401001,-0.050778016448020935
37860,-0.029469920322299004,0.24438393115997314,0.2380620539188385,-0.2933772802352905,0.40462398529052734,-0.05350060388445854
37900,-0.033504780381917953,0.2460162341594696,0.23923012614250183,-0.29487136006355286,0.4063127338886261,-0.05348796397447586
37940,-0.0359455868601799,0.2483842521905899,0.23985032737255096,-0.30524706840515137,0.42835891246795654,-0.05397321656346321
37980,-0.03752226009964943,0.2482956051826477,0.24321453273296356,-0.30415138602256775,0.43102389574050903,-0.051928065717220306
38020,-0.03896011412143707,0.2526070773601532,0.24352909624576569,-0.32992178201675415,0.42617151141166687,-0.056992024183273315
38060,-0.030887870118021965,0.2502380311489105,0.24234271049499512,-0.3115675151348114,0.380988746881485,-0.05812140554189682
38100,-0.03240841254591942,0.24706964194774628,0.245244562625885,-0.29379504919052124,0.39124512672424316,-0.054743386805057526
38140,-0.033744845539331436,0.24659346044063568,0.24403394758701324,-0.2832651436328888,0.3983396291732788,-0.05228019133210182
38180,-0.032256029546260834,0.24825459718704224,0.237042635679245,-0.2842395007610321,0.38860055804252625,-0.05381553992629051
38220,-0.030664173886179924,0.24388942122459412,0.23152557015419006,-0.2581007182598114,0.37568777799606323,-0.05334105342626572
38260,-0.02952745370566845,0.24341413378715515,0.23456545174121857,-0.2623891830444336,0.3726491630077362,-0.05437324941158295
38300,-0.025023596361279488,0.24248258769512177,0.2355152666568756,-0.2532601058483124,0.34391194581985474,-0.054287850856781006
38340,-0.029480908066034317,0.24495325982570648,0.2301228642463684,-0.28527888655662537,0.3727824091911316,-0.05072855204343796
38380,-0.0334865003824234,0.24643516540527344,0.22954833507537842,-0.2851610779762268,0.40359553694725037,-0.0490463525056839
38420,-0.03172069787979126,0.24687820672988892,0.22830212116241455,-0.28370991349220276,0.3901834785938263,-0.049546271562576294
38460,-0.0343194305896759,0.2547624707221985,0.2311474233865738,-0.3253495693206787,0.3920433521270752,-0.04703100398182869
38500,-0.032798945903778076,0.2522772252559662,0.22904203832149506,-0.3043462932109833,0.38275784254074097,-0.049755580723285675
38540,-0.03644195944070816,0.24895046651363373,0.23246528208255768,-0.2870217263698578,0.3917006254196167,-0.0485246367752552
38580,-0.0357237309217453,0.24546855688095093,0.2345215380191803,-0.26880401372909546,0.38791927695274353,-0.049227919429540634
38620,-0.034479934722185135,0.2439880073070526,0.23092494904994965,-0.2554819583892822,0.38391587138175964,-0.05131262540817261
38660,-0.03677377477288246,0.2480604201555252,0.23295803368091583,-0.2759709358215332,0.39509329199790955,-0.047330085188150406
38700,-0.03615008667111397,0.242603600025177,0.23545359075069427,-0.2535781264305115,0.39427822828292847,-0.048494406044483185
38740,-0.033096831291913986,0.23933041095733643,0.2391268014907837,-0.23822839558124542,0.36403024196624756,-0.04734731465578079
38780,-0.034615080803632736,0.24524562060832977,0.24322526156902313,-0.27221959829330444,0.37748900055885315,-0.045260436832904816
38820,-0.038640670478343964,0.24616016447544098,0.24132966995239258,-0.2765633165836334,0.4010201394557953,-0.04412231594324112
38860,-0.039583396166563034,0.25026991963386536,0.24031265079975128,-0.3029591143131256,0.41558244824409485,-0.04108366742730141
38900,-0.03536667302250862,0.25452113151550293,0.2396509349346161,-0.31768089532852173,0.3726295530796051,-0.040504686534404755
38940,-0.026578042656183243,0.2548380494117737,0.24056197702884674,-0.3129649758338928,0.32027724385261536,-0.03924132511019707
38980,-0.029954366385936737,0.2557353079319,0.23942337930202484,-0.3159183859825134,0.3417004644870758,-0.03652389347553253
39020,-0.026752490550279617,0.2557661831378937,0.23727646470069885,-0.31763744354248047,0.331485390663147,-0.039030540734529495
39060,-0.031839773058891296,0.254091739654541,0.236846461892128,-0.30918627977371216,0.3602288067340851,-0.03675362095236778
39100,-0.037639934569597244,0.25490689277648926,0.2445526123046875,-0.3166676163673401,0.39663591980934143,-0.029787123203277588
39140,-0.03813308849930763,0.2601235508918762,0.24192044138908386,-0.33366063237190247,0.4030308425426483,-0.02602582424879074
39180,-0.03999234363436699,0.2636380195617676,0.24286328256130219,-0.35368815064430237,0.41000524163246155,-0.02155151404440403
39220,-0.04220709577202797,0.26537957787513733,0.24207396805286407,-0.35938459634780884,0.4139977991580963,-0.020388593897223473
39260,-0.03689267486333847,0.2646557688713074,0.24429556727409363,-0.35412412881851196,0.3669183850288391,-0.030512254685163498
39300,-0.033585075289011,0.26813000440597534,0.24602729082107544,-0.36674708127975464,0.34877917170524597,-0.03611890226602554
39340,-0.028038540855050087,0.2689841687679291,0.24776946008205414,-0.36937272548675537,0.3148036003112793,-0.0442831851541996
39380,-0.02506452053785324,0.26832613348960876,0.24467860162258148,-0.3694106936454773,0.3009386658668518,-0.0492321141064167
39420,-0.02670689858496189,0.26484230160713196,0.2386973649263382,-0.34747716784477234,0.31488096714019775,-0.04423031955957413
39460,-0.027500014752149582,0.25853753089904785,0.24500425159931183,-0.30141162872314453,0.3182053565979004,-0.04902404174208641
39500,-0.029968105256557465,0.25651392340660095,0.24151593446731567,-0.29717907309532166,0.3320632576942444,-0.041555050760507584
39540,-0.030923228710889816,0.2518778145313263,0.24145656824111938,-0.28980064392089844,0.33776915073394775,-0.038913752883672714
39580,-0.031197817996144295,0.250827431678772,0.23314893245697021,-0.2851312756538391,0.3465102016925812,-0.0368674099445343
39620,-0.03149823844432831,0.25138935446739197,0.23448693752288818,-0.286920964717865,0.3430749773979187,-0.03611021861433983
39660,-0.03684833645820618,0.25249916315078735,0.23959222435951233,-0.30249571800231934,0.374007910490036,-0.033671341836452484
39700,-0.03683624789118767,0.2532114088535309,0.23779422044754028,-0.3035634458065033,0.3756391406059265,-0.03434932604432106
39740,-0.03747612610459328,0.25693413615226746,0.24026590585708618,-0.3203308582305908,0.3781089186668396,-0.033150043338537216
39780,-0.032478734850883484,0.2552191913127899,0.2433878481388092,-0.3087466061115265,0.3425254225730896,-0.03240147605538368
39820,-0.0374469980597496,0.2581699788570404,0.24575699865818024,-0.3209211826324463,0.3730734884738922,-0.03342244774103165
39860,-0.040080662816762924,0.2560063600540161,0.2364075928926468,-0.3074219822883606,0.3977971076965332,-0.03858046978712082
39900,-0.03447084128856659,0.25116246938705444,0.23609058558940887,-0.2765834927558899,0.36368510127067566,-0.0357280932366848
39940,-0.03206147253513336,0.24965667724609375,0.23923204839229584,-0.2815144658088684,0.33364179730415344,-0.032038379460573196
39980,-0.02978524938225746,0.2430773228406906,0.24013851583003998,-0.2580221891403198,0.32354751229286194,-0.02853437513113022
40020,-0.026245685294270515,0.2408304214477539,0.24242854118347168,-0.2532569468021393,0.3073245882987976,-0.024464501067996025
40060,-0.022663306444883347,0.24185311794281006,0.24437321722507477,-0.25828489661216736,0.29156723618507385,-0.02027328498661518
40100,-0.027736900374293327,0.24539098143577576,0.2427913397550583,-0.285002738237381,0.3134624660015106,-0.027815744280815125
40140,-0.030647555366158485,0.24955663084983826,0.24825118482112885,-0.30814796686172485,0.33251243829727173,-0.03375198319554329
40180,-0.02473488263785839,0.2480241358280182,0.2492966651916504,-0.3101092576980591,0.2988660931587219,-0.0210130475461483
40220,-0.02922665886580944,0.2547580897808075,0.2500392198562622,-0.35081663727760315,0.33517158031463623,-0.030858812853693962
40260,-0.0285650622099638,0.25613150000572205,0.2533143162727356,-0.3493492901325226,0.3237610161304474,-0.026214277371764183
40300,-0.029118333011865616,0.25538885593414307,0.2503230571746826,-0.3471734821796417,0.32772091031074524,-0.03114200569689274
40340,-0.030328141525387764,0.25553494691848755,0.2468833476305008,-0.3385707139968872,0.3443485200405121,-0.03679070621728897
40380,-0.025402892380952835,0.2541479468345642,0.24887770414352417,-0.3369638919830322,0.3053927719593048,-0.02949117124080658
40420,-0.02541033923625946,0.25649139285087585,0.25164225697517395,-0.34927335381507874,0.30327627062797546,-0.03149029612541199
40460,-0.029919913038611412,0.2562217116355896,0.24690158665180206,-0.3501676321029663,0.33650967478752136,-0.039215944707393646
40500,-0.028432315215468407,0.2516684830188751,0.24894976615905762,-0.3159463405609131,0.3276698589324951,-0.039018675684928894
40540,-0.039282217621803284,0.25395604968070984,0.2415514588356018,-0.32282230257987976,0.40256428718566895,-0.044654276221990585
40580,-0.039371419697999954,0.25754737854003906,0.2429715096950531,-0.3380844295024872,0.4063109755516052,-0.046226825565099716
40620,-0.033233851194381714,0.25990018248558044,0.24571114778518677,-0.34291160106658936,0.36803779006004333,-0.045995984226465225
40660,-0.032379213720560074,0.2615005075931549,0.2453838586807251,-0.3512078523635864,0.36973392963409424,-0.0490935817360878
40700,-0.03570042923092842,0.26657143235206604,0.24044741690158844,-0.3729560971260071,0.39774787425994873,-0.05458506941795349
40740,-0.036522574722766876,0.2672930955886841,0.23056550323963165,-0.3650243282318115,0.4096858501434326,-0.05254637077450752
40780,-0.040565043687820435,0.2656191289424896,0.23003678023815155,-0.35189947485923767,0.4369587004184723,-0.04708123579621315
40820,-0.036600470542907715,0.26849833130836487,0.2288079559803009,-0.361154705286026,0.4025003910064697,-0.056336209177970886
40860,-0.03658202663064003,0.2631013095378876,0.22981703281402588,-0.33196473121643066,0.39523643255233765,-0.049050409346818924
40900,-0.03816835582256317,0.26172101497650146,0.2254868745803833,-0.306387722492218,0.4126080274581909,-0.03851757198572159
40940,-0.042233582586050034,0.26186615228652954,0.22584691643714905,-0.3033945560455322,0.44001635909080505,-0.03135562688112259
40980,-0.03793177381157875,0.2581597864627838,0.22633975744247437,-0.2843489646911621,0.41530269384384155,-0.030752457678318024
41020,-0.03979727253317833,0.25694820284843445,0.2199430763721466,-0.2888292074203491,0.4396243691444397,-0.02856391668319702
41060,-0.04056410863995552,0.2610287070274353,0.22029884159564972,-0.3121083676815033,0.43790650367736816,-0.039008479565382004
41100,-0.03751558065414429,0.2607247531414032,0.22523845732212067,-0.311847984790802,0.41138339042663574,-0.04422624781727791
41140,-0.036893222481012344,0.2548365890979767,0.22948385775089264,-0.2716888189315796,0.40868934988975525,-0.03212197124958038
41180,-0.0377173013985157,0.2542368173599243,0.2269633263349533,-0.2777717411518097,0.406279593706131,-0.033308204263448715
41220,-0.03696518391370773,0.25288838148117065,0.23071599006652832,-0.2773631811141968,0.39764460921287537,-0.032621752470731735
41260,-0.037472743541002274,0.2540588974952698,0.23166218400001526,-0.28620249032974243,0.39640167355537415,-0.03706579655408859
41300,-0.03737068548798561,0.25175368785858154,0.2359108328819275,-0.28077253699302673,0.4047226309776306,-0.035692889243364334
41340,-0.03426230698823929,0.25215938687324524,0.23425164818763733,-0.2866959273815155,0.3889348804950714,-0.04099022224545479
41380,-0.030342016369104385,0.24798761308193207,0.23383890092372894,-0.27225011587142944,0.3684276342391968,-0.037420134991407394
41420,-0.02962798997759819,0.2505054473876953,0.2378140538930893,-0.29550454020500183,0.35441040992736816,-0.040041930973529816
41460,-0.030094599351286888,0.2528207004070282,0.2368549406528473,-0.30332547426223755,0.3605104982852936,-0.04425483196973801
41500,-0.028357258066534996,0.25324177742004395,0.23905779421329498,-0.3078976273536682,0.35332563519477844,-0.04373995214700699
41540,-0.032865118235349655,0.25623050332069397,0.24071626365184784,-0.3257423937320709,0.37230297923088074,-0.05083964392542839
41580,-0.03576250374317169,0.256604939699173,0.23526504635810852,-0.32492759823799133,0.3921661972999573,-0.053809020668268204
41620,-0.033375371247529984,0.257889986038208,0.23555506765842438,-0.3223115801811218,0.38136202096939087,-0.05333791673183441
41660,-0.03356378898024559,0.26053300499916077,0.23393437266349792,-0.341307669878006,0.38135138154029846,-0.053661804646253586
41700,-0.02925395406782627,0.2560441792011261,0.23381103575229645,-0.31430184841156006,0.35568001866340637,-0.05018401890993118
41740,-0.026452861726284027,0.2532106041908264,0.23457378149032593,-0.3079168200492859,0.34623169898986816,-0.04801312834024429
41780,-0.02426294982433319,0.25344526767730713,0.2399747371673584,-0.3080579936504364,0.33469724655151367,-0.048145782202482224
41820,-0.02907956764101982,0.25444695353507996,0.23341457545757294,-0.31237486004829407,0.36490723490715027,-0.0491495318710804
41860,-0.028302133083343506,0.2564695179462433,0.2317257523536682,-0.3312985599040985,0.364486962556839,-0.04974251240491867
41900,-0.025667600333690643,0.2572300434112549,0.23044759035110474,-0.3401947021484375,0.34650057554244995,-0.04835698381066322
41940,-0.024907056242227554,0.2566293478012085,0.2419062852859497,-0.33373144268989563,0.3373124301433563,-0.04873514175415039
41980,-0.02277871035039425,0.2573486864566803,0.24006348848342896,-0.3432886600494385,0.3291054666042328,-0.04733387008309364
42020,-0.02257723920047283,0.25681445002555847,0.2386866807937622,-0.3350113034248352,0.3368929922580719,-0.04818491265177727
42060,-0.018961472436785698,0.25720590353012085,0.23821035027503967,-0.33608177304267883,0.312547504901886,-0.05095778778195381
42100,-0.017350124195218086,0.2552920877933502,0.241811141371727,-0.3283579349517822,0.29896438121795654,-0.05234930291771889
42140,-0.015299439430236816,0.2571890652179718,0.24799588322639465,-0.3320970833301544,0.2873857915401459,-0.0514468215405941
42180,-0.01925233192741871,0.260719358921051,0.25013232231140137,-0.3471677601337433,0.3162893056869507,-0.04743816703557968
42220,-0.019024167209863663,0.25950151681900024,0.25255632400512695,-0.3294491767883301,0.32731589674949646,-0.05005297437310219
42260,-0.023046093061566353,0.256732314825058,0.24875426292419434,-0.3099437355995178,0.35454320907592773,-0.04924547299742699
42300,-0.024390071630477905,0.2565222382545471,0.24672099947929382,-0.3132283091545105,0.3802253007888794,-0.04636191576719284
42340,-0.025723328813910484,0.2562474012374878,0.24029646813869476,-0.3049362599849701,0.39454320073127747,-0.04329681396484375
42380,-0.029528087005019188,0.25929591059684753,0.24122712016105652,-0.3228376507759094,0.41581740975379944,-0.038918882608413696
42420,-0.026474129408597946,0.2617374062538147,0.24322226643562317,-0.3364277780056,0.3956851661205292,-0.040323544293642044
42460,-0.02759045921266079,0.26153501868247986,0.2512003183364868,-0.3331488370895386,0.3978559672832489,-0.03962316736578941
42500,-0.03297984227538109,0.26236701011657715,0.2515334486961365,-0.33020293712615967,0.4220814108848572,-0.034238629043102264
42540,-0.03087618574500084,0.2614554762840271,0.2477319836616516,-0.3279215693473816,0.41281768679618835,-0.03531904146075249
42580,-0.027998095378279686,0.2591954469680786,0.24862243235111237,-0.309619277715683,0.38595497608184814,-0.0375557579100132
42620,-0.025523532181978226,0.2577725946903229,0.24387790262699127,-0.306915819644928,0.37334564328193665,-0.041979994624853134
42660,-0.023406237363815308,0.2584458291530609,0.2456417679786682,-0.32051169872283936,0.3557770848274231,-0.04791786149144173
42700,-0.02516392432153225,0.25533053278923035,0.24655014276504517,-0.3014175593852997,0.3652041256427765,-0.03811566159129143
42740,-0.025794750079512596,0.25576886534690857,0.24731828272342682,-0.3179110586643219,0.35548681020736694,-0.04120372608304024
42780,-0.025165462866425514,0.25429388880729675,0.24445992708206177,-0.31113213300704956,0.3669683039188385,-0.03879592567682266
42820,-0.022726118564605713,0.25425031781196594,0.2469647228717804,-0.3061123788356781,0.3392848074436188,-0.04245588183403015
42860,-0.025863593444228172,0.2589980661869049,0.24654342234134674,-0.32826343178749084,0.35192883014678955,-0.04569504037499428
42900,-0.02397618442773819,0.25804054737091064,0.24459822475910187,-0.32716789841651917,0.35014718770980835,-0.04522177204489708
42940,-0.02812710590660572,0.25844141840934753,0.24194830656051636,-0.33168214559555054,0.37412530183792114,-0.04448765888810158
42980,-0.03109264001250267,0.25739991664886475,0.24528764188289642,-0.32661789655685425,0.39762580394744873,-0.038818467408418655
43020,-0.025098154321312904,0.25606876611709595,0.24239453673362732,-0.3191809058189392,0.3686105012893677,-0.03691689297556877
43060,-0.021417252719402313,0.25215286016464233,0.2437126487493515,-0.30501583218574524,0.34794291853904724,-0.03509925305843353
43100,-0.02455841563642025,0.2531277537345886,0.23995937407016754,-0.3156324326992035,0.3756074905395508,-0.03632781654596329
43140,-0.034451138228178024,0.2551707327365875,0.2416425496339798,-0.32042038440704346,0.4338591694831848,-0.03630417585372925
43180,-0.03438468649983406,0.25151604413986206,0.2443404197692871,-0.2963685095310211,0.42387655377388,-0.030399342998862267
43220,-0.03300623223185539,0.2525116205215454,0.244350403547287,-0.30999964475631714,0.41214731335639954,-0.0332837849855423
43260,-0.02963418886065483,0.2510318160057068,0.24250845611095428,-0.3068266808986664,0.38661935925483704,-0.03066430613398552
43300,-0.033490486443042755,0.2552070915699005,0.24489161372184753,-0.33314433693885803,0.4064142107963562,-0.040116265416145325
43340,-0.031241510063409805,0.25241467356681824,0.2466733306646347,-0.3149399161338806,0.3864063024520874,-0.03705742955207825
43380,-0.027037739753723145,0.24513278901576996,0.24483290314674377,-0.2928275763988495,0.35841694474220276,-0.029175888746976852
43420,-0.03135422244668007,0.2475723922252655,0.2483043223619461,-0.31171613931655884,0.37017300724983215,-0.036416374146938324
43460,-0.027231836691498756,0.2478514164686203,0.2512005567550659,-0.321179062128067,0.346596360206604,-0.03500312566757202
43500,-0.024764342233538628,0.24613964557647705,0.2506910562515259,-0.3137476444244385,0.334683895111084,-0.032658901065588
43540,-0.025861721485853195,0.2445659041404724,0.2508782744407654,-0.2970100939273834,0.3386014699935913,-0.03324943408370018
43580,-0.02597077190876007,0.24348026514053345,0.24378204345703125,-0.2990475296974182,0.3389729857444763,-0.035893514752388
43620,-0.028004733845591545,0.2409266084432602,0.24324725568294525,-0.2826233208179474,0.34722620248794556,-0.0338837169110775
43660,-0.02778632566332817,0.24398313462734222,0.24765022099018097,-0.3110644519329071,0.33343738317489624,-0.03473546355962753
43700,-0.024386800825595856,0.2450559288263321,0.2473136931657791,-0.3211131989955902,0.3200169503688812,-0.034117113798856735
43740,-0.02789013646543026,0.24752461910247803,0.24725881218910217,-0.3307839632034302,0.34895703196525574,-0.03939827159047127
43780,-0.02347208932042122,0.2451200932264328,0.24463701248168945,-0.32469895482063293,0.32044363021850586,-0.03925184905529022
43820,-0.027202004566788673,0.24413703382015228,0.2441629320383072,-0.31539684534072876,0.35541588068008423,-0.04120880737900734
43860,-0.02305126190185547,0.24177348613739014,0.24522435665130615,-0.3019648492336273,0.3354012966156006,-0.040144629776477814
43900,-0.0215067770332098,0.24502937495708466,0.2496785670518875,-0.31679826974868774,0.310669869184494,-0.038116540759801865
43940,-0.020526915788650513,0.2441157102584839,0.2511495351791382,-0.30983924865722656,0.30215707421302795,-0.035015616565942764
43980,-0.014481986872851849,0.24357415735721588,0.24907585978507996,-0.302907794713974,0.2644447684288025,-0.032644595950841904
44020,-0.019980965182185173,0.2419004738330841,0.24489416182041168,-0.29331573843955994,0.30107998847961426,-0.036798130720853806
44060,-0.026477092877030373,0.2430325597524643,0.24416854977607727,-0.3108040988445282,0.33722469210624695,-0.03806404024362564
44100,-0.02934541366994381,0.24294057488441467,0.23780915141105652,-0.32262805104255676,0.35788094997406006,-0.03755103424191475
44140,-0.03330813720822334,0.2505970597267151,0.23739393055438995,-0.36512088775634766,0.39208054542541504,-0.03814147412776947
44180,-0.0314495787024498,0.2527754604816437,0.23676937818527222,-0.3780248165130615,0.3784807324409485,-0.041365329176187515
44220,-0.03045530617237091,0.2521846294403076,0.24434536695480347,-0.3719308078289032,0.3701716959476471,-0.04194954037666321
44260,-0.0302460715174675,0.25254279375076294,0.2459423542022705,-0.3689476251602173,0.3717775046825409,-0.03972361236810684
44300,-0.0290993582457304,0.24810391664505005,0.24807803332805634,-0.34406355023384094,0.3525921404361725,-0.041713081300258636
44340,-0.022683529183268547,0.24440646171569824,0.24550433456897736,-0.3162236213684082,0.3111196756362915,-0.04877937585115433
44380,-0.02408456616103649,0.2454923689365387,0.2432612180709839,-0.326569527387619,0.320790559053421,-0.046538788825273514
44420,-0.02581997588276863,0.2434075027704239,0.242723286151886,-0.3169816732406616,0.336177796125412,-0.0436890609562397
44460,-0.02756514586508274,0.24370767176151276,0.24218788743019104,-0.3198564946651459,0.35535287857055664,-0.04253121837973595
44500,-0.02625618688762188,0.24279017746448517,0.2447005957365036,-0.3328666090965271,0.3500365614891052,-0.04297323152422905
44540,-0.024847257882356644,0.2423752099275589,0.2406369000673294,-0.32541269063949585,0.3492816090583801,-0.04127966985106468
44580,-0.02370811440050602,0.24556158483028412,0.2443714588880539,-0.3377212584018707,0.3433844745159149,-0.04182158410549164
44620,-0.020253773778676987,0.24746040999889374,0.2440710812807083,-0.3454584777355194,0.3314966857433319,-0.04486725106835365
44660,-0.01973777823150158,0.24512381851673126,0.2418413907289505,-0.3310682475566864,0.33460381627082825,-0.04241419956088066
44700,-0.022137168794870377,0.24665036797523499,0.23811925947666168,-0.3427734375,0.3589223027229309,-0.03737042471766472
44740,-0.02376958169043064,0.24600784480571747,0.23537953197956085,-0.34130316972732544,0.3753233551979065,-0.03385237604379654
44780,-0.030841466039419174,0.24723874032497406,0.2346179336309433,-0.33927667140960693,0.42626720666885376,-0.022766852751374245
44820,-0.033021073788404465,0.24673844873905182,0.23326586186885834,-0.3296930193901062,0.4370889365673065,-0.019660750404000282
44860,-0.03431132435798645,0.2466432750225067,0.22963927686214447,-0.33638691902160645,0.4418472945690155,-0.016646407544612885
44900,-0.03806179016828537,0.2501051127910614,0.2327377051115036,-0.3675873577594757,0.4611614942550659,-0.012910970486700535
44940,-0.038479775190353394,0.2502193748950958,0.23131762444972992,-0.3579929769039154,0.4721527099609375,-0.008909124881029129
44980,-0.04283616691827774,0.2543436884880066,0.22748439013957977,-0.37735095620155334,0.4991811513900757,-0.0021415315568447113
45020,-0.042646367102861404,0.2543829381465912,0.2198270559310913,-0.38120943307876587,0.502747654914856,0.0008476192015223205
45060,-0.04234597459435463,0.2533768117427826,0.22021731734275818,-0.3597317039966583,0.5056821703910828,0.006836558226495981
45100,-0.04292728379368782,0.2559892237186432,0.2298399657011032,-0.36932501196861267,0.5083656311035156,0.004862263798713684
45140,-0.043400492519140244,0.2575223445892334,0.23201650381088257,-0.3613087236881256,0.5008161664009094,0.003834501141682267
45180,-0.042514313012361526,0.25717416405677795,0.22955267131328583,-0.3633511960506439,0.4923314154148102,0.001875076675787568
