Timestamp,stateEstimate.x,stateEstimate.y,stateEstimate.z,stateEstimate.roll,stateEstimate.pitch,stateEstimate.yaw
41823,-0.08221776783466339,0.31077060103416443,0.18793396651744843,-0.3996833264827728,0.5691680908203125,-0.09000406414270401
41863,-0.07488147914409637,0.30684494972229004,0.1922301948070526,-0.3727008104324341,0.5202786922454834,-0.10235461592674255
41903,-0.07359182834625244,0.3061548173427582,0.18851707875728607,-0.35499855875968933,0.5086454153060913,-0.10754671692848206
41943,-0.08203493058681488,0.31807830929756165,0.179064080119133,-0.4073963761329651,0.5498813986778259,-0.09594761580228806
41983,-0.10443773865699768,0.3446125388145447,0.1651388257741928,-0.54868084192276,0.6600773930549622,-0.056406114250421524
42023,-0.10806909203529358,0.3403693735599518,0.17542821168899536,-0.4999677240848541,0.6528167724609375,-0.06148570775985718
42063,-0.12042725086212158,0.3527573049068451,0.17087702453136444,-0.5539990067481995,0.6997268795967102,-0.04382481053471565
42103,-0.11987331509590149,0.3691434860229492,0.1598314344882965,-0.623813807964325,0.6843734383583069,-0.04695000872015953
42143,-0.12200809270143509,0.38849055767059326,0.1409038007259369,-0.7098374366760254,0.685783326625824,-0.0491119883954525
42183,-0.1430700719356537,0.41852429509162903,0.12697643041610718,-0.8467345833778381,0.7805160284042358,-0.018456578254699707
42223,-0.15354092419147491,0.4273727834224701,0.12278614193201065,-0.8623486161231995,0.8066317439079285,-0.005580398254096508
42263,-0.1473834216594696,0.4302329421043396,0.11322952061891556,-0.8254574537277222,0.7510206699371338,-0.03105403110384941
42303,-0.15050514042377472,0.4315405488014221,0.1129562184214592,-0.7887967228889465,0.7429375648498535,-0.027891339734196663
42343,-0.139435276389122,0.442251056432724,0.0907292515039444,-0.8240439295768738,0.6857978105545044,-0.08573611825704575
42383,-0.15258270502090454,0.44886454939842224,0.08811341971158981,-0.8140893578529358,0.7264782190322876,-0.04097975790500641
42423,-0.13006414473056793,0.42974400520324707,0.0926416665315628,-0.6578107476234436,0.588610053062439,-0.1255510151386261
42463,-0.11864916980266571,0.4008719027042389,0.09859376400709152,-0.46041139960289,0.5226235389709473,-0.14137674868106842
42503,-0.10540254414081573,0.3800131380558014,0.11100447922945023,-0.3126094937324524,0.4318132698535919,-0.1917104423046112
42543,-0.10268153995275497,0.36712023615837097,0.11043199151754379,-0.22877240180969238,0.41712772846221924,-0.1956903487443924
42583,-0.09874383360147476,0.35933712124824524,0.11006835103034973,-0.17830295860767365,0.3900868594646454,-0.21126262843608856
42623,-0.098961241543293,0.3530730903148651,0.11710472404956818,-0.13221099972724915,0.3796001970767975,-0.22862426936626434
42663,-0.09444329887628555,0.3502015769481659,0.11372578889131546,-0.11123557388782501,0.356964647769928,-0.23737317323684692
42703,-0.09027960896492004,0.3318597078323364,0.1195591539144516,-0.00553416833281517,0.32877323031425476,-0.28706490993499756
42743,-0.08401037752628326,0.3161980211734772,0.12002462893724442,0.06980077922344208,0.2984345257282257,-0.3220156133174896
42783,-0.08101978152990341,0.3174370527267456,0.12536422908306122,0.053860317915678024,0.2849123179912567,-0.2981874942779541
42823,-0.07911279797554016,0.3102553188800812,0.12995068728923798,0.0924907848238945,0.27592918276786804,-0.32371747493743896
42863,-0.07228972762823105,0.29908275604248047,0.13335947692394257,0.14444467425346375,0.24452689290046692,-0.3386032283306122
42903,-0.06484488397836685,0.28544604778289795,0.1423431634902954,0.20524829626083374,0.20982223749160767,-0.3659156560897827
42943,-0.06139935553073883,0.2663141191005707,0.15162904560565948,0.2937427759170532,0.19636109471321106,-0.4582900404930115
42983,-0.06772912293672562,0.25632011890411377,0.15284042060375214,0.33328840136528015,0.23657956719398499,-0.5730211138725281
43023,-0.06401878595352173,0.25046640634536743,0.1588546633720398,0.33651942014694214,0.2247169464826584,-0.5539531707763672
43063,-0.059964366257190704,0.24541239440441132,0.1691693365573883,0.3377198576927185,0.20856304466724396,-0.523639440536499
43103,-0.05292597785592079,0.2426615208387375,0.1736343801021576,0.3159700930118561,0.1802198737859726,-0.4356595277786255
43143,-0.04717138782143593,0.2348387986421585,0.17914292216300964,0.3262762427330017,0.16171953082084656,-0.4189067482948303
43183,-0.043301261961460114,0.2371751070022583,0.17676226794719696,0.27483806014060974,0.15671148896217346,-0.32508477568626404
43223,-0.02790333703160286,0.23188099265098572,0.18443110585212708,0.2718318998813629,0.08571359515190125,-0.1416439563035965
43263,-0.023947766050696373,0.23473788797855377,0.1943393498659134,0.22352787852287292,0.07848963141441345,-0.061053089797496796
43303,-0.02853230945765972,0.23515422642230988,0.19025947153568268,0.18793129920959473,0.1260092705488205,-0.12586338818073273
43343,-0.017075195908546448,0.23074647784233093,0.18767878413200378,0.185077965259552,0.08635354042053223,-0.014467423781752586
43383,-0.013237323611974716,0.22811684012413025,0.1902502179145813,0.16968145966529846,0.08442261815071106,0.007389685604721308
43423,-0.012247188948094845,0.23134231567382812,0.1907728910446167,0.12208995968103409,0.10035388171672821,0.042824797332286835
43463,-0.005398191977292299,0.22648391127586365,0.20203940570354462,0.12178748100996017,0.0828116238117218,0.0736718624830246
43503,-0.0013515427708625793,0.2286747395992279,0.20961003005504608,0.08687396347522736,0.08432210981845856,0.12997670471668243
43543,0.00041222258005291224,0.23220041394233704,0.21365810930728912,0.04028936102986336,0.09728250652551651,0.17145682871341705
43583,-0.0012516393326222897,0.2359730303287506,0.20216281712055206,0.0010005630319938064,0.13367588818073273,0.16694843769073486
43623,0.0007113558240234852,0.2309483140707016,0.20287439227104187,0.003717533778399229,0.15122564136981964,0.1362813413143158
43663,0.015232737176120281,0.22616665065288544,0.20585839450359344,0.004976955242455006,0.09051869064569473,0.22681114077568054
43703,0.020140137523412704,0.22304338216781616,0.2072104811668396,0.004960066173225641,0.08985872566699982,0.2255444973707199
43743,0.011723162606358528,0.22320763766765594,0.2076481729745865,-0.022507034242153168,0.1554533690214157,0.15835602581501007
43783,0.005863700062036514,0.22136728465557098,0.21012873947620392,-0.043488096445798874,0.20950612425804138,0.10589300096035004
43823,-0.005147387273609638,0.22397339344024658,0.2131281942129135,-0.07901444286108017,0.284661203622818,0.05096994340419769
43863,-0.002470505191013217,0.22295023500919342,0.21268810331821442,-0.09567882865667343,0.2880530059337616,0.05871623754501343
43903,0.011038970202207565,0.2203001230955124,0.21334783732891083,-0.10142120718955994,0.23994901776313782,0.11093290150165558
43943,0.007824248634278774,0.22198361158370972,0.2180234044790268,-0.12676778435707092,0.26821768283843994,0.10005546361207962
43983,0.02035636641085148,0.22035259008407593,0.22147151827812195,-0.13001105189323425,0.22699211537837982,0.12255480140447617
44023,0.016030769795179367,0.2169175148010254,0.2268214076757431,-0.1279335767030716,0.2697707414627075,0.09943603724241257
44063,0.018965844064950943,0.21723191440105438,0.2229538857936859,-0.14462538063526154,0.2722470164299011,0.10563420504331589
44103,0.020884430035948753,0.21351416409015656,0.2299014776945114,-0.14239546656608582,0.27643728256225586,0.10234568268060684
44143,0.008624367415904999,0.21770936250686646,0.23808836936950684,-0.17912809550762177,0.3473764657974243,0.09459596127271652
44183,0.008064737543463707,0.21673953533172607,0.24356737732887268,-0.18969523906707764,0.3581395149230957,0.09096025675535202
44223,0.009301271289587021,0.2173762023448944,0.24276363849639893,-0.2062271237373352,0.3629000186920166,0.0913107842206955
44263,0.007708352990448475,0.2196851223707199,0.24357129633426666,-0.22696341574192047,0.3774796426296234,0.08930262178182602
44303,0.01117167342454195,0.22141680121421814,0.2475730925798416,-0.24772992730140686,0.36683255434036255,0.07237058877944946
44343,-0.004133352544158697,0.22514265775680542,0.24041035771369934,-0.2721738815307617,0.4494461715221405,0.11175549775362015
44383,-0.002964240498840809,0.23219168186187744,0.24245664477348328,-0.33213648200035095,0.4488421678543091,0.06859586387872696
44423,0.007311853114515543,0.23227831721305847,0.24280335009098053,-0.34151729941368103,0.41011810302734375,0.028666893020272255
44463,0.01415798719972372,0.2318737655878067,0.24460408091545105,-0.34495848417282104,0.3847087621688843,0.0008740610210224986
44503,0.0017509990138933063,0.23337286710739136,0.24456501007080078,-0.35537540912628174,0.45580944418907166,0.07042353600263596
44543,0.0026819228660315275,0.23807108402252197,0.2521660327911377,-0.3822719156742096,0.4564831256866455,0.035536568611860275
44583,0.0031168684363365173,0.23931291699409485,0.2589872181415558,-0.390386164188385,0.461473286151886,0.024763071909546852
44623,0.006975863594561815,0.2399488240480423,0.2618007957935333,-0.39910051226615906,0.443434476852417,-0.009248281829059124
44663,0.0033983432222157717,0.24369509518146515,0.26430317759513855,-0.41936957836151123,0.46354714035987854,-0.000770878978073597
44703,-0.003769778413698077,0.24444085359573364,0.2622489333152771,-0.42303764820098877,0.5068494081497192,0.05197728052735329
44743,-0.013143462128937244,0.24518762528896332,0.25917699933052063,-0.4232177734375,0.5568183064460754,0.12913498282432556
44783,-0.007478746119886637,0.24699029326438904,0.26318123936653137,-0.42722204327583313,0.5303378701210022,0.07512950897216797
44823,-0.004140879958868027,0.24521474540233612,0.2616039514541626,-0.41820037364959717,0.5156211256980896,0.07534575462341309
44863,-0.0065359557047486305,0.24665702879428864,0.26244717836380005,-0.4269835650920868,0.527084469795227,0.0886012464761734
44903,-0.01907235197722912,0.24715954065322876,0.26234543323516846,-0.42935097217559814,0.5889152884483337,0.19402705132961273
44943,-0.017770592123270035,0.24760420620441437,0.2624509334564209,-0.43251702189445496,0.5779320001602173,0.17274561524391174
44983,-0.01584678143262863,0.25119394063949585,0.2652449607849121,-0.45448434352874756,0.5646458864212036,0.12021900713443756
45023,-0.020265502855181694,0.25352537631988525,0.26863932609558105,-0.45941877365112305,0.5836887359619141,0.1468360871076584
45063,-0.018684392794966698,0.2523956298828125,0.2698967456817627,-0.44417804479599,0.5716347098350525,0.14874796569347382
45103,-0.02972228266298771,0.2570055425167084,0.2703233063220978,-0.46169382333755493,0.619833767414093,0.2060295045375824
45143,-0.02959812432527542,0.2563000023365021,0.26556116342544556,-0.45387163758277893,0.620185375213623,0.21344518661499023
45183,-0.041577234864234924,0.256896048784256,0.26461106538772583,-0.4473671019077301,0.6736788153648376,0.31206396222114563
45223,-0.037191156297922134,0.25900402665138245,0.2673320174217224,-0.44965341687202454,0.6446700096130371,0.2500215470790863
45263,-0.026882536709308624,0.2590218186378479,0.26498305797576904,-0.4382402002811432,0.5899769067764282,0.17666934430599213
45303,-0.029855169355869293,0.25995633006095886,0.2633454501628876,-0.4363689720630646,0.601655125617981,0.1966823786497116
45343,-0.038478851318359375,0.2603473663330078,0.2545696496963501,-0.43612155318260193,0.6425973176956177,0.26057329773902893
45383,-0.04330141469836235,0.26032549142837524,0.2525572180747986,-0.426720529794693,0.6611664891242981,0.29738083481788635
45423,-0.0460340715944767,0.2602526545524597,0.2569217085838318,-0.4092530310153961,0.6628755331039429,0.32337087392807007
45463,-0.054432060569524765,0.25816765427589417,0.25770899653434753,-0.3873896300792694,0.697208046913147,0.3952641785144806
45503,-0.06542186439037323,0.25685709714889526,0.26223480701446533,-0.3714655935764313,0.7367302775382996,0.4712389409542084
45543,-0.06313668936491013,0.25538235902786255,0.2587178349494934,-0.35331544280052185,0.7134392261505127,0.4701831638813019
45583,-0.052642300724983215,0.25436100363731384,0.25935596227645874,-0.3406628966331482,0.6496684551239014,0.4135500490665436
45623,-0.05479700490832329,0.2549739480018616,0.25747010111808777,-0.3390544354915619,0.650337278842926,0.4132551848888397
45663,-0.057858906686306,0.2592407763004303,0.2639022767543793,-0.3588601350784302,0.6482399106025696,0.3921004831790924
45703,-0.05973195284605026,0.2613911032676697,0.2632198631763458,-0.3606644570827484,0.6492683291435242,0.3861593008041382
45743,-0.055339567363262177,0.2642642855644226,0.26411595940589905,-0.3798375725746155,0.618198812007904,0.33847010135650635
45783,-0.06584729254245758,0.2683880627155304,0.26085683703422546,-0.3968919515609741,0.6591958999633789,0.3522939383983612
45823,-0.061327364295721054,0.2653285562992096,0.25325721502304077,-0.38133102655410767,0.6299716234207153,0.3411882221698761
45863,-0.05843790993094444,0.26557305455207825,0.25180894136428833,-0.3798885941505432,0.6067972183227539,0.32274720072746277
45903,-0.04910438135266304,0.26660075783729553,0.25514110922813416,-0.37572601437568665,0.5512117743492126,0.2893993556499481
45943,-0.039335209876298904,0.26512956619262695,0.2548235058784485,-0.36299529671669006,0.5007194876670837,0.265342652797699
45983,-0.04413207247853279,0.2677440345287323,0.2531074583530426,-0.3671034574508667,0.5216100215911865,0.2696214020252228
46023,-0.0493273101747036,0.26975271105766296,0.25123634934425354,-0.3736080527305603,0.5408445000648499,0.27693232893943787
46063,-0.04494331404566765,0.2669384777545929,0.24942152202129364,-0.3612457811832428,0.5146249532699585,0.2719493508338928
46103,-0.030993619933724403,0.2647303640842438,0.2471032291650772,-0.34620824456214905,0.44700419902801514,0.2512941360473633
46143,-0.03384663909673691,0.2705109715461731,0.24868790805339813,-0.36180540919303894,0.46172818541526794,0.2537737190723419
46183,-0.03305087238550186,0.26900315284729004,0.25012725591659546,-0.34798938035964966,0.45673996210098267,0.24935759603977203
46223,-0.03645649179816246,0.2708262503147125,0.24343179166316986,-0.3566981256008148,0.48658111691474915,0.2521071434020996
46263,-0.03975884988903999,0.27469757199287415,0.24936223030090332,-0.3628484904766083,0.498654842376709,0.25308454036712646
46303,-0.027875656262040138,0.2701215445995331,0.24983374774456024,-0.32953211665153503,0.4360273480415344,0.2383899688720703
46343,-0.022573109716176987,0.26993346214294434,0.25381892919540405,-0.32847753167152405,0.4156053960323334,0.24167929589748383
46383,-0.018944356590509415,0.2668828070163727,0.25160449743270874,-0.31025147438049316,0.4018218219280243,0.2283775508403778
46423,-0.024786608293652534,0.26702046394348145,0.2464396357536316,-0.3109385669231415,0.4385697543621063,0.21880167722702026
46463,-0.02253565937280655,0.26880747079849243,0.24863921105861664,-0.3155817985534668,0.42709285020828247,0.22378583252429962
46503,-0.02295827493071556,0.2670905888080597,0.2507842481136322,-0.3002711534500122,0.430612713098526,0.21231620013713837
46543,-0.014283143915235996,0.2693062722682953,0.2533538043498993,-0.3168444037437439,0.3870721161365509,0.2420642077922821
46583,-0.0027981337625533342,0.26784348487854004,0.25550776720046997,-0.29525047540664673,0.3292195498943329,0.2413073182106018
46623,-0.004723421297967434,0.2678636312484741,0.2575201392173767,-0.28770768642425537,0.34153953194618225,0.22803787887096405
46663,-0.011065931059420109,0.2652725279331207,0.25236424803733826,-0.27046868205070496,0.38529589772224426,0.18534553050994873
46703,-0.021369637921452522,0.269749253988266,0.2459699660539627,-0.28705331683158875,0.44324883818626404,0.17212693393230438
46743,-0.01917586848139763,0.2665227949619293,0.24596449732780457,-0.26382091641426086,0.43980109691619873,0.14543387293815613
46783,-0.016335047781467438,0.26499366760253906,0.24573907256126404,-0.2524179220199585,0.4274710416793823,0.13882236182689667
46823,-0.024378841742873192,0.26093143224716187,0.24553582072257996,-0.22885867953300476,0.46738389134407043,0.08860614895820618
46863,-0.022811781615018845,0.26091906428337097,0.2403203248977661,-0.22629092633724213,0.4585263729095459,0.09209541231393814
46903,-0.02046036906540394,0.26612499356269836,0.2382657825946808,-0.25375896692276,0.4463438093662262,0.12348636984825134
46943,-0.024541132152080536,0.2584506869316101,0.23470409214496613,-0.2101743072271347,0.46933674812316895,0.059250593185424805
46983,-0.025195272639393806,0.2624598741531372,0.23942582309246063,-0.23387521505355835,0.47075167298316956,0.08392428606748581
47023,-0.027798380702733994,0.26529058814048767,0.23412729799747467,-0.2435460388660431,0.4845690131187439,0.07982189953327179
47063,-0.019353078678250313,0.262551486492157,0.23170205950737,-0.23133303225040436,0.4480982720851898,0.0930367186665535
47103,-0.010755731724202633,0.2655557096004486,0.23614534735679626,-0.2541459798812866,0.39847564697265625,0.14828810095787048
47143,-0.0073197586461901665,0.26191022992134094,0.23092283308506012,-0.24426662921905518,0.3902485966682434,0.14404554665088654
47183,-0.013913379982113838,0.260272353887558,0.23387858271598816,-0.2285155951976776,0.4254204034805298,0.10743477195501328
47223,-0.026971684768795967,0.2584344446659088,0.23130306601524353,-0.21958422660827637,0.4906311333179474,0.050352793186903
47263,-0.024687958881258965,0.2579386830329895,0.22932443022727966,-0.21937443315982819,0.4750995934009552,0.05878126621246338
47303,-0.03274555876851082,0.2567674219608307,0.2191781848669052,-0.21867774426937103,0.5187876224517822,0.017904583364725113
47343,-0.039938487112522125,0.2551698684692383,0.2190903276205063,-0.20451834797859192,0.548063337802887,-0.014702828601002693
47383,-0.04076359048485756,0.2523161768913269,0.22201324999332428,-0.18540288507938385,0.5446785688400269,-0.019893256947398186
47423,-0.03330884873867035,0.253924161195755,0.2229340523481369,-0.2045704424381256,0.49513858556747437,0.017648162320256233
47463,-0.024491354823112488,0.25358301401138306,0.22023341059684753,-0.21608500182628632,0.4478103220462799,0.0525410957634449
47503,-0.02839261293411255,0.2513437867164612,0.2254321426153183,-0.20068269968032837,0.4646527171134949,0.035600412636995316
47543,-0.03897884115576744,0.2498006969690323,0.2228163480758667,-0.195872500538826,0.520326554775238,-0.005410640500485897
47583,-0.035973239690065384,0.2489013671875,0.22447103261947632,-0.19512911140918732,0.5024529695510864,0.005672263912856579
47623,-0.029405299574136734,0.24921487271785736,0.22296981513500214,-0.20221976935863495,0.4656698405742645,0.029897920787334442
47663,-0.03473792225122452,0.24811743199825287,0.22699010372161865,-0.1955566257238388,0.48776352405548096,0.0146970609202981
47703,-0.029276281595230103,0.24575582146644592,0.22376206517219543,-0.18822729587554932,0.46189460158348083,0.029300441965460777
47743,-0.03450854867696762,0.24821531772613525,0.22522172331809998,-0.20944422483444214,0.4859468936920166,0.012337150052189827
47783,-0.028667520731687546,0.24685893952846527,0.22685889899730682,-0.20810559391975403,0.45042261481285095,0.030550040304660797
47823,-0.036677777767181396,0.24405622482299805,0.22941529750823975,-0.1962037980556488,0.48594141006469727,0.009047213941812515
47863,-0.03529421240091324,0.24313710629940033,0.22976844012737274,-0.19767160713672638,0.47235307097435,0.01245974563062191
47903,-0.030113857239484787,0.2441178858280182,0.23123642802238464,-0.19581477344036102,0.4357561469078064,0.03083846904337406
47943,-0.030589820817112923,0.2416168451309204,0.23429657518863678,-0.19199775159358978,0.4336106777191162,0.029402852058410645
47983,-0.030265165492892265,0.2412063330411911,0.23770460486412048,-0.19943808019161224,0.42928847670555115,0.029414592310786247
48023,-0.025265350937843323,0.23759837448596954,0.2360955774784088,-0.18967601656913757,0.40528303384780884,0.041838981211185455
48063,-0.019526315852999687,0.24127531051635742,0.24199995398521423,-0.2227795422077179,0.37115004658699036,0.05432548373937607
48103,-0.019255703315138817,0.23668789863586426,0.23852650821208954,-0.20472414791584015,0.3755095303058624,0.05453871563076973
48143,-0.029084891080856323,0.24117225408554077,0.2360411137342453,-0.24203449487686157,0.42515841126441956,0.031407877802848816
48183,-0.03410876914858818,0.2425442487001419,0.23357799649238586,-0.25591400265693665,0.45026925206184387,0.020392246544361115
48223,-0.03671742230653763,0.24084974825382233,0.2331455945968628,-0.24857863783836365,0.45565566420555115,0.02121908776462078
48263,-0.038636237382888794,0.23811548948287964,0.23378010094165802,-0.22933447360992432,0.46306300163269043,0.02053077518939972
48303,-0.037632763385772705,0.24388855695724487,0.23299628496170044,-0.25832194089889526,0.4532877206802368,0.018724648281931877
48343,-0.034967243671417236,0.250257283449173,0.2360554039478302,-0.29498469829559326,0.43577316403388977,0.01285399217158556
48383,-0.03154703229665756,0.24717795848846436,0.23254834115505219,-0.2872437536716461,0.4212067425251007,0.016524827107787132
48423,-0.03415419161319733,0.24539819359779358,0.23126865923404694,-0.28318271040916443,0.4330497086048126,0.015820330008864403
48463,-0.04029349237680435,0.24554277956485748,0.23039300739765167,-0.2796506881713867,0.46097156405448914,0.013548302464187145
48503,-0.04208136349916458,0.24533070623874664,0.2348286509513855,-0.27949848771095276,0.4623866081237793,0.015001564286649227
48543,-0.0397198386490345,0.2457371950149536,0.23740637302398682,-0.2850172221660614,0.4421054720878601,0.012103768065571785
48583,-0.03195938095450401,0.24650374054908752,0.23752811551094055,-0.287481427192688,0.40149253606796265,0.011519537307322025
48623,-0.03264966234564781,0.25075432658195496,0.23772557079792023,-0.3118340075016022,0.4044598639011383,0.007300051860511303
48663,-0.043125979602336884,0.24802422523498535,0.23380467295646667,-0.29894503951072693,0.45834648609161377,0.016282744705677032
48703,-0.043545857071876526,0.2503059506416321,0.23466962575912476,-0.3124256432056427,0.45641371607780457,0.009451260790228844
48743,-0.03191285580396652,0.2524120807647705,0.23520471155643463,-0.3166763484477997,0.3989971876144409,-0.0018825441366061568
48783,-0.019448311999440193,0.25163161754608154,0.23504246771335602,-0.3136572241783142,0.33266615867614746,-0.013376032933592796
48823,-0.025059740990400314,0.2522096037864685,0.2307249754667282,-0.3164379596710205,0.3647255599498749,-0.0014789971755817533
48863,-0.023428115993738174,0.2512977719306946,0.2314302623271942,-0.3189922869205475,0.35857653617858887,-0.0009322399855591357
48903,-0.027837783098220825,0.24995891749858856,0.24130013585090637,-0.3061167299747467,0.37285932898521423,0.0037871086969971657
48943,-0.027843279764056206,0.24864356219768524,0.24283641576766968,-0.29831621050834656,0.37435200810432434,0.004570493008941412
48983,-0.026591477915644646,0.2527448534965515,0.24410520493984222,-0.3178642690181732,0.36820560693740845,-0.00035633979132398963
49023,-0.023092787712812424,0.25381559133529663,0.24136392772197723,-0.3284837007522583,0.3576742112636566,-0.0057038371451199055
49063,-0.01988212577998638,0.2502042353153229,0.24747319519519806,-0.303930401802063,0.33703815937042236,-0.012431345880031586
49103,-0.039215002208948135,0.2530985176563263,0.2487683743238449,-0.32379141449928284,0.42789873480796814,0.02439895272254944
49143,-0.044000837951898575,0.25472286343574524,0.2451978176832199,-0.3362431526184082,0.4551640450954437,0.03367765247821808
49183,-0.038198500871658325,0.2550714910030365,0.24661973118782043,-0.3343961834907532,0.4222123920917511,0.021802816540002823
49223,-0.041378069669008255,0.2567402720451355,0.24328823387622833,-0.3376132547855377,0.43964171409606934,0.030835937708616257
49263,-0.03764533996582031,0.2552588880062103,0.2459145039319992,-0.32499581575393677,0.41531598567962646,0.021307000890374184
49303,-0.04926585406064987,0.2543182373046875,0.24041511118412018,-0.3172886371612549,0.47768986225128174,0.05384211614727974
49343,-0.048861678689718246,0.2566301226615906,0.23765647411346436,-0.3289054334163666,0.4727904796600342,0.049063973128795624
49383,-0.04135940223932266,0.2560717463493347,0.2365608513355255,-0.32638469338417053,0.4274648129940033,0.030955692753195763
49423,-0.034679729491472244,0.2522338330745697,0.24159322679042816,-0.3028012216091156,0.39777129888534546,0.02120615914463997
49463,-0.043564509600400925,0.25145643949508667,0.241817906498909,-0.30106228590011597,0.44474682211875916,0.04374157637357712
49503,-0.040805209428071976,0.26087915897369385,0.23705385625362396,-0.3471311926841736,0.43182259798049927,0.030960792675614357
49543,-0.034387584775686264,0.26201340556144714,0.23529578745365143,-0.35394275188446045,0.3980616331100464,0.017651541158556938
49583,-0.02637886442244053,0.25875502824783325,0.2411447912454605,-0.3218090534210205,0.35209542512893677,0.008397147059440613
49623,-0.025341199710965157,0.2672733664512634,0.24453239142894745,-0.36391180753707886,0.3424402177333832,-4.907631955575198e-05
49663,-0.03140408545732498,0.26719897985458374,0.2500343322753906,-0.34941524267196655,0.3715769648551941,0.014729809015989304
49703,-0.03373477980494499,0.2732715308666229,0.24605442583560944,-0.3762544095516205,0.38043227791786194,0.016826942563056946
49743,-0.03337309882044792,0.27299273014068604,0.24208322167396545,-0.371661901473999,0.3843078017234802,0.020258041098713875
49783,-0.03767722472548485,0.27147817611694336,0.23715195059776306,-0.3626002371311188,0.411755234003067,0.03443174809217453
49823,-0.03405101224780083,0.27541330456733704,0.2446385622024536,-0.37610337138175964,0.39102762937545776,0.021218329668045044
49863,-0.04413800314068794,0.2777569591999054,0.2488386631011963,-0.3855471909046173,0.4409017562866211,0.042016685009002686
49903,-0.035388682037591934,0.2778831124305725,0.25348392128944397,-0.3785083591938019,0.3968711495399475,0.02261267974972725
49943,-0.036750104278326035,0.27854087948799133,0.24635593593120575,-0.37020304799079895,0.4097614288330078,0.027974369004368782
49983,-0.030878134071826935,0.27739810943603516,0.25012466311454773,-0.3578789234161377,0.3835669755935669,0.01663185842335224
50023,-0.028965985402464867,0.27408984303474426,0.24722237884998322,-0.3407845199108124,0.37634482979774475,0.01603058911859989
50063,-0.03412817418575287,0.27837228775024414,0.24625343084335327,-0.36479708552360535,0.4054190516471863,0.028772350400686264
50103,-0.02809181436896324,0.2811083495616913,0.24632628262043,-0.36963653564453125,0.3782348930835724,0.01652291789650917
50143,-0.021115988492965698,0.27918335795402527,0.25068241357803345,-0.34611648321151733,0.3471730649471283,0.004344009328633547
50183,-0.021570947021245956,0.2754087448120117,0.25196507573127747,-0.3166285753250122,0.3545176386833191,0.00774277513846755
50223,-0.02651664800941944,0.27242404222488403,0.25120705366134644,-0.2975836396217346,0.38205206394195557,0.01876770704984665
50263,-0.025323238223791122,0.2722150385379791,0.2547788619995117,-0.28617042303085327,0.37617307901382446,0.01765447109937668
50303,-0.023690180853009224,0.2694416046142578,0.25228074193000793,-0.27187642455101013,0.3710958957672119,0.01928175613284111
50343,-0.01515242364257574,0.2661901116371155,0.25316622853279114,-0.25683027505874634,0.3338654935359955,0.012873864732682705
50383,-0.012287670746445656,0.2637740969657898,0.25216472148895264,-0.24210001528263092,0.3235114514827728,0.01176025066524744
50423,-0.01832428388297558,0.2659028470516205,0.2481873333454132,-0.25089895725250244,0.36225923895835876,0.015662360936403275
50463,-0.011322672478854656,0.26607513427734375,0.24983708560466766,-0.25080475211143494,0.3375781178474426,0.013995048590004444
50503,-0.020180052146315575,0.26714926958084106,0.24565668404102325,-0.26144465804100037,0.38926684856414795,0.014404171146452427
50543,-0.023239631205797195,0.26277005672454834,0.2462151050567627,-0.23342767357826233,0.4100426435470581,0.010084287263453007
50583,-0.0240855161100626,0.26317524909973145,0.2485610991716385,-0.24066101014614105,0.41740143299102783,0.008296782150864601
50623,-0.02852683514356613,0.25634244084358215,0.2490902692079544,-0.203148752450943,0.4406074285507202,0.0035557877272367477
50663,-0.03568100556731224,0.2561964988708496,0.2453862428665161,-0.20546558499336243,0.4808718264102936,-0.0031602566596120596
50703,-0.030578473582863808,0.2586049437522888,0.24476779997348785,-0.2296445518732071,0.449226438999176,0.002863706788048148
50743,-0.03335149586200714,0.2576863467693329,0.24935176968574524,-0.2251652628183365,0.4623485505580902,0.0030615651048719883
50783,-0.04652567207813263,0.2584168314933777,0.24481211602687836,-0.22927428781986237,0.5257468223571777,-0.014608636498451233
50823,-0.04490857198834419,0.2522684633731842,0.24006716907024384,-0.19927561283111572,0.5215809345245361,-0.013125338591635227
50863,-0.04653485119342804,0.2506163418292999,0.23380164802074432,-0.19798120856285095,0.5333830714225769,-0.01996617205440998
50903,-0.035784587264060974,0.25171828269958496,0.23476067185401917,-0.2121083289384842,0.48095041513442993,-0.00712186424061656
50943,-0.02862292155623436,0.24676668643951416,0.23568809032440186,-0.1921987384557724,0.4438311457633972,0.006299412343651056
50983,-0.03444179892539978,0.25402191281318665,0.23319466412067413,-0.23643626272678375,0.47332140803337097,-0.010730885900557041
51023,-0.03606155142188072,0.2523857653141022,0.23158709704875946,-0.23214443027973175,0.4817427098751068,-0.012459229677915573
51063,-0.03194529190659523,0.24824561178684235,0.22432813048362732,-0.2136116474866867,0.46879470348358154,-0.008466484025120735
51103,-0.030341995880007744,0.24791297316551208,0.2307305634021759,-0.2156456559896469,0.4572928845882416,-0.003958467394113541
51143,-0.025767294690012932,0.24928396940231323,0.2338375300168991,-0.22192905843257904,0.43226394057273865,0.0032391678541898727
51183,-0.029395796358585358,0.2519338130950928,0.23410643637180328,-0.2464829683303833,0.4546635150909424,-0.009154586121439934
51223,-0.03289538621902466,0.25229090452194214,0.2368028163909912,-0.2499026209115982,0.47323405742645264,-0.01824825629591942
51263,-0.024301493540406227,0.24769693613052368,0.23932397365570068,-0.22512571513652802,0.42812949419021606,0.0016206980217248201
51303,-0.02407260052859783,0.24817165732383728,0.24247628450393677,-0.23667298257350922,0.4339796006679535,-0.003421979257836938
51343,-0.014074231497943401,0.2481423169374466,0.2424643188714981,-0.24898530542850494,0.3893747329711914,0.010349552147090435
51383,-0.017510943114757538,0.2506278455257416,0.23901024460792542,-0.2539016008377075,0.410587340593338,0.0004291643272154033
51423,-0.010251580737531185,0.25652119517326355,0.24003061652183533,-0.2932175099849701,0.3765537738800049,0.010459634475409985
51463,-0.008135983720421791,0.2564724087715149,0.2426091879606247,-0.2970494031906128,0.36474260687828064,0.014015888795256615
51503,-0.00790601596236229,0.25398021936416626,0.2460455447435379,-0.2780684232711792,0.3710677921772003,0.012206402607262135
51543,-0.010688168928027153,0.259330689907074,0.24992556869983673,-0.31006699800491333,0.38850969076156616,0.0073655447922647
51583,-0.004542832728475332,0.2584703266620636,0.2509117126464844,-0.30807289481163025,0.3659895062446594,0.012480732053518295
51623,-0.018799150362610817,0.26026633381843567,0.24194376170635223,-0.3026506304740906,0.45379042625427246,-0.001686682691797614
51663,-0.012572181411087513,0.2583012282848358,0.24607165157794952,-0.2874191701412201,0.42670419812202454,0.00325536890886724
51703,-0.003055436536669731,0.25800400972366333,0.2463749349117279,-0.28451889753341675,0.383602112531662,0.007489577867090702
51743,-0.009401727467775345,0.25952133536338806,0.24979035556316376,-0.29266390204429626,0.41518208384513855,0.0072557032108306885
51783,-0.014229931868612766,0.2639487683773041,0.25347381830215454,-0.31387773156166077,0.4449459910392761,0.007928935810923576
51823,-0.018868915736675262,0.264005571603775,0.25685030221939087,-0.31069228053092957,0.46755293011665344,0.007253288757055998
51863,-0.0171283558011055,0.26534438133239746,0.25508934259414673,-0.31183922290802,0.45692771673202515,0.008096112869679928
51903,-0.008635115809738636,0.26541590690612793,0.25824183225631714,-0.307327538728714,0.4173751771450043,0.0037024375051259995
51943,-0.011844146996736526,0.2639872431755066,0.2593255639076233,-0.30712658166885376,0.43694978952407837,0.005159852560609579
51983,-0.01007948536425829,0.26647135615348816,0.26179027557373047,-0.3240715265274048,0.4199337363243103,0.005296578165143728
52023,-0.009912093169987202,0.26656827330589294,0.26490524411201477,-0.32707157731056213,0.42143678665161133,0.004792140331119299
52063,-0.01628313772380352,0.2686924636363983,0.2647630274295807,-0.33454445004463196,0.4560360312461853,0.010619931854307652
52103,-0.006971273571252823,0.26502346992492676,0.26585859060287476,-0.3118579387664795,0.4173125624656677,0.0030902649741619825
52143,-0.013266428373754025,0.2653900682926178,0.2638024687767029,-0.3149833381175995,0.46229076385498047,0.011321877129375935
52183,-0.013238370418548584,0.26521724462509155,0.26543572545051575,-0.30713456869125366,0.4642522633075714,0.009202733635902405
52223,-0.005917228292673826,0.2659510672092438,0.26596781611442566,-0.30884283781051636,0.4286772310733795,0.0031197790522128344
52263,-0.00501709058880806,0.27005457878112793,0.26927950978279114,-0.3310914933681488,0.42834725975990295,0.0005495685618370771
52303,-0.003555974457412958,0.271409273147583,0.27166199684143066,-0.3350260555744171,0.4246200621128082,-0.0002628001675475389
52343,-0.022551223635673523,0.2700292766094208,0.2615230679512024,-0.31914567947387695,0.5294383764266968,0.021329356357455254
52383,-0.031367938965559006,0.269832581281662,0.2589716613292694,-0.3287990689277649,0.5708175301551819,0.02984115481376648
52423,-0.023912375792860985,0.26537004113197327,0.25738096237182617,-0.31029194593429565,0.5343737006187439,0.0284451674669981
52463,-0.017596395686268806,0.2639865279197693,0.2561773955821991,-0.3069981634616852,0.5066702961921692,0.018332144245505333
52503,-0.01790417544543743,0.2626758813858032,0.25431880354881287,-0.29768794775009155,0.5058034658432007,0.021062705665826797
52543,-0.011162964627146721,0.26039987802505493,0.25466102361679077,-0.2809801697731018,0.47512495517730713,0.021460123360157013
52583,-0.019597044214606285,0.25632843375205994,0.25458258390426636,-0.25638270378112793,0.5116328001022339,0.03512059897184372
52623,-0.021775998175144196,0.2565850615501404,0.2567865550518036,-0.261732280254364,0.5191982984542847,0.036312494426965714
52663,-0.021642325446009636,0.25667423009872437,0.2538675367832184,-0.2557859420776367,0.5131568908691406,0.03873830288648605
52703,-0.016697918996214867,0.25505319237709045,0.2551109194755554,-0.2386314868927002,0.488820344209671,0.042480409145355225
52743,-0.012349799275398254,0.25372663140296936,0.25368767976760864,-0.24455729126930237,0.46940067410469055,0.03793223202228546
52783,-0.023733321577310562,0.2560780942440033,0.2465999275445938,-0.2532259225845337,0.5318906307220459,0.039983343333005905
52823,-0.02970719337463379,0.2545682489871979,0.2432653158903122,-0.24151378870010376,0.5560613870620728,0.04763704165816307
52863,-0.025828301906585693,0.2504837214946747,0.24492532014846802,-0.23010924458503723,0.5293651819229126,0.04795578867197037
52903,-0.028340714052319527,0.2530178129673004,0.24864591658115387,-0.2577879726886749,0.5280556082725525,0.03793661296367645
52943,-0.021038923412561417,0.2519116699695587,0.2497202754020691,-0.25864118337631226,0.4914994239807129,0.03464300557971001
52983,-0.026040159165859222,0.2537544369697571,0.24536359310150146,-0.2681739628314972,0.5239783525466919,0.0295686274766922
53023,-0.03022226318717003,0.2545834481716156,0.24499943852424622,-0.27795732021331787,0.5445219278335571,0.024388844147324562
53063,-0.0267171673476696,0.25171878933906555,0.24062952399253845,-0.26226726174354553,0.5261719822883606,0.026398297399282455
53103,-0.028025461360812187,0.24950189888477325,0.23783907294273376,-0.2504458427429199,0.5356171131134033,0.03050176613032818
53143,-0.02362571656703949,0.2472769021987915,0.2364678829908371,-0.24155259132385254,0.5124979019165039,0.036419570446014404
53183,-0.011051869951188564,0.24767883121967316,0.23423056304454803,-0.25062665343284607,0.45153966546058655,0.03611644357442856
53223,-0.023191893473267555,0.25432297587394714,0.23293913900852203,-0.2896828055381775,0.513299286365509,0.019981462508440018
53263,-0.029059963300824165,0.2539732754230499,0.23254568874835968,-0.2889499068260193,0.5418255925178528,0.016272980719804764
53303,-0.032316289842128754,0.25753703713417053,0.22884510457515717,-0.31176674365997314,0.5546777844429016,0.008123169653117657
53343,-0.03170240297913551,0.25660404562950134,0.23067718744277954,-0.31351038813591003,0.5433815717697144,0.008529607206583023
53383,-0.02539082244038582,0.25207746028900146,0.23363174498081207,-0.28655338287353516,0.504061758518219,0.01770854741334915
53423,-0.03178916499018669,0.25228187441825867,0.2332036793231964,-0.29039037227630615,0.5297325849533081,0.0151058379560709
53463,-0.03105534240603447,0.2519298493862152,0.23476336896419525,-0.2802414894104004,0.5261392593383789,0.016087213531136513
53503,-0.03013177216053009,0.2520740330219269,0.23518411815166473,-0.27870336174964905,0.5128783583641052,0.017919734120368958
53543,-0.02514575980603695,0.2527002990245819,0.23723207414150238,-0.2766663730144501,0.4807674288749695,0.017695344984531403
53583,-0.030405694618821144,0.252555787563324,0.22894927859306335,-0.2813360095024109,0.5125682353973389,0.017641030251979828
53623,-0.029649317264556885,0.250058114528656,0.23398877680301666,-0.26685667037963867,0.49917763471603394,0.0190903153270483
53663,-0.028118940070271492,0.24803736805915833,0.23606260120868683,-0.25537288188934326,0.48641812801361084,0.01903541013598442
53703,-0.021591588854789734,0.24686786532402039,0.24071985483169556,-0.2595095634460449,0.44426673650741577,0.018471360206604004
53743,-0.022355185821652412,0.25194087624549866,0.243504598736763,-0.2882959246635437,0.45164811611175537,0.01580975577235222
53783,-0.023067358881235123,0.2485884428024292,0.24281153082847595,-0.26874056458473206,0.45408371090888977,0.015405864454805851
53823,-0.017145708203315735,0.2497704029083252,0.2400120049715042,-0.27668213844299316,0.4228040874004364,0.01460206974297762
53863,-0.016102002933621407,0.2521190941333771,0.2400072067975998,-0.2927459180355072,0.41626572608947754,0.016052406281232834
53903,-0.01773812249302864,0.2484903335571289,0.2384292483329773,-0.2733219265937805,0.42723187804222107,0.013949260115623474
53943,-0.02012859284877777,0.2423889935016632,0.23973962664604187,-0.23915842175483704,0.43703633546829224,0.009065430611371994
53983,-0.020012682303786278,0.24217815697193146,0.24061809480190277,-0.24900037050247192,0.4362178444862366,0.011797153390944004
54023,-0.016219910234212875,0.24010100960731506,0.24189071357250214,-0.2447042465209961,0.4152185618877411,0.013920404016971588
54063,-0.023490678519010544,0.24433381855487823,0.24268554151058197,-0.27342700958251953,0.4497724175453186,0.02066096104681492
54103,-0.02606981247663498,0.2451326549053192,0.24092572927474976,-0.2765284478664398,0.46153581142425537,0.021189600229263306
54143,-0.024145206436514854,0.24123042821884155,0.23675774037837982,-0.27267542481422424,0.4529888927936554,0.01844753324985504
54183,-0.029222922399640083,0.2426796853542328,0.23222823441028595,-0.2832184433937073,0.47265756130218506,0.023883143439888954
54223,-0.02037646993994713,0.24562133848667145,0.23297634720802307,-0.3045820891857147,0.4245264232158661,0.0244465172290802
54263,-0.014764190651476383,0.24504968523979187,0.23531416058540344,-0.30895310640335083,0.3940971791744232,0.02357393689453602
54303,-0.01974649168550968,0.24920308589935303,0.23138992488384247,-0.3345867097377777,0.4098970890045166,0.027215449139475822
54343,-0.019898492842912674,0.2500218451023102,0.23620611429214478,-0.33242666721343994,0.40636134147644043,0.023900127038359642
54383,-0.033872947096824646,0.2461073249578476,0.2279505878686905,-0.3171321153640747,0.47853344678878784,0.023035285994410515
54423,-0.028280645608901978,0.24418771266937256,0.23005816340446472,-0.3038721978664398,0.4452832341194153,0.020091436803340912
54463,-0.02436734177172184,0.24758733808994293,0.23232217133045197,-0.322674423456192,0.42155635356903076,0.01881072111427784
54503,-0.021927744150161743,0.24940456449985504,0.23120053112506866,-0.33418071269989014,0.40485474467277527,0.020182661712169647
54543,-0.024233641102910042,0.25181105732917786,0.22711366415023804,-0.33980855345726013,0.4163689613342285,0.01996004767715931
54583,-0.03287789225578308,0.24820736050605774,0.2249043732881546,-0.3222276270389557,0.4535672664642334,0.022804977372288704
54623,-0.035137102007865906,0.2529684901237488,0.2274685502052307,-0.34948650002479553,0.45805856585502625,0.026033883914351463
54663,-0.03593354672193527,0.2553636133670807,0.22958697378635406,-0.36122968792915344,0.4555509686470032,0.028329135850071907
54703,-0.03680389001965523,0.25839921832084656,0.23226836323738098,-0.3823933005332947,0.45554599165916443,0.03393898904323578
54743,-0.04326317831873894,0.25542303919792175,0.22651417553424835,-0.3551187515258789,0.4903150200843811,0.0403466634452343
54783,-0.04363986849784851,0.25456809997558594,0.23203139007091522,-0.3456847369670868,0.48082059621810913,0.03770533204078674
54823,-0.044878941029310226,0.25315791368484497,0.2305615395307541,-0.3303581178188324,0.478067547082901,0.038851626217365265
54863,-0.04197031632065773,0.24899740517139435,0.23125191032886505,-0.3102591633796692,0.4598688781261444,0.03389490768313408
54903,-0.04958820715546608,0.25065404176712036,0.23003356158733368,-0.3213903307914734,0.4949958324432373,0.04032959043979645
54943,-0.041695140302181244,0.25095266103744507,0.22871027886867523,-0.32131296396255493,0.451865553855896,0.030285557731986046
54983,-0.04387781023979187,0.24960927665233612,0.2259889841079712,-0.31055280566215515,0.45466741919517517,0.031070055440068245
55023,-0.04239160940051079,0.253791868686676,0.22982525825500488,-0.32518118619918823,0.434353768825531,0.02611495368182659
55063,-0.04020876809954643,0.24962776899337769,0.2295520156621933,-0.3023148775100708,0.4220079779624939,0.02677987329661846
55103,-0.04191185161471367,0.2515679597854614,0.2346663624048233,-0.31504854559898376,0.4223719537258148,0.026437772437930107
55143,-0.041719499975442886,0.2533493936061859,0.23412984609603882,-0.3201817274093628,0.4133516550064087,0.022879011929035187
55183,-0.023720985278487206,0.2489350289106369,0.23161904513835907,-0.3003207743167877,0.3258499205112457,0.010916822589933872
55223,-0.030301254242658615,0.24608932435512543,0.22924210131168365,-0.2965170741081238,0.36125248670578003,0.017685649916529655
55263,-0.029970359057188034,0.24101251363754272,0.22846396267414093,-0.2686682641506195,0.3578398525714874,0.015930796042084694
55303,-0.017127705737948418,0.243139386177063,0.22876451909542084,-0.28321078419685364,0.2963603734970093,0.008390993811190128
55343,-0.02677522972226143,0.247839093208313,0.22682338953018188,-0.30823269486427307,0.34849560260772705,0.015911800786852837
55383,-0.017422931268811226,0.24585114419460297,0.2269638329744339,-0.29800328612327576,0.3101440966129303,0.012692991644144058
55423,-0.009940226562321186,0.24786922335624695,0.23311185836791992,-0.3065758943557739,0.2750008702278137,0.01188601739704609
55463,-0.00959283858537674,0.24579256772994995,0.23452626168727875,-0.30158424377441406,0.2784954905509949,0.011048762127757072
55503,-0.010282655246555805,0.24549639225006104,0.22882409393787384,-0.3106619715690613,0.28887930512428284,0.012300943955779076
55543,-0.009511110372841358,0.24319396913051605,0.23025022447109222,-0.2984484136104584,0.2940581440925598,0.012172820046544075
55583,-0.012348045594990253,0.24183611571788788,0.23445144295692444,-0.2938489615917206,0.3130868375301361,0.011016299948096275
55623,-0.012313821353018284,0.23676955699920654,0.23051570355892181,-0.270898699760437,0.32363608479499817,0.0031748947221785784
55663,-0.011064290069043636,0.2380913943052292,0.23483188450336456,-0.2849906086921692,0.3283414840698242,0.008700255304574966
55703,-0.009691167622804642,0.24063855409622192,0.23528428375720978,-0.3064270615577698,0.32284384965896606,0.017806710675358772
55743,-0.01474312599748373,0.2410498708486557,0.2326224446296692,-0.3128577172756195,0.3507281243801117,0.018337547779083252
55783,-0.01367204450070858,0.23591259121894836,0.23305314779281616,-0.2880895435810089,0.34684455394744873,0.011140040121972561
55823,-0.018432164564728737,0.24003881216049194,0.23713387548923492,-0.30963149666786194,0.3745058476924896,0.01705094240605831
55863,-0.02264908328652382,0.2395653873682022,0.23851722478866577,-0.30093541741371155,0.39423805475234985,0.014853831380605698
55903,-0.033604346215724945,0.23797088861465454,0.23552149534225464,-0.2918485701084137,0.45638665556907654,0.008330050855875015
55943,-0.03376159444451332,0.24331021308898926,0.2327699214220047,-0.32612571120262146,0.4592236280441284,0.012401563115417957
55983,-0.033627044409513474,0.2436092048883438,0.2324901521205902,-0.33187466859817505,0.4572179615497589,0.012009598314762115
56023,-0.032139088958501816,0.240491583943367,0.23558560013771057,-0.3136225938796997,0.44676247239112854,0.010766885243356228
56063,-0.035514120012521744,0.23853623867034912,0.23451098799705505,-0.31341010332107544,0.4647400677204132,0.008145073428750038
56103,-0.03679733723402023,0.23646150529384613,0.23042187094688416,-0.3074725866317749,0.4743245840072632,0.00814451277256012
56143,-0.033736471086740494,0.23390257358551025,0.225408136844635,-0.2973797619342804,0.456933856010437,0.008807701990008354
56183,-0.02717829868197441,0.23939186334609985,0.23244352638721466,-0.33891987800598145,0.41291260719299316,0.0023819494526833296
56223,-0.023245826363563538,0.24328632652759552,0.22733114659786224,-0.36226874589920044,0.39894431829452515,-0.0038741978351026773
56263,-0.018891241401433945,0.24273288249969482,0.224607452750206,-0.35117030143737793,0.37878578901290894,-0.0008080460829660296
56303,-0.02083059400320053,0.24036452174186707,0.22761555016040802,-0.3257960379123688,0.39568784832954407,0.0031214505434036255
56344,-0.027035903185606003,0.24229781329631805,0.22306577861309052,-0.33736130595207214,0.4379095137119293,0.0008108203765004873
56383,-0.031804706901311874,0.2455214411020279,0.22157558798789978,-0.36138200759887695,0.4625472128391266,-0.003822644939646125
56423,-0.03955317288637161,0.24541734158992767,0.22017374634742737,-0.36010855436325073,0.4956394135951996,-0.002325631445273757
56463,-0.02950100600719452,0.244464710354805,0.22116051614284515,-0.35008400678634644,0.4410591125488281,-0.0008398678037337959
56503,-0.029928162693977356,0.23959414660930634,0.21329151093959808,-0.3212127089500427,0.4493279755115509,0.008585989475250244
56543,-0.028979312628507614,0.2393944263458252,0.20589296519756317,-0.3257559835910797,0.4474588930606842,0.00532975047826767
56583,-0.03534264862537384,0.23849175870418549,0.19770629703998566,-0.3165406584739685,0.48853588104248047,0.009504060260951519
56623,-0.03593847528100014,0.2387997806072235,0.19351962208747864,-0.3169398903846741,0.4917720556259155,0.007967211306095123
56663,-0.03060304932296276,0.23816938698291779,0.19690120220184326,-0.30914372205734253,0.46609553694725037,0.008202760480344296
56703,-0.027316682040691376,0.24189694225788116,0.197816863656044,-0.3380187451839447,0.4488299489021301,-0.003328432096168399
56743,-0.033043138682842255,0.2448025345802307,0.2022501677274704,-0.3569652736186981,0.4759935140609741,-0.00769726000726223
56783,-0.0261531975120306,0.2466251254081726,0.20267321169376373,-0.3679018020629883,0.43747320771217346,-0.015422972850501537
56823,-0.02863604761660099,0.24999871850013733,0.2021757960319519,-0.38034117221832275,0.4519466161727905,-0.015996092930436134
56863,-0.02459860034286976,0.24989524483680725,0.20167577266693115,-0.3806934356689453,0.42901065945625305,-0.019558286294341087
56903,-0.027559340000152588,0.2517522871494293,0.20339912176132202,-0.3830009996891022,0.4477975368499756,-0.020776908844709396
56943,-0.02997215837240219,0.2503682076931,0.2010621726512909,-0.36865049600601196,0.46295714378356934,-0.01645321398973465
56983,-0.028232984244823456,0.24566075205802917,0.20229864120483398,-0.33339253067970276,0.4581723213195801,-0.011018360033631325
57023,-0.025482451543211937,0.24460667371749878,0.20555831491947174,-0.31813275814056396,0.43839362263679504,-0.010617191903293133
57063,-0.027775291353464127,0.24177271127700806,0.20573243498802185,-0.2956772744655609,0.4576089382171631,-0.004701926372945309
57103,-0.024478476494550705,0.24218301475048065,0.20715723931789398,-0.2995087206363678,0.4400019645690918,-0.009656696580350399
57143,-0.021416256204247475,0.24073612689971924,0.2082272171974182,-0.28312909603118896,0.42702677845954895,-0.0075964597053825855
57183,-0.017566567286849022,0.24042293429374695,0.20653709769248962,-0.2823103666305542,0.4078473150730133,-0.008956704288721085
57223,-0.019386857748031616,0.23989072442054749,0.20431572198867798,-0.2775768041610718,0.42044922709465027,-0.007245378568768501
57263,-0.020628880709409714,0.2401595115661621,0.2032271772623062,-0.27348577976226807,0.429212361574173,-0.0068960776552557945
57303,-0.018360551446676254,0.24087421596050262,0.20806436240673065,-0.2762417197227478,0.4247772991657257,-0.006236652377992868
57343,-0.0171341635286808,0.24107898771762848,0.20906199514865875,-0.28617584705352783,0.41993606090545654,-0.007747271563857794
57383,-0.013584782369434834,0.2416311800479889,0.2077842652797699,-0.2865085005760193,0.40392136573791504,-0.0074558379128575325
57423,-0.023349091410636902,0.23983348906040192,0.20665869116783142,-0.27337098121643066,0.4543876051902771,-0.007830074056982994
57463,-0.018513567745685577,0.24210968613624573,0.2062755525112152,-0.2864203155040741,0.43089762330055237,-0.009743470698595047
57503,-0.022595597431063652,0.24028438329696655,0.2085275650024414,-0.27077049016952515,0.4537363648414612,-0.011641832999885082
57543,-0.01955733634531498,0.24134044349193573,0.2094973772764206,-0.2698676288127899,0.43952977657318115,-0.011539412662386894
57583,-0.01801442541182041,0.242797389626503,0.20674766600131989,-0.2728974223136902,0.4346316456794739,-0.011197538115084171
57623,-0.02072801999747753,0.24341042339801788,0.20454141497612,-0.27709099650382996,0.45097655057907104,-0.009777680970728397
57663,-0.011351553723216057,0.2428734451532364,0.20662835240364075,-0.2787229120731354,0.40350544452667236,-0.010142873972654343
57703,-0.007984954863786697,0.2394358217716217,0.20805665850639343,-0.26030272245407104,0.39252349734306335,-0.011522580869495869
57743,-0.012714219279587269,0.24040444195270538,0.20637769997119904,-0.26671940088272095,0.42387574911117554,-0.011356768198311329
57783,-0.012211531400680542,0.24409201741218567,0.21116100251674652,-0.2876524031162262,0.424920916557312,-0.01269896887242794
57823,-0.003554136259481311,0.24760541319847107,0.21222661435604095,-0.2961706817150116,0.3816979229450226,-0.01226589735597372
57863,-0.015298992395401001,0.25076574087142944,0.21148280799388885,-0.31154611706733704,0.4431239366531372,-0.009839151985943317
57903,-0.015424922108650208,0.25146469473838806,0.21173782646656036,-0.3055972456932068,0.44693875312805176,-0.010340491309762001
57943,-0.01801033690571785,0.25200265645980835,0.211875319480896,-0.29608154296875,0.4620111584663391,-0.00979027058929205
57983,-0.016125565394759178,0.2488120049238205,0.21840126812458038,-0.27711713314056396,0.44336482882499695,-0.013412315398454666
58023,-0.020172717049717903,0.24815131723880768,0.21634139120578766,-0.26672786474227905,0.46143031120300293,-0.01175671722739935
58063,-0.02016611397266388,0.24578694999217987,0.21526621282100677,-0.24179762601852417,0.4618903398513794,-0.013312924653291702
58103,-0.01641036383807659,0.24442964792251587,0.21595440804958344,-0.2369498610496521,0.4424005150794983,-0.014712586998939514
58143,-0.01598503068089485,0.2412746697664261,0.21762973070144653,-0.21839481592178345,0.44017404317855835,-0.014547130092978477
58183,-0.01648412086069584,0.24740421772003174,0.22443433105945587,-0.2528592348098755,0.44241535663604736,-0.014600132592022419
58223,-0.011701083742082119,0.248469740152359,0.2243255376815796,-0.2514129877090454,0.4230288565158844,-0.013111591339111328
58263,-0.023164570331573486,0.24513211846351624,0.21954582631587982,-0.23757945001125336,0.4857906699180603,-0.008790413849055767
58303,-0.034730520099401474,0.2443857640028,0.2184046357870102,-0.23056067526340485,0.5364871621131897,-0.005300227086991072
58343,-0.03165581822395325,0.2494306117296219,0.2206025868654251,-0.2574148178100586,0.5177496075630188,-0.008083055727183819
58383,-0.03640027716755867,0.25179359316825867,0.21965791285037994,-0.27347853779792786,0.5401962995529175,-0.008313223719596863
58423,-0.030987828969955444,0.25043103098869324,0.22109578549861908,-0.26649078726768494,0.5119092464447021,-0.010540999472141266
58463,-0.03138255700469017,0.24951700866222382,0.21556456387043,-0.2598862946033478,0.5170950889587402,-0.009672277607023716
58503,-0.03990776091814041,0.24928656220436096,0.2166571468114853,-0.2553943395614624,0.5575164556503296,-0.006845795549452305
58543,-0.03861575946211815,0.24938127398490906,0.2234097570180893,-0.2517942488193512,0.5433633327484131,-0.00650075962767005
58583,-0.03374491631984711,0.25240522623062134,0.2215738147497177,-0.2739320695400238,0.5130136013031006,-0.014416152611374855
58623,-0.03131069615483284,0.2514341175556183,0.21587422490119934,-0.2651854157447815,0.5016596913337708,-0.014881071634590626
58663,-0.025707317516207695,0.25328147411346436,0.2113182693719864,-0.27492254972457886,0.4691068232059479,-0.018601153045892715
58703,-0.027767790481448174,0.25347158312797546,0.2130073755979538,-0.2740621566772461,0.4764876961708069,-0.017517786473035812
58743,-0.02704484760761261,0.24950255453586578,0.20984923839569092,-0.25643301010131836,0.47369876503944397,-0.01127900741994381
58783,-0.029705340042710304,0.24789123237133026,0.21564610302448273,-0.25170424580574036,0.4807285964488983,-0.010464323684573174
58823,-0.029728040099143982,0.25020360946655273,0.2205030471086502,-0.2559480369091034,0.4700704514980316,-0.013476456515491009
58863,-0.025022564455866814,0.2500561475753784,0.22304439544677734,-0.24666275084018707,0.44256338477134705,-0.014249597676098347
58903,-0.02859622612595558,0.24530275166034698,0.2239105999469757,-0.20757123827934265,0.4600483179092407,-0.003090463113039732
58943,-0.02912670560181141,0.24454234540462494,0.21675997972488403,-0.2062777429819107,0.46469035744667053,-0.0032190328929573298
58983,-0.020681848749518394,0.24675485491752625,0.21726608276367188,-0.22058138251304626,0.4242357611656189,-0.006622025277465582
59023,-0.0280360858887434,0.2468021810054779,0.2119506150484085,-0.22341687977313995,0.46720805764198303,-0.005754133220762014
59063,-0.029554564505815506,0.2477925568819046,0.21694380044937134,-0.22588758170604706,0.4749225676059723,-0.006472187582403421
59103,-0.02357577718794346,0.24733421206474304,0.21837927401065826,-0.2247229516506195,0.44739651679992676,-0.007781983818858862
59143,-0.025981465354561806,0.24592570960521698,0.21425652503967285,-0.22532741725444794,0.4581615924835205,-0.00898421835154295
59183,-0.019592002034187317,0.24333371222019196,0.2158423364162445,-0.21494440734386444,0.43165695667266846,-0.008872601203620434
59223,-0.027364464476704597,0.24497807025909424,0.21769988536834717,-0.22512438893318176,0.46972906589508057,-0.008744310587644577
59263,-0.030186530202627182,0.246761754155159,0.21479353308677673,-0.23741184175014496,0.4845816195011139,-0.00900515727698803
59303,-0.028538132086396217,0.2419644147157669,0.21804463863372803,-0.20711492002010345,0.47483643889427185,-0.006451317109167576
59343,-0.02978324703872204,0.24335803091526031,0.21569600701332092,-0.2134058028459549,0.4788469672203064,-0.006981490645557642
59383,-0.03253569081425667,0.23772598803043365,0.21368782222270966,-0.1948024332523346,0.4963798224925995,-0.0076401024125516415
59423,-0.030502278357744217,0.2389356940984726,0.21828068792819977,-0.2103879153728485,0.4824739694595337,-0.0070072440430521965
59463,-0.03409167006611824,0.24237845838069916,0.21773330867290497,-0.236375093460083,0.5035437941551208,-0.00834366213530302
59503,-0.04043574258685112,0.24157899618148804,0.22041507065296173,-0.23245133459568024,0.5282622575759888,-0.009730186313390732
59543,-0.04096086323261261,0.24066418409347534,0.22424151003360748,-0.22807225584983826,0.5240663290023804,-0.006853708531707525
59583,-0.04216380417346954,0.23986950516700745,0.22558367252349854,-0.22520911693572998,0.5242326259613037,-0.006235956214368343
59623,-0.03658558428287506,0.23961763083934784,0.22807835042476654,-0.23081248998641968,0.4872402548789978,-0.0009662195225246251
59663,-0.034441832453012466,0.2367868572473526,0.2262054830789566,-0.2236991673707962,0.4749886095523834,0.0033219768665730953
59703,-0.04279531538486481,0.23893852531909943,0.23197951912879944,-0.24035613238811493,0.5081496238708496,-0.0037785922177135944
59743,-0.03618753328919411,0.2399549037218094,0.23423773050308228,-0.2431536316871643,0.4729273319244385,-0.0010990146547555923
59783,-0.03143765404820442,0.24300701916217804,0.23337697982788086,-0.26166844367980957,0.4452325403690338,-0.0010077120969071984
59823,-0.03705427050590515,0.2425365447998047,0.2280360758304596,-0.2640548348426819,0.47663432359695435,-0.002617742633447051
59863,-0.043765824288129807,0.24394090473651886,0.2255091518163681,-0.2596324384212494,0.5148231983184814,-0.0039283763617277145
59903,-0.041598495095968246,0.23989903926849365,0.22736498713493347,-0.2451944202184677,0.4951208233833313,-0.0022946579847484827
59943,-0.04312213882803917,0.24132245779037476,0.23180276155471802,-0.2524889409542084,0.49670761823654175,-0.003466272260993719
59983,-0.03785312920808792,0.24309585988521576,0.23266838490962982,-0.26663196086883545,0.47026944160461426,-0.004788747988641262
60023,-0.03105180151760578,0.2432182878255844,0.23292282223701477,-0.26814666390419006,0.4377865493297577,-0.005775483790785074
60063,-0.03576463833451271,0.24672533571720123,0.2278406322002411,-0.28559431433677673,0.46431484818458557,-0.005408953875303268
60103,-0.041170936077833176,0.2441049963235855,0.23323427140712738,-0.2710317373275757,0.4919854998588562,-0.003352921223267913
60143,-0.04527841880917549,0.24462804198265076,0.2283211499452591,-0.2683124542236328,0.5209305286407471,-0.00015490237274207175
60183,-0.03767507150769234,0.24429434537887573,0.22347162663936615,-0.2649416923522949,0.48331180214881897,-0.0027128527872264385
60223,-0.034815143793821335,0.24356180429458618,0.22084593772888184,-0.2658235728740692,0.46891075372695923,-0.0024708437267690897
60263,-0.04500923678278923,0.24197663366794586,0.2184036374092102,-0.26117703318595886,0.5219666957855225,0.004295174963772297
60303,-0.03860090300440788,0.24168042838573456,0.2204260379076004,-0.2614012360572815,0.4810796082019806,0.005055395886301994
60343,-0.03238461911678314,0.24009418487548828,0.219327911734581,-0.25214940309524536,0.4495890736579895,0.0013640959514304996
60383,-0.03299660235643387,0.23763449490070343,0.2149069905281067,-0.2469022572040558,0.4478914439678192,0.004599383100867271
60423,-0.032626934349536896,0.24064992368221283,0.21540923416614532,-0.2599697709083557,0.44515836238861084,0.005019329953938723
60463,-0.03440690040588379,0.24254865944385529,0.21543794870376587,-0.2762916684150696,0.4524356424808502,0.009369495324790478
60503,-0.03587279096245766,0.24115991592407227,0.21643227338790894,-0.27809375524520874,0.4577109217643738,0.012325091287493706
60543,-0.028274312615394592,0.2417936623096466,0.21750770509243011,-0.27343279123306274,0.4164827764034271,0.009604542516171932
60583,-0.026090096682310104,0.24221375584602356,0.2214469313621521,-0.2752947211265564,0.40190431475639343,0.00850131455808878
