Timestamp,stateEstimate.x,stateEstimate.y,stateEstimate.z,stateEstimate.roll,stateEstimate.pitch,stateEstimate.yaw
16625,-0.010174650698900223,0.13131608068943024,0.004735556896775961,0.09722013771533966,0.17734438180923462,0.16658465564250946
16665,-0.013325512409210205,0.13031303882598877,0.005733064375817776,0.18265122175216675,0.26857200264930725,0.22816893458366394
16705,-0.013295648619532585,0.12478657811880112,0.005824562162160873,0.39158084988594055,0.3225628435611725,0.25655147433280945
16745,-0.013079916127026081,0.12283726036548615,0.005789959337562323,0.3839191794395447,0.2751978933811188,0.2160877287387848
16785,-0.014705958776175976,0.12361866980791092,0.005816844757646322,0.32794564962387085,0.2707799971103668,0.21273548901081085
16825,-0.017635809257626534,0.12302594631910324,0.005253949668258429,0.26691925525665283,0.3043298125267029,0.14906704425811768
16865,-0.014940409921109676,0.12398923188447952,0.005765872076153755,0.18482500314712524,0.2490067481994629,0.1497761458158493
16905,-0.014545501209795475,0.12161222100257874,0.00479456502944231,0.2568901479244232,0.2789032757282257,0.17777708172798157
16945,-0.015212824568152428,0.12115035951137543,0.005807724315673113,0.2211453914642334,0.3415921926498413,0.18729080259799957
16985,-0.01014750823378563,0.12402788549661636,0.0058504920452833176,0.08652542531490326,0.13571590185165405,0.16023550927639008
17025,-0.01975693553686142,0.12467404454946518,0.005905518773943186,0.021242491900920868,0.46519872546195984,0.07224958389997482
17065,-0.021858468651771545,0.12482459843158722,0.005733378231525421,0.03749137371778488,0.4634561240673065,0.05683718994259834
17105,-0.020556138828396797,0.12349829077720642,0.005995750427246094,0.07199202477931976,0.43449831008911133,0.08136200159788132
17145,-0.020788906142115593,0.12250172346830368,0.006629617419093847,0.05928259715437889,0.3852136433124542,0.047890085726976395
17185,-0.02164127677679062,0.12264130264520645,0.006671918090432882,0.049498796463012695,0.33611607551574707,0.040901172906160355
17225,-0.021834252402186394,0.12195256352424622,0.007419721223413944,0.08971706032752991,0.3260464072227478,0.03575049713253975
17265,-0.0235453974455595,0.1209459900856018,0.008005965501070023,0.08553237468004227,0.2901678681373596,-0.004892717581242323
17305,-0.022460613399744034,0.12365216761827469,0.007185411173850298,0.01912374421954155,0.24571004509925842,0.04501556232571602
17345,-0.029166989028453827,0.1169714406132698,0.007459164131432772,0.21747170388698578,0.3936242461204529,-0.07628694921731949
17385,-0.03262104094028473,0.1213591992855072,0.006774432957172394,0.0432477630674839,0.5176061391830444,-0.07134034484624863
17425,-0.03284502774477005,0.1209055706858635,0.00584696838632226,0.051983196288347244,0.45408183336257935,-0.07609795778989792
17465,-0.03360701724886894,0.12239590287208557,0.0055448077619075775,0.032449763268232346,0.4306512773036957,-0.06884919106960297
17505,-0.030841946601867676,0.12073647975921631,0.006233256310224533,0.17097778618335724,0.32720455527305603,-0.065808966755867
17545,-0.03394473344087601,0.11869517713785172,0.005527084227651358,0.1770961731672287,0.346876859664917,-0.1009971871972084
17585,-0.033248208463191986,0.1200704425573349,0.005839625373482704,0.17094221711158752,0.25589048862457275,-0.11268821358680725
17625,-0.034107599407434464,0.12247798591852188,0.005212086718529463,0.11766014248132706,0.2622947096824646,-0.12888547778129578
17665,-0.03633727505803108,0.12284691631793976,0.006038596387952566,0.1108638122677803,0.25699910521507263,-0.17265282571315765
17705,-0.035536084324121475,0.12241795659065247,0.006278881803154945,0.10209531337022781,0.1944732367992401,-0.17640912532806396
17745,-0.03540404513478279,0.11949023604393005,0.006319635082036257,0.1524321585893631,0.21840539574623108,-0.14995327591896057
17785,-0.034360241144895554,0.11853406578302383,0.006016368977725506,0.170474573969841,0.19522343575954437,-0.12567782402038574
17825,-0.03520899638533592,0.12049505859613419,0.006264557130634785,0.10494184494018555,0.23986704647541046,-0.13580742478370667
17865,-0.03415123373270035,0.12015418708324432,0.0069421627558767796,0.10266482084989548,0.13286110758781433,-0.15354622900485992
17905,-0.03230040892958641,0.11941877752542496,0.006833896040916443,0.10872761905193329,0.07981517910957336,-0.13645967841148376
17945,-0.03030353970825672,0.12197277694940567,0.007640526629984379,0.10842948406934738,0.038235485553741455,-0.16200946271419525
17985,-0.028730886057019234,0.12135589867830276,0.005939652677625418,0.09719876199960709,-0.002470975276082754,-0.17193296551704407
18025,-0.027752533555030823,0.12236171960830688,0.005216334946453571,0.10689868032932281,0.04075499251484871,-0.15758512914180756
18065,-0.02908073365688324,0.11899787187576294,0.005299920681864023,0.22322745621204376,0.09858754277229309,-0.11701710522174835
18105,-0.028594661504030228,0.11793354153633118,0.00565335014835,0.22467023134231567,0.12649935483932495,-0.1041601300239563
18145,-0.028603211045265198,0.11799491941928864,0.006354558747261763,0.20858868956565857,0.13715727627277374,-0.12397848069667816
18185,-0.029377514496445656,0.11830103397369385,0.006462261080741882,0.14361372590065002,0.188810333609581,-0.14977242052555084
18225,-0.028591686859726906,0.1181371882557869,0.006497313734143972,0.20342059433460236,0.18446631729602814,-0.11497419327497482
18265,-0.0284489206969738,0.11963636428117752,0.006473776418715715,0.1462586373090744,0.21492154896259308,-0.12804730236530304
18305,-0.025042807683348656,0.11794087290763855,0.006055839825421572,0.17880092561244965,0.17626945674419403,-0.0682491585612297
18345,-0.02459440752863884,0.11980310827493668,0.006126100197434425,0.134688600897789,0.1631639301776886,-0.08267025649547577
18385,-0.026593737304210663,0.11885299533605576,0.006394532974809408,0.1548813134431839,0.18393565714359283,-0.13508948683738708
18425,-0.028589816763997078,0.11850079894065857,0.005494808778166771,0.1621650606393814,0.27110809087753296,-0.14444319903850555
18465,-0.02752060629427433,0.11866354197263718,0.0054990751668810844,0.17353029549121857,0.26641032099723816,-0.11868401616811752
18505,-0.02864246256649494,0.12018244713544846,0.005716308020055294,0.17611587047576904,0.2816563844680786,-0.12684933841228485
18545,-0.02818877436220646,0.12036185711622238,0.0050682672299444675,0.1628108024597168,0.2834785282611847,-0.10684316605329514
18585,-0.02486841008067131,0.12185650318861008,0.005492973607033491,0.12001731246709824,0.2578042149543762,-0.05416876822710037
18625,-0.02379191666841507,0.1216949075460434,0.006709601730108261,0.09505831450223923,0.2057134211063385,-0.08143629133701324
18665,-0.025323443114757538,0.12195707112550735,0.007178945932537317,0.13712716102600098,0.28812575340270996,-0.05511884391307831
18705,-0.024824488908052444,0.12180991470813751,0.0061579542234539986,0.08251848816871643,0.27882856130599976,-0.08033210784196854
18745,-0.025755437090992928,0.12111528217792511,0.00671978248283267,0.08583275228738785,0.28403741121292114,-0.09146660566329956
18785,-0.023928217589855194,0.12045025080442429,0.006620305124670267,0.1692085564136505,0.22998763620853424,-0.0663042813539505
18825,-0.023700065910816193,0.12084212154150009,0.00694085331633687,0.1615130603313446,0.26586419343948364,-0.053842443972826004
18865,-0.02195318415760994,0.11877124011516571,0.006822843570262194,0.21410535275936127,0.2284899353981018,-0.05560090020298958
18905,-0.024168794974684715,0.11811462789773941,0.007133085746318102,0.18469859659671783,0.30605602264404297,-0.08513522148132324
18945,-0.02336857095360756,0.11739329993724823,0.007392295636236668,0.21092885732650757,0.2892485558986664,-0.06899616122245789
18985,-0.022966142743825912,0.12032061815261841,0.00659639947116375,0.11464865505695343,0.29458844661712646,-0.030428854748606682
19025,-0.024427035823464394,0.11962054669857025,0.005107938311994076,0.1344340294599533,0.33646130561828613,-0.04459640011191368
19065,-0.02266649901866913,0.11796113848686218,0.005008500535041094,0.16881956160068512,0.2650492191314697,-0.056220099329948425
19105,-0.02177012339234352,0.12012112885713577,0.005367617588490248,0.15560196340084076,0.2884853780269623,-0.019699059426784515
19145,-0.0237109437584877,0.12108064442873001,0.005705593153834343,0.12640222907066345,0.3481455147266388,-0.027013741433620453
19185,-0.024568330496549606,0.12208972871303558,0.005176403094083071,0.1482662558555603,0.3451782763004303,-0.024414051324129105
19225,-0.025084473192691803,0.12075740098953247,0.004772464279085398,0.15165621042251587,0.3103366494178772,-0.062084876000881195
19265,-0.024575483053922653,0.12014451622962952,0.0045426697470247746,0.14798356592655182,0.2608479857444763,-0.07734653353691101
19305,-0.027078796178102493,0.12155768275260925,0.005559202749282122,0.13270018994808197,0.33425551652908325,-0.07372942566871643
19345,-0.025829967111349106,0.11997158825397491,0.005519608501344919,0.1739543080329895,0.269949734210968,-0.08807692676782608
19385,-0.025801019743084908,0.12320087850093842,0.0047417390160262585,0.09198635816574097,0.2517297863960266,-0.06911158561706543
19425,-0.028004515916109085,0.12276671826839447,0.0049080615863204,0.09024593234062195,0.284557968378067,-0.10881368070840836
19465,-0.027964454144239426,0.12099844217300415,0.004988078493624926,0.1684442013502121,0.30238667130470276,-0.1096700057387352
19505,-0.02658086083829403,0.12172484397888184,0.005116635002195835,0.14852437376976013,0.28987690806388855,-0.08465409278869629
19545,-0.0284739937633276,0.12137092649936676,0.005338436923921108,0.16820761561393738,0.2764798104763031,-0.12352940440177917
19585,-0.02698628604412079,0.12374354898929596,0.0062798503786325455,0.08579859882593155,0.23575271666049957,-0.1050046905875206
19625,-0.026499541476368904,0.12432663142681122,0.006050401832908392,0.09358612447977066,0.25746509432792664,-0.0824577733874321
19665,-0.026093974709510803,0.12339222431182861,0.00542660104110837,0.1280176043510437,0.27716657519340515,-0.08099193125963211
19705,-0.02920340560376644,0.12373073399066925,0.005033624358475208,0.12452977895736694,0.4491692781448364,-0.08338987827301025
19745,-0.02839445322751999,0.12102159857749939,0.00569047499448061,0.23130668699741364,0.3336329460144043,-0.11604912579059601
19785,-0.035555075854063034,0.11699438095092773,0.005198677536100149,0.31896859407424927,0.5111404061317444,-0.15103888511657715
19825,-0.03580450266599655,0.11648312211036682,0.006235428620129824,0.2819466292858124,0.44084781408309937,-0.15475095808506012
19865,-0.031752537935972214,0.11840125173330307,0.005708108190447092,0.23823828995227814,0.22884473204612732,-0.18604032695293427
19905,-0.031010892242193222,0.12057752907276154,0.0051529984921216965,0.15976451337337494,0.2558278739452362,-0.14311261475086212
19945,-0.032663583755493164,0.1190609410405159,0.005258605815470219,0.2334318906068802,0.3511316180229187,-0.12024958431720734
19985,-0.0312171820551157,0.11989248543977737,0.0053473771549761295,0.17043046653270721,0.2648918628692627,-0.1158766895532608
20025,-0.03203766047954559,0.11949822306632996,0.005382689647376537,0.1979505866765976,0.25558897852897644,-0.12172962725162506
20065,-0.030896326526999474,0.12054397910833359,0.005542488768696785,0.1906590461730957,0.24539309740066528,-0.08430978655815125
20105,-0.03094424679875374,0.1227201446890831,0.00545271672308445,0.1310552954673767,0.23799756169319153,-0.0824175700545311
20145,-0.03206174820661545,0.12253005057573318,0.005503942258656025,0.1605735868215561,0.2734353244304657,-0.08295946568250656
20185,-0.03081343322992325,0.12356766313314438,0.005066742189228535,0.10788929462432861,0.25523272156715393,-0.0625002384185791
20225,-0.031759414821863174,0.12194781005382538,0.005175507161766291,0.1389700472354889,0.268080472946167,-0.07725431025028229
20265,-0.029367273673415184,0.12336637824773788,0.006169372703880072,0.14394257962703705,0.22318585216999054,-0.05641351640224457
20305,-0.03140895813703537,0.11717335879802704,0.006131588015705347,0.3131539523601532,0.208617702126503,-0.08925466239452362
20345,-0.031841374933719635,0.12390556931495667,0.006968273781239986,0.0821533352136612,0.1986972838640213,-0.1295139640569687
20385,-0.029702436178922653,0.12234397232532501,0.007340815383940935,0.12307044863700867,0.16917449235916138,-0.08950356394052505
20425,-0.03069867193698883,0.12327292561531067,0.0067451694048941135,0.07806600630283356,0.2281389981508255,-0.086458221077919
20465,-0.030286334455013275,0.11924125254154205,0.0070713539607822895,0.2804398834705353,0.2893727123737335,-0.01692785508930683
20505,-0.031809646636247635,0.11591536551713943,0.0069702863693237305,0.29508909583091736,0.2669256925582886,-0.06355058401823044
20545,-0.033111438155174255,0.12185347080230713,0.0065488130785524845,0.1369842141866684,0.28840821981430054,-0.08518333733081818
20585,-0.033202022314071655,0.1155102476477623,0.00575907900929451,0.3613273501396179,0.18471169471740723,-0.13489022850990295
20625,-0.032772842794656754,0.11604617536067963,0.005776547361165285,0.31835147738456726,0.18934382498264313,-0.116073377430439
20665,-0.03218068927526474,0.11842644214630127,0.0064743924885988235,0.22379164397716522,0.19849401712417603,-0.10151534527540207
20705,-0.031145678833127022,0.11727164685726166,0.005578435491770506,0.24663734436035156,0.21277408301830292,-0.052909839898347855
20745,-0.03220169618725777,0.11736787855625153,0.005394189618527889,0.20892196893692017,0.23434793949127197,-0.08306104689836502
20785,-0.03140665218234062,0.11874852329492569,0.007117362227290869,0.20671187341213226,0.20450586080551147,-0.08034292608499527
20825,-0.029826760292053223,0.12014339864253998,0.00647817412391305,0.15569807589054108,0.16609106957912445,-0.06488246470689774
20865,-0.030465377494692802,0.12009681016206741,0.006473824381828308,0.11792139708995819,0.23570501804351807,-0.04180309176445007
20905,-0.028768597170710564,0.121035635471344,0.006046322640031576,0.1729518622159958,0.2255673110485077,0.018711918964982033
20945,-0.02766355872154236,0.12097889930009842,0.006617220584303141,0.14660751819610596,0.22966501116752625,0.05990913510322571
20985,-0.027708956971764565,0.12298563122749329,0.006150565110146999,0.1555079072713852,0.26888421177864075,0.10167369246482849
21025,-0.02927800454199314,0.12468871474266052,0.006636310834437609,0.11418269574642181,0.3083494007587433,0.06542543321847916
21065,-0.02645818516612053,0.12049119174480438,0.0065476358868181705,0.3011649250984192,0.20103463530540466,0.10274975746870041
21105,-0.025179140269756317,0.1250782608985901,0.006178064271807671,0.12135306000709534,0.12661005556583405,0.057092368602752686
21145,-0.026133595034480095,0.12518054246902466,0.00629554083570838,0.10409417748451233,0.15536625683307648,0.026041563600301743
21185,-0.027207061648368835,0.12751968204975128,0.006429840810596943,0.08444855362176895,0.20997196435928345,0.024728650227189064
21225,-0.026190120726823807,0.12939435243606567,0.0072364904917776585,0.09734094142913818,0.22402608394622803,0.08436308056116104
21265,-0.027637789025902748,0.13034482300281525,0.006621699780225754,0.05779258906841278,0.31213200092315674,0.08367959409952164
21305,-0.027158087119460106,0.13019327819347382,0.0053634364157915115,0.06624789535999298,0.29462602734565735,0.09430276602506638
21345,-0.02508404105901718,0.13201403617858887,0.005185628309845924,0.015489852987229824,0.2898124158382416,0.15283231437206268
21385,-0.027664126828312874,0.13062724471092224,0.005966702941805124,0.09037800133228302,0.41274940967559814,0.15034902095794678
21425,-0.026234695687890053,0.13515856862068176,0.006157746538519859,-0.06289900094270706,0.3102242052555084,0.16073022782802582
21465,-0.028258411213755608,0.13554680347442627,0.006274666171520948,-0.025916608050465584,0.2775467336177826,0.1061774492263794
21505,-0.02612178772687912,0.13578037917613983,0.006403906270861626,0.016456350684165955,0.23541544377803802,0.14718571305274963
21545,-0.025604452937841415,0.13551294803619385,0.006007322110235691,0.08302286267280579,0.2707335948944092,0.15467222034931183
21585,-0.02603435330092907,0.13549861311912537,0.005327292252331972,0.05653102323412895,0.28747549653053284,0.13065527379512787
21625,-0.025743110105395317,0.13586047291755676,0.005601877812296152,0.13764379918575287,0.26330429315567017,0.13960561156272888
21665,-0.02937985211610794,0.13573195040225983,0.005875249858945608,0.10928579419851303,0.30714890360832214,0.09347148984670639
21705,-0.030302155762910843,0.13402971625328064,0.005665612872689962,0.13286548852920532,0.31849023699760437,0.07014384865760803
21745,-0.02898801676928997,0.13453005254268646,0.0057845949195325375,0.12811991572380066,0.26154762506484985,0.08180063962936401
21785,-0.02393118105828762,0.13280141353607178,0.005544865969568491,0.19648903608322144,0.08316443115472794,0.11727608740329742
21825,-0.023181824013590813,0.1336623877286911,0.005993586033582687,0.18358366191387177,0.11207780987024307,0.10989248752593994
21865,-0.02370397560298443,0.13388241827487946,0.007692211307585239,0.16631107032299042,0.14314895868301392,0.09828215092420578
21905,-0.026246054098010063,0.1344248652458191,0.007181431632488966,0.19871127605438232,0.23392294347286224,0.12114357948303223
21945,-0.02496252954006195,0.13656073808670044,0.0074678463861346245,0.1442253589630127,0.22824034094810486,0.1274154782295227
21985,-0.024413036182522774,0.13327957689762115,0.006223998498171568,0.22908583283424377,0.2222142070531845,0.12206294387578964
22025,-0.022689366713166237,0.13222286105155945,0.0049456642009317875,0.23483841121196747,0.1916314661502838,0.11171762645244598
22065,-0.023450884968042374,0.13553351163864136,0.004850421566516161,0.2186019867658615,0.2627391815185547,0.16199985146522522
22105,-0.022952627390623093,0.13545896112918854,0.005371189210563898,0.15887370705604553,0.2569374144077301,0.12057272344827652
22145,-0.022151989862322807,0.1359003335237503,0.0057182335294783115,0.17261278629302979,0.2583925426006317,0.1406402736902237
22185,-0.02206573076546192,0.13629236817359924,0.005922642536461353,0.1423555612564087,0.28384801745414734,0.12942607700824738
22225,-0.02204669825732708,0.13607768714427948,0.006920333486050367,0.1392206996679306,0.28538480401039124,0.12532587349414825
22265,-0.0229092538356781,0.1366344839334488,0.0072633856907486916,0.18069574236869812,0.28871583938598633,0.16568058729171753
22305,-0.02117728814482689,0.13533037900924683,0.007676356006413698,0.2022484540939331,0.2185920923948288,0.14737221598625183
22345,-0.019891832023859024,0.13712111115455627,0.006615187972784042,0.157780259847641,0.22186163067817688,0.1612178385257721
22385,-0.02130931057035923,0.13613973557949066,0.007015872281044722,0.21008498966693878,0.3071288466453552,0.1693064570426941
22425,-0.022257016971707344,0.13475428521633148,0.006910583004355431,0.21332883834838867,0.2995787560939789,0.1502138376235962
22465,-0.020749295130372047,0.13489732146263123,0.005567934829741716,0.18710820376873016,0.2283756136894226,0.13748465478420258
22505,-0.020789314061403275,0.1364281177520752,0.005393005907535553,0.1155778244137764,0.2854514420032501,0.12931670248508453
22545,-0.0201244093477726,0.13738113641738892,0.006215998437255621,0.06597568094730377,0.2153889238834381,0.11513198167085648
22585,-0.011778808198869228,0.1363481879234314,0.0058099618181586266,0.1322554349899292,-0.03490949049592018,0.1355077177286148
22625,-0.011770381592214108,0.13712874054908752,0.006081960629671812,0.10860472172498703,0.005796219687908888,0.128084197640419
22665,-0.011745615862309933,0.1373109668493271,0.007545471657067537,0.14247599244117737,0.11810991913080215,0.15082241594791412
22705,-0.011659453622996807,0.13625983893871307,0.007660026662051678,0.18139313161373138,0.1288612186908722,0.15834438800811768
22745,-0.013150847516953945,0.12880998849868774,0.006186719983816147,0.4354526996612549,0.1685786247253418,0.2000090628862381
22785,-0.015312541276216507,0.12971718609333038,0.00742630148306489,0.4197517931461334,0.264753520488739,0.2680172622203827
22825,-0.016250690445303917,0.12541484832763672,0.006697268225252628,0.4668758511543274,0.3099663257598877,0.2334829568862915
22865,-0.015536599792540073,0.12498386949300766,0.006915031000971794,0.433912992477417,0.28170984983444214,0.22505880892276764
22905,-0.017181752249598503,0.12498055398464203,0.007321901153773069,0.38933563232421875,0.3278253674507141,0.21134686470031738
22945,-0.020338602364063263,0.12401425838470459,0.0061991834081709385,0.34439870715141296,0.28932759165763855,0.10917967557907104
22985,-0.023282334208488464,0.12487388402223587,0.007122644688934088,0.27750858664512634,0.31758248805999756,0.09312805533409119
23025,-0.024105802178382874,0.12598827481269836,0.006423871964216232,0.21931371092796326,0.3299033045768738,0.10719668120145798
23065,-0.02271156571805477,0.12480861693620682,0.005938867572695017,0.21079115569591522,0.3038328289985657,0.0983969122171402
23105,-0.019433051347732544,0.12604880332946777,0.007365330122411251,0.18823939561843872,0.20423202216625214,0.14660243690013885
23145,-0.02298734337091446,0.13351085782051086,0.007958662696182728,-0.08466915786266327,0.34318631887435913,0.2209845632314682
23185,-0.022505998611450195,0.133747398853302,0.008410833775997162,-0.06959247589111328,0.2964877486228943,0.20308645069599152
23225,-0.02633274532854557,0.12461858242750168,0.007059565279632807,0.36594682931900024,0.4251822531223297,0.17822355031967163
23265,-0.028476599603891373,0.12288316339254379,0.006451963447034359,0.31650349497795105,0.35160112380981445,0.05366046726703644
23305,-0.02629993110895157,0.1219789907336235,0.005954195279628038,0.3258736729621887,0.312775582075119,0.11102212220430374
23345,-0.026599803939461708,0.12367627024650574,0.005570461507886648,0.2083892524242401,0.3255141079425812,0.14591921865940094
23385,-0.02686191350221634,0.1236850842833519,0.005680060479789972,0.17879384756088257,0.32151952385902405,0.15550266206264496
23425,-0.0267539843916893,0.12453775852918625,0.005676221568137407,0.15797246992588043,0.32672932744026184,0.19556306302547455
23465,-0.026963768526911736,0.12191633135080338,0.005492044612765312,0.1664814054965973,0.28226277232170105,0.11666540056467056
23505,-0.027168340981006622,0.1230517029762268,0.005389322526752949,0.15607304871082306,0.2693198323249817,0.14280591905117035
23545,-0.028307685628533363,0.1306082159280777,0.006992966867983341,-0.20678859949111938,0.23626293241977692,0.09327273815870285
23585,-0.028561143204569817,0.12932418286800385,0.006601307075470686,-0.12283872812986374,0.26028427481651306,0.08527253568172455
23625,-0.02623026818037033,0.13306981325149536,0.006503925658762455,-0.20375294983386993,0.1975260078907013,0.13076069951057434
23665,-0.02460559830069542,0.13270717859268188,0.006577799562364817,-0.14787539839744568,0.1812606006860733,0.1255570650100708
23705,-0.026267290115356445,0.13239352405071259,0.0070657129399478436,-0.10629042237997055,0.1975504755973816,0.059695564210414886
23745,-0.02521558292210102,0.13279685378074646,0.006982269696891308,-0.040644142776727676,0.2049773782491684,0.06921109557151794
23785,-0.026873672381043434,0.1326899379491806,0.005552547983825207,-0.014955428428947926,0.2608562111854553,0.024630211293697357
23825,-0.025516532361507416,0.13329122960567474,0.0064526889473199844,0.02608000673353672,0.22228707373142242,0.06172632426023483
23865,-0.02606251649558544,0.134852796792984,0.006137368269264698,0.06854042410850525,0.25195980072021484,0.09749048948287964
23905,-0.02621043287217617,0.13413478434085846,0.005034896545112133,0.08405770361423492,0.25720447301864624,0.0812409371137619
23945,-0.02442741021513939,0.13600501418113708,0.004954244010150433,0.0819646343588829,0.26202598214149475,0.10965240001678467
23985,-0.025465454906225204,0.13439251482486725,0.004956957884132862,0.121037058532238,0.24864688515663147,0.10190774500370026
24025,-0.021365663036704063,0.1334334760904312,0.00539088761433959,0.17136330902576447,0.1533849984407425,0.14751432836055756
24065,-0.021665694192051888,0.13264118134975433,0.006906257010996342,0.1888299584388733,0.10897529870271683,0.16196872293949127
24105,-0.0228818878531456,0.13203220069408417,0.007504962384700775,0.18366192281246185,0.18537697196006775,0.1394069343805313
24145,-0.026287062093615532,0.1324509084224701,0.007787361741065979,0.1736966222524643,0.3078644573688507,0.13501180708408356
24185,-0.02206892892718315,0.13203218579292297,0.007949227467179298,0.17634160816669464,0.24737825989723206,0.1307380646467209
24225,-0.020780351012945175,0.1325463354587555,0.007032947614789009,0.14572833478450775,0.2591520845890045,0.11216171830892563
24265,-0.020896557718515396,0.13255959749221802,0.006400855723768473,0.21375195682048798,0.2262296974658966,0.1662067472934723
24305,-0.02261277101933956,0.13145208358764648,0.006814721040427685,0.18867170810699463,0.17173032462596893,0.1261233389377594
24345,-0.024409273639321327,0.13024809956550598,0.005768091417849064,0.20779293775558472,0.26800984144210815,0.11796605587005615
24385,-0.023684842512011528,0.1311749517917633,0.0055071087554097176,0.19457656145095825,0.3525214195251465,0.15101732313632965
24425,-0.025869503617286682,0.12991450726985931,0.004885463044047356,0.21973630785942078,0.3795836567878723,0.14646701514720917
24465,-0.024168727919459343,0.13164356350898743,0.005319010466337204,0.16922065615653992,0.30874231457710266,0.163795605301857
24505,-0.026293398812413216,0.13236796855926514,0.006074339617043734,0.1332060843706131,0.37789925932884216,0.17658817768096924
24545,-0.024804966524243355,0.13114409148693085,0.00643092580139637,0.15310265123844147,0.3012385666370392,0.1532125324010849
24585,-0.026387250050902367,0.13035061955451965,0.004783740267157555,0.21743521094322205,0.30694714188575745,0.1856139898300171
24625,-0.028362968936562538,0.13165749609470367,0.005807823967188597,0.1750183403491974,0.28184735774993896,0.19582496583461761
24665,-0.02954409271478653,0.13233932852745056,0.00485586142167449,0.20982521772384644,0.29543933272361755,0.2442571222782135
24705,-0.02799958921968937,0.13627327978610992,0.005402501672506332,0.10394097119569778,0.24906253814697266,0.269791841506958
24745,-0.026840439066290855,0.13517864048480988,0.006262551061809063,0.14670678973197937,0.2633269131183624,0.2618374824523926
24785,-0.025557423010468483,0.1357324868440628,0.005645840894430876,0.16078932583332062,0.27865660190582275,0.2781473994255066
24825,-0.0254430640488863,0.13622520864009857,0.005959285423159599,0.15743745863437653,0.25864341855049133,0.28534287214279175
24865,-0.025720730423927307,0.13846544921398163,0.005718120373785496,0.13583141565322876,0.31661757826805115,0.321092426776886
24905,-0.024795040488243103,0.1394418478012085,0.005609829910099506,0.17843666672706604,0.26614460349082947,0.3610723614692688
24945,-0.024850649759173393,0.13845683634281158,0.0051593054085969925,0.17517897486686707,0.23949304223060608,0.3360830545425415
24985,-0.02825498953461647,0.13759753108024597,0.006473883055150509,0.176951602101326,0.3235852122306824,0.3282448947429657
25025,-0.025801872834563255,0.1376619189977646,0.006529823411256075,0.18955151736736298,0.3105902373790741,0.33515340089797974
25065,-0.024944990873336792,0.13740020990371704,0.00695926183834672,0.15299579501152039,0.242726132273674,0.3139418065547943
25105,-0.025669055059552193,0.13747675716876984,0.006869512610137463,0.19699311256408691,0.2725783586502075,0.34052354097366333
25145,-0.024640841409564018,0.13694335520267487,0.007128824479877949,0.19883187115192413,0.26194578409194946,0.33823081851005554
25185,-0.025222841650247574,0.1370796114206314,0.006570330820977688,0.1881607323884964,0.26894131302833557,0.33503687381744385
25225,-0.024117780849337578,0.13886766135692596,0.006054505240172148,0.13775016367435455,0.24762308597564697,0.3546731173992157
25265,-0.025681329891085625,0.138037770986557,0.007069774437695742,0.12737542390823364,0.25201913714408875,0.33722537755966187
25305,-0.027073755860328674,0.13870972394943237,0.006447624880820513,0.1618759036064148,0.2964780628681183,0.36585989594459534
25345,-0.024264298379421234,0.13958947360515594,0.00632472662255168,0.14771288633346558,0.26361578702926636,0.3736673593521118
25385,-0.02605750784277916,0.13607169687747955,0.006287680938839912,0.23446910083293915,0.32700932025909424,0.353443443775177
25425,-0.02754022367298603,0.13815249502658844,0.006728763226419687,0.14685025811195374,0.3444038927555084,0.35366004705429077
25465,-0.02647785097360611,0.137228325009346,0.00621411669999361,0.180173859000206,0.33327916264533997,0.3395674228668213
25505,-0.028065150603652,0.1370505839586258,0.006673355586826801,0.11733150482177734,0.32968777418136597,0.3241466283798218
25545,-0.026697726920247078,0.13609841465950012,0.005796666722744703,0.1276436597108841,0.3386438190937042,0.31795957684516907
25585,-0.027785714715719223,0.1342969685792923,0.005523071624338627,0.17833644151687622,0.3863547146320343,0.3098682165145874
25625,-0.02618199586868286,0.1352347433567047,0.005722653120756149,0.15153826773166656,0.37561801075935364,0.31655603647232056
25665,-0.02341458387672901,0.13489338755607605,0.005763012450188398,0.1720944344997406,0.28363487124443054,0.3162224590778351
25705,-0.02287091128528118,0.13493706285953522,0.005911562126129866,0.1237679049372673,0.2815301716327667,0.3042665719985962
25745,-0.024855799973011017,0.13218435645103455,0.005673943553119898,0.19883769750595093,0.3107086420059204,0.2941772937774658
25785,-0.026242418214678764,0.13100159168243408,0.005528604611754417,0.1654140055179596,0.3079618811607361,0.2841724455356598
25825,-0.02487383596599102,0.13058149814605713,0.0054099983535707,0.20528560876846313,0.26204800605773926,0.2904791831970215
25865,-0.025687597692012787,0.13148270547389984,0.005461342632770538,0.1578671634197235,0.2764667570590973,0.30371174216270447
25905,-0.024520767852663994,0.130341574549675,0.005832398310303688,0.1702902466058731,0.23735572397708893,0.3026934266090393
25945,-0.021526433527469635,0.13139823079109192,0.006466688122600317,0.18556852638721466,0.2340039759874344,0.31888431310653687
25985,-0.024681514129042625,0.13314035534858704,0.005435447208583355,0.11490949243307114,0.36700379848480225,0.3277628719806671
26025,-0.023127026855945587,0.13318264484405518,0.005748012103140354,0.13462182879447937,0.2657197117805481,0.34260931611061096
26065,-0.021138176321983337,0.13488486409187317,0.006330457516014576,0.09782037883996964,0.1940535604953766,0.3508952856063843
26105,-0.020357247442007065,0.1329893320798874,0.006823582574725151,0.16679474711418152,0.2543024718761444,0.3379923403263092
26145,-0.019090283662080765,0.13420012593269348,0.006371130235493183,0.14521493017673492,0.1966162919998169,0.3542131781578064
26185,-0.021801548078656197,0.1360602080821991,0.006066595669835806,0.12905406951904297,0.2774101495742798,0.3574904501438141
26225,-0.019099077209830284,0.13545025885105133,0.0061276634223759174,0.1275646686553955,0.20378242433071136,0.35519903898239136
26265,-0.017820121720433235,0.13606399297714233,0.005377794615924358,0.1413576453924179,0.2155369371175766,0.36887750029563904
26305,-0.019795984029769897,0.13529086112976074,0.005343980621546507,0.14825411140918732,0.2913387417793274,0.3634720742702484
26345,-0.01826465129852295,0.13532143831253052,0.0062452335841953754,0.13951711356639862,0.29589760303497314,0.3582269847393036
26385,-0.016997233033180237,0.13479290902614594,0.005524659529328346,0.1796209216117859,0.30683377385139465,0.36222603917121887
26425,-0.01825854554772377,0.1348060518503189,0.006352046970278025,0.17548224329948425,0.28104549646377563,0.36895859241485596
26465,-0.019475551322102547,0.13534101843833923,0.006873829290270805,0.18293331563472748,0.3417002856731415,0.3724214732646942
26505,-0.016254568472504616,0.1343807727098465,0.006784441415220499,0.14593705534934998,0.2608726918697357,0.34758615493774414
26545,-0.01851803995668888,0.13287833333015442,0.006307708565145731,0.17196007072925568,0.3349650800228119,0.33670371770858765
26585,-0.018592966720461845,0.13375721871852875,0.005934050772339106,0.16099129617214203,0.33338305354118347,0.35056352615356445
26625,-0.017206326127052307,0.13252852857112885,0.006047255825251341,0.1305588036775589,0.3296603560447693,0.3336809277534485
26665,-0.014438326470553875,0.13321343064308167,0.006107747089117765,0.19302420318126678,0.2418515384197235,0.36540549993515015
26705,-0.013715292327105999,0.13587796688079834,0.006181131582707167,0.11484251171350479,0.2669186294078827,0.3691737651824951
26745,-0.017889784649014473,0.13545356690883636,0.005970405880361795,0.06116496026515961,0.2866200804710388,0.36164233088493347
26785,-0.01696924678981304,0.13383236527442932,0.006084485910832882,0.11953383684158325,0.2721323072910309,0.3547304570674896
26825,-0.015890145674347878,0.13331083953380585,0.0062427883967757225,0.11636068671941757,0.26698628067970276,0.34627440571784973
26865,-0.018727732822299004,0.1330946385860443,0.005436853505671024,0.08776874840259552,0.32030099630355835,0.3411090672016144
26905,-0.01790889911353588,0.13457649946212769,0.006116950418800116,0.1121767908334732,0.33465683460235596,0.34813469648361206
26945,-0.017463339492678642,0.13309670984745026,0.005030157510191202,0.14028610289096832,0.3078443706035614,0.3479713201522827
26985,-0.013129533268511295,0.1348114162683487,0.004255433101207018,0.05974668264389038,0.08477190136909485,0.3634800910949707
27025,-0.009338065050542355,0.1378244012594223,0.004033081233501434,-0.036197226494550705,-0.04485103487968445,0.3743187189102173
27065,-0.011246181093156338,0.13552740216255188,0.004127113614231348,0.027702612802386284,0.0037890218663960695,0.3795180916786194
27105,-0.011800400912761688,0.13837839663028717,0.005744150839745998,-0.01962529867887497,0.0736994594335556,0.36478638648986816
27145,-0.013987867161631584,0.13637007772922516,0.005778217688202858,0.038266394287347794,0.09185769408941269,0.39368653297424316
27185,-0.01489611528813839,0.13479891419410706,0.005760433617979288,0.10357100516557693,0.16687780618667603,0.39030706882476807
27225,-0.022261157631874084,0.13406085968017578,0.006922333966940641,0.17146487534046173,0.4836248457431793,0.3672032356262207
27265,-0.02238837257027626,0.13074518740177155,0.007016288116574287,0.2516964375972748,0.40719085931777954,0.39552953839302063
27305,-0.021591871976852417,0.13068172335624695,0.005676007829606533,0.23965363204479218,0.38370072841644287,0.38790595531463623
27345,-0.017752675339579582,0.13206247985363007,0.005699682980775833,0.2489224672317505,0.3576202988624573,0.4059138596057892
27385,-0.01812482811510563,0.1304207295179367,0.005027525592595339,0.22994695603847504,0.34569627046585083,0.37441620230674744
27425,-0.017733551561832428,0.13099884986877441,0.005068199243396521,0.18936985731124878,0.3706100583076477,0.3791983127593994
27465,-0.017534859478473663,0.1309961974620819,0.006503809243440628,0.17353153228759766,0.35640016198158264,0.3860573470592499
27505,-0.017478998750448227,0.1304863691329956,0.0070684221573174,0.23368792235851288,0.33522194623947144,0.4038901627063751
27545,-0.016839489340782166,0.13256710767745972,0.007890488021075726,0.214890718460083,0.33735451102256775,0.43344610929489136
27585,-0.01946566440165043,0.1326647400856018,0.00885156448930502,0.18229742348194122,0.3354753851890564,0.42760494351387024
27625,-0.018306368961930275,0.12994356453418732,0.008972332812845707,0.29792365431785583,0.3450526297092438,0.42382892966270447
27665,-0.021262042224407196,0.12622244656085968,0.008089778013527393,0.3810569643974304,0.3886907696723938,0.4087555706501007
27705,-0.022060126066207886,0.1252235472202301,0.006659280508756638,0.3771832287311554,0.37140533328056335,0.3952823281288147
27745,-0.01925582066178322,0.12762482464313507,0.006562903057783842,0.25456303358078003,0.250759482383728,0.3693632185459137
27785,-0.02340693399310112,0.126537024974823,0.0060377418994903564,0.2268686443567276,0.37306198477745056,0.3826959431171417
27825,-0.023976190015673637,0.1234850212931633,0.00604518037289381,0.27788111567497253,0.3564710021018982,0.3465440273284912
27865,-0.022365327924489975,0.12451054155826569,0.005660007242113352,0.20570692420005798,0.3346030116081238,0.38019007444381714
27905,-0.023885173723101616,0.12229409068822861,0.005686258897185326,0.19215421378612518,0.31832072138786316,0.35585978627204895
27945,-0.02184329554438591,0.12218454480171204,0.005025322083383799,0.18429727852344513,0.2592659294605255,0.36262544989585876
27985,-0.01918666996061802,0.12238821387290955,0.005424753297120333,0.1551143378019333,0.2068118304014206,0.3657362461090088
28025,-0.02186962217092514,0.12228979170322418,0.0066397166810929775,0.12721574306488037,0.2830531597137451,0.37463346123695374
28065,-0.021779388189315796,0.12781013548374176,0.006634602788835764,-0.014162545092403889,0.32302913069725037,0.4074755609035492
28105,-0.023168399930000305,0.126084104180336,0.006614291574805975,-0.0035880657378584146,0.3082323968410492,0.37122225761413574
28145,-0.022516127675771713,0.1263362467288971,0.007080553099513054,-0.02408783882856369,0.2940364480018616,0.3911585211753845
28185,-0.022273343056440353,0.1269388347864151,0.007390080951154232,0.022261643782258034,0.25994163751602173,0.39698106050491333
28225,-0.025490883737802505,0.12729431688785553,0.007576690521091223,-0.04758870601654053,0.26506567001342773,0.35987037420272827
28265,-0.027279864996671677,0.11932264268398285,0.007716700434684753,0.3302641808986664,0.37048450112342834,0.3637083172798157
28305,-0.02892395108938217,0.11902178823947906,0.006605774629861116,0.25092995166778564,0.36047300696372986,0.3419109880924225
28345,-0.027257220819592476,0.12289407104253769,0.005695737432688475,0.0704142302274704,0.3503459692001343,0.3820631206035614
28385,-0.026115620508790016,0.123073048889637,0.006667336914688349,0.0786905586719513,0.28575587272644043,0.3834623098373413
28425,-0.030648259446024895,0.12275348603725433,0.006712775677442551,0.040638625621795654,0.30656060576438904,0.33271878957748413
28465,-0.03330804780125618,0.11851401627063751,0.0071646468713879585,0.21153636276721954,0.3230726718902588,0.2775525748729706
28505,-0.030547844246029854,0.11770495772361755,0.007416193373501301,0.18356651067733765,0.22890718281269073,0.29793399572372437
28545,-0.03400630131363869,0.11222896724939346,0.0069323149509727955,0.3348867893218994,0.3908463418483734,0.3241441547870636
28585,-0.027316434308886528,0.11537235975265503,0.0060568214394152164,0.21259033679962158,0.1777070313692093,0.3431415259838104
28625,-0.027883213013410568,0.11582393199205399,0.006556293461471796,0.1862393617630005,0.2156859040260315,0.3425426781177521
28665,-0.02814558707177639,0.11517813056707382,0.0064092231914401054,0.16578681766986847,0.24324840307235718,0.35902103781700134
28705,-0.027909455820918083,0.11719222366809845,0.00639101630076766,0.12512044608592987,0.23946525156497955,0.33369743824005127
28745,-0.029923968017101288,0.11596318334341049,0.0059854560531675816,0.12158294767141342,0.23205377161502838,0.2959762215614319
28785,-0.027236461639404297,0.11554507166147232,0.00568836135789752,0.14184792339801788,0.14716289937496185,0.3103797435760498
28825,-0.02781734988093376,0.11423643678426743,0.005516148172318935,0.1950608789920807,0.18771404027938843,0.31730154156684875
28865,-0.03271111473441124,0.11692272126674652,0.0053805941715836525,0.10585823655128479,0.32655856013298035,0.23436738550662994
28905,-0.03303144872188568,0.11821682751178741,0.006090437062084675,0.0595187172293663,0.26233962178230286,0.17668837308883667
28945,-0.03143389895558357,0.11942014843225479,0.005794399883598089,0.02518882043659687,0.2615160048007965,0.20985236763954163
28985,-0.029960298910737038,0.1147056370973587,0.006821730174124241,0.1848093569278717,0.20857807993888855,0.26387637853622437
29025,-0.027658218517899513,0.11406712234020233,0.007165163289755583,0.17811112105846405,0.14452674984931946,0.28817734122276306
29065,-0.02872382663190365,0.11418169736862183,0.007081883028149605,0.16956794261932373,0.1878795176744461,0.25476446747779846
29105,-0.02885623462498188,0.11634878814220428,0.006953867617994547,0.11669313162565231,0.20425845682621002,0.22290050983428955
29145,-0.026858380064368248,0.11952830106019974,0.0071388003416359425,0.1409294158220291,0.21068458259105682,0.2484196275472641
29185,-0.026512866839766502,0.11983484774827957,0.0074254903011024,0.0760309025645256,0.18963909149169922,0.2175382524728775
29225,-0.025786684826016426,0.11911089718341827,0.006284831091761589,0.15587416291236877,0.24062786996364594,0.26556140184402466
29265,-0.025980589911341667,0.1186813935637474,0.005516077391803265,0.11271968483924866,0.16765554249286652,0.19084866344928741
29305,-0.027412420138716698,0.11781606078147888,0.006601094268262386,0.12350475788116455,0.21736031770706177,0.17581762373447418
29345,-0.026401862502098083,0.11854738742113113,0.0061846040189266205,0.15021082758903503,0.2465188056230545,0.21202611923217773
29385,-0.02849995717406273,0.11787276715040207,0.0054194009862840176,0.14316904544830322,0.2865932583808899,0.18538478016853333
29425,-0.028442200273275375,0.11827158182859421,0.006047406233847141,0.17299829423427582,0.274126261472702,0.18571139872074127
29465,-0.02621975913643837,0.12112832814455032,0.00490651186555624,0.06499189138412476,0.17789313197135925,0.17258812487125397
29505,-0.029225951060652733,0.1153537780046463,0.0054576280526816845,0.27733027935028076,0.264179527759552,0.1687861829996109
29545,-0.029797257855534554,0.11466420441865921,0.00573844974860549,0.287537157535553,0.25801023840904236,0.15376558899879456
29585,-0.030508743599057198,0.11913750320672989,0.006148961838334799,0.0455021858215332,0.21969132125377655,0.10626495629549026
29625,-0.03019830398261547,0.11910878121852875,0.0059668803587555885,0.004721957258880138,0.22229206562042236,0.10788833349943161
29665,-0.032488636672496796,0.11665264517068863,0.006825434975326061,0.16071107983589172,0.2635205090045929,0.07698221504688263
29705,-0.033261097967624664,0.1190437451004982,0.007248496636748314,0.09793417155742645,0.27169352769851685,0.044338155537843704
29745,-0.03274090588092804,0.11661672592163086,0.007107758428901434,0.13696147501468658,0.20551200211048126,0.027232160791754723
29785,-0.032815150916576385,0.11872009932994843,0.007795584853738546,0.11171290278434753,0.2842417359352112,0.06206986680626869
29825,-0.031136266887187958,0.11928105354309082,0.00739566283300519,0.0467442162334919,0.23362380266189575,0.09118501096963882
29865,-0.030054442584514618,0.12090900540351868,0.007491847034543753,0.08664926141500473,0.2562023103237152,0.11350498348474503
29905,-0.03129977360367775,0.12015676498413086,0.006731111090630293,0.142593115568161,0.25701025128364563,0.07739195227622986
29945,-0.025387436151504517,0.12755802273750305,0.007698847912251949,-0.10871727764606476,0.0243894774466753,0.09850073605775833
29985,-0.026575980708003044,0.12546482682228088,0.007001666352152824,0.0062735374085605145,0.08536668121814728,0.09537053853273392
30025,-0.028257783502340317,0.12404725700616837,0.006448930595070124,0.022114083170890808,0.1283392310142517,0.07810348272323608
30065,-0.0252330731600523,0.12615086138248444,0.0071191322058439255,-0.047593794763088226,0.0237113106995821,0.06962330639362335
30105,-0.025062086060643196,0.12347286194562912,0.007269731722772121,0.06064922735095024,0.022314302623271942,0.0843290239572525
30145,-0.024453923106193542,0.12439166009426117,0.007528524845838547,0.06061210855841637,0.057852745056152344,0.07783851772546768
30185,-0.025250760838389397,0.12492452561855316,0.006782098673284054,0.056234631687402725,0.1464236080646515,0.053410280495882034
30225,-0.026647502556443214,0.12374746054410934,0.006140574812889099,0.11630269140005112,0.19215328991413116,0.06386861205101013
30265,-0.0255877822637558,0.12453718483448029,0.00568903936073184,0.09074188023805618,0.18073052167892456,0.059026818722486496
30305,-0.024347908794879913,0.12389174848794937,0.00537958275526762,0.14510206878185272,0.23665350675582886,0.07538089156150818
30345,-0.022813675925135612,0.12476819008588791,0.006081805564463139,0.11987069249153137,0.252307653427124,0.07153122872114182
30385,-0.022129978984594345,0.12551966309547424,0.006650157272815704,0.0976947695016861,0.24460045993328094,0.07330521941184998
30425,-0.025102460756897926,0.12163946777582169,0.006226645316928625,0.25659582018852234,0.3705112934112549,0.09726770967245102
30465,-0.029163455590605736,0.12025392055511475,0.006759278010576963,0.29766717553138733,0.5123451352119446,0.12106814980506897
30505,-0.03519890829920769,0.11872970312833786,0.006520478054881096,0.365416020154953,0.6835371851921082,0.15689505636692047
30545,-0.03704623878002167,0.1173376515507698,0.00658684317022562,0.3473001718521118,0.6336490511894226,0.13135147094726562
30585,-0.034478940069675446,0.12166900187730789,0.006024323403835297,0.18790681660175323,0.4739122688770294,0.15271630883216858
30625,-0.037188947200775146,0.11748456954956055,0.005688587203621864,0.30216437578201294,0.5150793194770813,0.10123249143362045
30665,-0.03730982542037964,0.11976354569196701,0.005764500703662634,0.23691943287849426,0.4970548152923584,0.12430498003959656
30705,-0.035885829478502274,0.11933618783950806,0.006984363310039043,0.24806122481822968,0.42577064037323,0.10573326051235199
30745,-0.03608643636107445,0.11875849217176437,0.007396436762064695,0.20487149059772491,0.4069225788116455,0.13981537520885468
30785,-0.036533795297145844,0.1191168874502182,0.006710466463118792,0.2217092663049698,0.37847819924354553,0.10365133732557297
30825,-0.03550739958882332,0.12179155647754669,0.0070523484610021114,0.1254139542579651,0.31899163126945496,0.12709838151931763
30865,-0.03555251657962799,0.12118888646364212,0.005991707555949688,0.19406411051750183,0.2967163622379303,0.07636755704879761
30905,-0.03725828230381012,0.12160445749759674,0.0060685789212584496,0.22238236665725708,0.3270214796066284,0.04309246316552162
30945,-0.03481209650635719,0.12370540201663971,0.005817919969558716,0.14218716323375702,0.20677658915519714,0.041868261992931366
30985,-0.03677509352564812,0.12021062523126602,0.00568586029112339,0.17564381659030914,0.24429042637348175,0.09647788852453232
31025,-0.037347689270973206,0.12013965100049973,0.007129637524485588,0.20244555175304413,0.21494673192501068,0.05269171670079231
31065,-0.038618043065071106,0.1221318170428276,0.006567217409610748,0.1386571079492569,0.23204125463962555,0.038278765976428986
31105,-0.035633306950330734,0.12340719997882843,0.006478683557361364,0.12569715082645416,0.24863624572753906,0.08157812803983688
31145,-0.0349792018532753,0.12403896450996399,0.007231113035231829,0.15036921203136444,0.21048083901405334,0.040304217487573624
31185,-0.03702453523874283,0.12335079908370972,0.007381943985819817,0.12763549387454987,0.24296648800373077,0.04618623107671738
31225,-0.03427213057875633,0.1262144297361374,0.007073122076690197,0.1085374504327774,0.25816622376441956,0.02937322109937668
31265,-0.03167133033275604,0.12337150424718857,0.007284014951437712,0.17102643847465515,0.1612521857023239,0.0764370709657669
31305,-0.030945193022489548,0.12444351613521576,0.006858175620436668,0.12966598570346832,0.1788868010044098,0.0787883773446083
31345,-0.03310706093907356,0.1259683072566986,0.007480656262487173,0.11088252812623978,0.2574485242366791,0.04212164878845215
31385,-0.03111337125301361,0.1261393278837204,0.0053367167711257935,0.17994874715805054,0.22377616167068481,0.04367982968688011
31425,-0.03196822851896286,0.12654896080493927,0.005512405652552843,0.17855985462665558,0.2092989832162857,0.009109227918088436
31465,-0.0292870681732893,0.13138322532176971,0.00530293257907033,0.007094711065292358,0.21698006987571716,0.008484234102070332
31505,-0.029659146443009377,0.13094264268875122,0.004269103519618511,0.04965461418032646,0.2620548605918884,0.017046168446540833
31545,-0.02895158715546131,0.132730171084404,0.0049159643240273,0.0466759130358696,0.23118217289447784,-0.014055474661290646
31585,-0.029308002442121506,0.13297559320926666,0.005446437280625105,0.08242473006248474,0.24438877403736115,-0.031142275780439377
31625,-0.028300559148192406,0.1309300661087036,0.006204825360327959,0.15179087221622467,0.24763238430023193,-0.003242327133193612
31665,-0.02891365997493267,0.13326995074748993,0.005579778458923101,0.14954650402069092,0.23881152272224426,-0.04686148464679718
31705,-0.029224317520856857,0.1358671486377716,0.0062277005054056644,0.08351913839578629,0.213286355137825,-0.06742781400680542
31745,-0.028866317123174667,0.13543234765529633,0.006717198994010687,0.14654457569122314,0.2711138427257538,-0.07468751817941666
31785,-0.02626528963446617,0.1352846622467041,0.007108008023351431,0.1504971981048584,0.22903519868850708,-0.07583121210336685
31825,-0.025643009692430496,0.13505586981773376,0.00756823131814599,0.163087859749794,0.22648650407791138,-0.07526781409978867
31865,-0.026653854176402092,0.1354794055223465,0.006325255613774061,0.19106602668762207,0.2498636245727539,-0.08713705837726593
31905,-0.0183869656175375,0.1357560157775879,0.00554835656657815,0.15979842841625214,-0.08419166505336761,-0.05363410711288452
31945,-0.018558168783783913,0.1355869472026825,0.005831229034811258,0.16782741248607635,-0.022489093244075775,-0.06464162468910217
31985,-0.016862116754055023,0.13736100494861603,0.0056194704957306385,0.10826775431632996,0.019525345414876938,-0.09424193948507309
32025,-0.01689537800848484,0.13604921102523804,0.005505762994289398,0.17337650060653687,0.06391280144453049,-0.06960843503475189
32065,-0.017797688022255898,0.13693241775035858,0.005430388730019331,0.1594676971435547,0.11994186043739319,-0.08127915114164352
32105,-0.020071234554052353,0.13724350929260254,0.005392313003540039,0.14707371592521667,0.20605681836605072,-0.09819459915161133
32145,-0.021062718704342842,0.1362238973379135,0.006198309361934662,0.14817699790000916,0.21818436682224274,-0.0963696837425232
32185,-0.01993945799767971,0.13766230642795563,0.006419817451387644,0.140133336186409,0.23611865937709808,-0.07252106070518494
32225,-0.020353496074676514,0.13444751501083374,0.006123147904872894,0.21593548357486725,0.2417733371257782,-0.06215811148285866
32265,-0.020340150222182274,0.13498738408088684,0.005864332430064678,0.18357054889202118,0.3035323917865753,-0.07289659231901169
32305,-0.018266407772898674,0.1379745453596115,0.006039592903107405,0.12034197896718979,0.31593042612075806,-0.06257061660289764
32345,-0.01862212084233761,0.13476678729057312,0.0065749934874475,0.1735667735338211,0.24866342544555664,-0.06869073212146759
32385,-0.01779765821993351,0.13570168614387512,0.00685812858864665,0.1811123788356781,0.25587305426597595,-0.049318842589855194
32425,-0.01909831538796425,0.13622495532035828,0.0068264794535934925,0.13088928163051605,0.2766965627670288,-0.06854281574487686
32465,-0.018577108159661293,0.13472631573677063,0.005903840530663729,0.1856279820203781,0.3120022118091583,-0.06469647586345673
32505,-0.014234277419745922,0.13675789535045624,0.005637261550873518,0.1276496946811676,0.23904070258140564,-0.05261958763003349
32545,-0.013706634752452374,0.13683126866817474,0.005387017037719488,0.17581398785114288,0.27100226283073425,-0.030839232727885246
32585,-0.01281136553734541,0.13660524785518646,0.0048132664524018764,0.1484191119670868,0.26438066363334656,-0.044702716171741486
32625,-0.015783024951815605,0.13684968650341034,0.0053581236861646175,0.13133664429187775,0.30895423889160156,-0.04691257327795029
32665,-0.015030091628432274,0.13392797112464905,0.005305300001055002,0.1811600774526596,0.30180367827415466,-0.08606695383787155
32705,-0.014497440308332443,0.13447627425193787,0.0048205191269516945,0.18139298260211945,0.30117473006248474,-0.07175450026988983
32745,-0.014132187701761723,0.13502390682697296,0.004996095784008503,0.10030215978622437,0.3036997318267822,-0.09008664637804031
32785,-0.013084562495350838,0.13291007280349731,0.004709906876087189,0.1421532928943634,0.2535019814968109,-0.10277112573385239
32825,-0.014830642379820347,0.13458152115345,0.005295611452311277,0.16030260920524597,0.37014028429985046,-0.07285463809967041
32865,-0.013153606094419956,0.1375289410352707,0.00529315834864974,0.01177954114973545,0.25837987661361694,-0.05523619428277016
32905,-0.01405026763677597,0.13694173097610474,0.00572184706106782,0.10182212293148041,0.2805970311164856,-0.04728307947516441
32945,-0.01473773643374443,0.13635942339897156,0.005961319897323847,0.0913584753870964,0.28374046087265015,-0.06893657892942429
32985,-0.015121160075068474,0.1343400776386261,0.005837392993271351,0.11847689747810364,0.29994112253189087,-0.11046167463064194
33025,-0.014419163577258587,0.13762840628623962,0.006998459808528423,0.050186313688755035,0.26165032386779785,-0.066835418343544
33065,-0.016202649101614952,0.13423894345760345,0.007452867459505796,0.11065897345542908,0.26597723364830017,-0.10009650886058807
33105,-0.013136758469045162,0.13505825400352478,0.00691664544865489,0.09667907655239105,0.1848883330821991,-0.06571656465530396
33145,-0.01179911196231842,0.13511258363723755,0.005923491436988115,0.13795217871665955,0.1587592214345932,-0.04832010343670845
33185,-0.012042379938066006,0.13619422912597656,0.005639417562633753,0.09710577875375748,0.18939270079135895,-0.055413901805877686
33225,-0.013505904003977776,0.13525322079658508,0.005473433528095484,0.15817728638648987,0.30275535583496094,-0.07871595025062561
33265,-0.012124491855502129,0.13390135765075684,0.006143171805888414,0.22905705869197845,0.2538507580757141,-0.056782107800245285
33305,-0.0147359324619174,0.1343022882938385,0.005604209378361702,0.17892150580883026,0.36903607845306396,-0.09277060627937317
33345,-0.011093107983469963,0.13629890978336334,0.005859976634383202,0.12540702521800995,0.2502172291278839,-0.0909413993358612
33385,-0.01176488772034645,0.13593465089797974,0.005651179235428572,0.12840452790260315,0.34012842178344727,-0.12962131202220917
33425,-0.015426544472575188,0.13210204243659973,0.005568395834416151,0.21670874953269958,0.38305413722991943,-0.1314949095249176
33465,-0.013783394359052181,0.1317114382982254,0.005622272379696369,0.2421407550573349,0.36596256494522095,-0.14533717930316925
33505,-0.012750358320772648,0.13158170878887177,0.00415831571444869,0.19280247390270233,0.20912377536296844,-0.13458998501300812
33545,-0.013313014060258865,0.13185471296310425,0.004940675105899572,0.20294387638568878,0.20378825068473816,-0.10968238860368729
33585,-0.01478917058557272,0.1324731707572937,0.006019008811563253,0.16130098700523376,0.2568691372871399,-0.10553155839443207
33625,-0.019057411700487137,0.13097058236598969,0.004887545481324196,0.2420932948589325,0.46503371000289917,-0.0914548709988594
33665,-0.01794104278087616,0.13155680894851685,0.005454832222312689,0.2287992686033249,0.39762288331985474,-0.0837540328502655
33705,-0.02033066190779209,0.13067971169948578,0.005024801008403301,0.20503728091716766,0.39452454447746277,-0.08250551670789719
33745,-0.02155640535056591,0.12926670908927917,0.0051686521619558334,0.22626344859600067,0.3826451301574707,-0.08089803904294968
33785,-0.020961325615644455,0.12835693359375,0.005664963275194168,0.2480286806821823,0.35786882042884827,-0.08177626132965088
33825,-0.021314548328518867,0.12673555314540863,0.0056909676641225815,0.22389638423919678,0.32558542490005493,-0.08715825527906418
33865,-0.02181667648255825,0.12477657943964005,0.006454719230532646,0.2825686037540436,0.36346614360809326,-0.08512505888938904
33905,-0.021313488483428955,0.126934215426445,0.006091526243835688,0.23036836087703705,0.34946906566619873,-0.0781899243593216
33945,-0.01799841783940792,0.12768036127090454,0.006286273710429668,0.1562274843454361,0.19206786155700684,-0.08851704746484756
33985,-0.018858905881643295,0.1280524581670761,0.006824690382927656,0.1498420089483261,0.27612432837486267,-0.07847864180803299
34025,-0.017848800867795944,0.12636873126029968,0.0072510866448283195,0.12954556941986084,0.21318380534648895,-0.09125401824712753
34065,-0.016721026971936226,0.12625044584274292,0.00656767887994647,0.1873515248298645,0.2052169293165207,-0.08567839860916138
34105,-0.017988095059990883,0.1267162263393402,0.0075304219499230385,0.12540660798549652,0.2512724995613098,-0.09302732348442078
34145,-0.01891620084643364,0.12443335354328156,0.006396042183041573,0.18593966960906982,0.23086056113243103,-0.08462406694889069
34185,-0.016704019159078598,0.1271459013223648,0.006369291339069605,0.08772420138120651,0.18748804926872253,-0.09308721125125885
34225,-0.017055409029126167,0.12667632102966309,0.0063774921000003815,0.15545795857906342,0.1774788200855255,-0.08261509984731674
34265,-0.01667371205985546,0.12648911774158478,0.0063184574246406555,0.1697390079498291,0.2147955298423767,-0.07782699912786484
34305,-0.016701413318514824,0.1262163668870926,0.006714238785207272,0.20284396409988403,0.22586166858673096,-0.0708981454372406
34345,-0.017117734998464584,0.12530770897865295,0.006646369118243456,0.2078566551208496,0.23668108880519867,-0.05805046111345291
34385,-0.01841564103960991,0.12607453763484955,0.007034048903733492,0.19272610545158386,0.24005912244319916,-0.06572312861680984
34425,-0.01703503169119358,0.12491262704133987,0.007263734936714172,0.15311072766780853,0.19281582534313202,-0.07903306186199188
34465,-0.019856221973896027,0.12440934032201767,0.006111541297286749,0.1649935096502304,0.28309962153434753,-0.08790629357099533
34505,-0.01765340007841587,0.12327635288238525,0.005302737932652235,0.20512861013412476,0.2848980724811554,-0.08053286373615265
34545,-0.016908109188079834,0.12500137090682983,0.004765376448631287,0.10300668329000473,0.2357327938079834,-0.10513802617788315
34585,-0.016650546342134476,0.13037057220935822,0.004327354487031698,-0.08182603865861893,0.25845542550086975,-0.14510022103786469
34625,-0.01860976777970791,0.13133716583251953,0.00425961147993803,0.006954710930585861,0.2972167730331421,-0.12348846346139908
34665,-0.018432246521115303,0.13418862223625183,0.004900452680885792,-0.051065992563962936,0.2667371928691864,-0.12168688327074051
34705,-0.017607735469937325,0.1327596753835678,0.005060932599008083,0.10054980218410492,0.27046170830726624,-0.09858260303735733
34745,-0.01433709729462862,0.13499026000499725,0.005563891492784023,0.03519823029637337,0.19714021682739258,-0.08587490767240524
34785,-0.01589466631412506,0.1336369663476944,0.0064086890779435635,0.12977491319179535,0.2209319770336151,-0.07072913646697998
34825,-0.017459068447351456,0.1361505538225174,0.006567597854882479,0.06696848571300507,0.24512632191181183,-0.0667518675327301
34865,-0.018466953188180923,0.13358904421329498,0.005379928275942802,0.1643659919500351,0.25753822922706604,-0.042419739067554474
34905,-0.015564174391329288,0.13956336677074432,0.006210224702954292,-0.03289620205760002,0.16352081298828125,-0.027689620852470398
34945,-0.016169430688023567,0.13563542068004608,0.006423741579055786,0.16921766102313995,0.2495303750038147,-0.029919715598225594
34985,-0.017554691061377525,0.13544344902038574,0.006899332627654076,0.17379257082939148,0.29296961426734924,-0.027361730113625526
35025,-0.01511846762150526,0.13723672926425934,0.006775994319468737,0.13901986181735992,0.26560044288635254,-0.03493223339319229
35065,-0.016240667551755905,0.13783755898475647,0.006342255510389805,0.12461625039577484,0.2315814197063446,0.002880754182115197
35105,-0.018512016162276268,0.1363639533519745,0.005547953303903341,0.1411987692117691,0.3112011253833771,-0.011913573369383812
35145,-0.016480010002851486,0.13607224822044373,0.005661824718117714,0.1799101084470749,0.26855897903442383,-0.013846718706190586
35185,-0.01773458905518055,0.13604077696800232,0.006429981905966997,0.11487901210784912,0.26170414686203003,-0.00935180950909853
35225,-0.01886114850640297,0.1359962373971939,0.0060142031870782375,0.16429837048053741,0.32943785190582275,-0.002393055707216263
35265,-0.01585831120610237,0.1361803412437439,0.006578133907169104,0.1551346331834793,0.2852352559566498,-0.022159531712532043
