Timestamp,stateEstimate.x,stateEstimate.y,stateEstimate.z,stateEstimate.roll,stateEstimate.pitch,stateEstimate.yaw
48735,-0.059020962566137314,0.2620026171207428,0.16037099063396454,-0.2199898213148117,0.6996942162513733,-0.4061400592327118
48775,-0.06985650211572647,0.26739048957824707,0.1653100550174713,-0.24436531960964203,0.759246289730072,-0.43945640325546265
48815,-0.07195170223712921,0.2660243809223175,0.1639404147863388,-0.23385131359100342,0.7738417387008667,-0.39442458748817444
48855,-0.07063879072666168,0.26834341883659363,0.15938861668109894,-0.2480597347021103,0.760063648223877,-0.44474008679389954
48895,-0.07671386003494263,0.27129828929901123,0.15394866466522217,-0.2626889944076538,0.7902416586875916,-0.46388480067253113
48935,-0.0803348496556282,0.26354607939720154,0.16769711673259735,-0.20591603219509125,0.7973305583000183,-0.27250078320503235
48975,-0.07351181656122208,0.2597576975822449,0.16417083144187927,-0.18859431147575378,0.7544280290603638,-0.25033071637153625
49015,-0.07341522723436356,0.25946536660194397,0.15890586376190186,-0.18897153437137604,0.7477811574935913,-0.2583768665790558
49055,-0.06761641055345535,0.24938900768756866,0.16224652528762817,-0.13008524477481842,0.7098962068557739,-0.10118427872657776
49095,-0.0627220943570137,0.251379132270813,0.1447855532169342,-0.15409976243972778,0.6852743625640869,-0.18659360706806183
49135,-0.06261741369962692,0.24977226555347443,0.14240817725658417,-0.14886240661144257,0.68318772315979,-0.17590393126010895
49175,-0.05119156837463379,0.2472909539937973,0.13279509544372559,-0.1398327499628067,0.617283046245575,-0.19474421441555023
49215,-0.055570170283317566,0.2500411868095398,0.13276790082454681,-0.16064105927944183,0.6442050337791443,-0.2301398515701294
49255,-0.05650804564356804,0.25251755118370056,0.13386164605617523,-0.1738382875919342,0.6495081186294556,-0.2606039345264435
49295,-0.05373091623187065,0.2570969760417938,0.13239318132400513,-0.2031584233045578,0.6318731904029846,-0.34258604049682617
49335,-0.05638270080089569,0.25492310523986816,0.12475185096263885,-0.18990519642829895,0.649147093296051,-0.29832974076271057
49375,-0.060612332075834274,0.25614917278289795,0.12452582269906998,-0.19606715440750122,0.668106734752655,-0.300437867641449
49415,-0.05152323096990585,0.2560090720653534,0.12130925059318542,-0.1959725320339203,0.6147247552871704,-0.3246164321899414
49455,-0.05112120509147644,0.2573038935661316,0.12265822291374207,-0.20097005367279053,0.61661297082901,-0.337077260017395
49495,-0.04905637353658676,0.2509370744228363,0.12029468268156052,-0.16452832520008087,0.6112422943115234,-0.2777100205421448
49535,-0.05575597658753395,0.2530643939971924,0.11662009358406067,-0.16938085854053497,0.6460020542144775,-0.26998427510261536
49575,-0.05680593103170395,0.25610530376434326,0.1112518385052681,-0.18380388617515564,0.6527215838432312,-0.28606587648391724
49615,-0.061811599880456924,0.25113600492477417,0.1188117042183876,-0.15060904622077942,0.6722832918167114,-0.23896907269954681
49655,-0.07683560997247696,0.2536764144897461,0.11240894347429276,-0.14898385107517242,0.7551124095916748,-0.21820397675037384
49695,-0.07212414592504501,0.2575266361236572,0.11090540885925293,-0.16043837368488312,0.7017536163330078,-0.23478597402572632
49735,-0.06856073439121246,0.2595353424549103,0.10355602204799652,-0.18170450627803802,0.6738014817237854,-0.25576916337013245
49775,-0.06994444131851196,0.2667723298072815,0.10155514627695084,-0.23811417818069458,0.6629252433776855,-0.2997252941131592
49815,-0.06644383072853088,0.26352089643478394,0.10813996195793152,-0.21127668023109436,0.6305882930755615,-0.28786760568618774
49855,-0.06503602862358093,0.2660587430000305,0.10115131735801697,-0.21924269199371338,0.6140481233596802,-0.29435446858406067
49895,-0.06359325349330902,0.25684046745300293,0.10415248572826385,-0.1681351661682129,0.6020011305809021,-0.2735029458999634
49935,-0.0636402890086174,0.2622508406639099,0.10891994088888168,-0.1976451575756073,0.5896416902542114,-0.2868150472640991
49975,-0.06067591905593872,0.2618744969367981,0.11083006113767624,-0.18973122537136078,0.5680853724479675,-0.2887839078903198
50015,-0.05925483629107475,0.2576960325241089,0.11461469531059265,-0.15714892745018005,0.5525990128517151,-0.29236072301864624
50055,-0.06395565718412399,0.25804591178894043,0.11129948496818542,-0.15747345983982086,0.5751951336860657,-0.2856479585170746
50095,-0.07065968960523605,0.25050267577171326,0.1096767708659172,-0.10847713053226471,0.6143025755882263,-0.2936260998249054
50135,-0.06624172627925873,0.2446913719177246,0.11609641462564468,-0.08256930112838745,0.582907497882843,-0.29759645462036133
50175,-0.06848643720149994,0.25058338046073914,0.1273166686296463,-0.12068209797143936,0.5763059854507446,-0.2801879644393921
50215,-0.07612640410661697,0.25052911043167114,0.12997640669345856,-0.10701096057891846,0.619560718536377,-0.29223695397377014
50255,-0.0846221074461937,0.2520264983177185,0.13498066365718842,-0.11191237717866898,0.6562307476997375,-0.29679515957832336
50295,-0.09428872168064117,0.2530224621295929,0.13433273136615753,-0.1137842908501625,0.6910461187362671,-0.3025183379650116
50335,-0.09865477681159973,0.2551913857460022,0.1372000277042389,-0.12285463511943817,0.7081663012504578,-0.30015552043914795
50375,-0.10842033475637436,0.2574080228805542,0.138810396194458,-0.13719427585601807,0.748805046081543,-0.30492326617240906
50415,-0.10242357105016708,0.25306013226509094,0.14556322991847992,-0.12015964090824127,0.6887175440788269,-0.29443949460983276
50455,-0.10009550303220749,0.25188103318214417,0.14968010783195496,-0.11899983137845993,0.6605998277664185,-0.28687381744384766
50495,-0.09803015738725662,0.25159814953804016,0.1458292305469513,-0.1250833421945572,0.6406043171882629,-0.27728575468063354
50535,-0.10199028253555298,0.25274044275283813,0.14788967370986938,-0.13590502738952637,0.647419810295105,-0.2757361829280853
50575,-0.09819052368402481,0.25630709528923035,0.15078791975975037,-0.16228121519088745,0.6149938106536865,-0.25335410237312317
50615,-0.10067834705114365,0.2574380338191986,0.15798209607601166,-0.1694919764995575,0.6187478303909302,-0.25107836723327637
50655,-0.10662222653627396,0.25313934683799744,0.16392220556735992,-0.13874079287052155,0.635615348815918,-0.2720150947570801
50695,-0.10840898752212524,0.24919916689395905,0.16755230724811554,-0.12366583943367004,0.6332492828369141,-0.27592116594314575
50735,-0.10415276139974594,0.2470027357339859,0.16868919134140015,-0.11686062067747116,0.5934611558914185,-0.26586151123046875
50775,-0.1036803126335144,0.24765779078006744,0.1761777400970459,-0.12154443562030792,0.5673980712890625,-0.2541217803955078
50815,-0.10462474822998047,0.2509276270866394,0.18196816742420197,-0.13912905752658844,0.5609161257743835,-0.24035252630710602
50855,-0.10099673271179199,0.24142344295978546,0.1821247637271881,-0.09245436638593674,0.5370431542396545,-0.2603354752063751
50895,-0.10743977129459381,0.2430131584405899,0.18955188989639282,-0.10799910128116608,0.5662350058555603,-0.26112955808639526
50935,-0.10368619859218597,0.23973123729228973,0.19778382778167725,-0.0946175754070282,0.5288175344467163,-0.2549770176410675
50975,-0.10374391078948975,0.23843877017498016,0.19862100481987,-0.09339927136898041,0.5159417390823364,-0.24810905754566193
51015,-0.10462424904108047,0.24066956341266632,0.20220154523849487,-0.10468283295631409,0.5180031061172485,-0.2355804443359375
51055,-0.09624893963336945,0.2404247224330902,0.20133619010448456,-0.12081479281187057,0.46051666140556335,-0.1966354250907898
51095,-0.09592190384864807,0.24142880737781525,0.19793204963207245,-0.12452612072229385,0.45262444019317627,-0.18903924524784088
51135,-0.1054212898015976,0.23835299909114838,0.200421541929245,-0.09870775789022446,0.49707916378974915,-0.23972326517105103
51175,-0.11138717085123062,0.23877865076065063,0.20556718111038208,-0.10825064778327942,0.524256706237793,-0.23886072635650635
51215,-0.11047891527414322,0.23314721882343292,0.21010354161262512,-0.06993323564529419,0.5105326771736145,-0.2725777328014374
51255,-0.11207883805036545,0.23703326284885406,0.2096472978591919,-0.08888959139585495,0.5103778839111328,-0.2515842914581299
51295,-0.11365429311990738,0.23830528557300568,0.20309139788150787,-0.10375458002090454,0.5174129605293274,-0.24004797637462616
51335,-0.1242552325129509,0.24042797088623047,0.19929026067256927,-0.11488037556409836,0.5717992186546326,-0.24935148656368256
51375,-0.12429185956716537,0.2410205602645874,0.1999182552099228,-0.1256861388683319,0.5615757703781128,-0.23524317145347595
51415,-0.11441066861152649,0.23460787534713745,0.19647414982318878,-0.09742718189954758,0.4975340962409973,-0.23635487258434296
51455,-0.11600183695554733,0.23507998883724213,0.20046886801719666,-0.10527721792459488,0.4906853437423706,-0.22821520268917084
51495,-0.10643798112869263,0.2320931851863861,0.20253659784793854,-0.09439660608768463,0.42959854006767273,-0.223429337143898
51535,-0.10271479189395905,0.23345662653446198,0.20631557703018188,-0.10583347827196121,0.4018162190914154,-0.204746276140213
51575,-0.10901222378015518,0.23543623089790344,0.20247851312160492,-0.12716983258724213,0.4383120536804199,-0.1916855126619339
51615,-0.11125463247299194,0.24110768735408783,0.19732026755809784,-0.16164743900299072,0.4493640959262848,-0.1618560552597046
51655,-0.112860769033432,0.23767077922821045,0.19794729351997375,-0.1420719027519226,0.4542185366153717,-0.17730207741260529
51695,-0.11292773485183716,0.24137727916240692,0.20035135746002197,-0.16400980949401855,0.4516267478466034,-0.1570034623146057
51735,-0.11331240087747574,0.24326802790164948,0.196882426738739,-0.17189402878284454,0.4508538842201233,-0.15004009008407593
51775,-0.1153528168797493,0.24388790130615234,0.20168253779411316,-0.17547014355659485,0.45212846994400024,-0.14738334715366364
51815,-0.1124827116727829,0.2486763447523117,0.1998715102672577,-0.2099899798631668,0.43269336223602295,-0.11859781295061111
51855,-0.1175684854388237,0.24871985614299774,0.19337064027786255,-0.21627368032932281,0.4632277190685272,-0.10462291538715363
51895,-0.11922286450862885,0.24606066942214966,0.19662421941757202,-0.19723503291606903,0.4745440185070038,-0.11353665590286255
51935,-0.11422868072986603,0.24536247551441193,0.1975933313369751,-0.19460460543632507,0.43860137462615967,-0.1222776547074318
51975,-0.11392752081155777,0.25102415680885315,0.20526598393917084,-0.22826650738716125,0.42866039276123047,-0.10195739567279816
52015,-0.1048746109008789,0.2463758885860443,0.20972463488578796,-0.20041435956954956,0.37944015860557556,-0.13881807029247284
52055,-0.10265567898750305,0.24856063723564148,0.20411989092826843,-0.21466413140296936,0.3712975084781647,-0.12954969704151154
52095,-0.10104339569807053,0.2452896684408188,0.20500746369361877,-0.19684281945228577,0.3618767559528351,-0.147864431142807
52135,-0.09768299013376236,0.2456171065568924,0.20115084946155548,-0.20135457813739777,0.3427620530128479,-0.14857004582881927
52175,-0.09571271389722824,0.24535636603832245,0.19961613416671753,-0.19844576716423035,0.3481866717338562,-0.14585644006729126
52215,-0.09758079797029495,0.24500933289527893,0.19691309332847595,-0.19149911403656006,0.36457324028015137,-0.1420297622680664
52255,-0.09822985529899597,0.24525853991508484,0.19403167068958282,-0.19119563698768616,0.3774403929710388,-0.13501062989234924
52295,-0.10453925281763077,0.2451448291540146,0.19856716692447662,-0.18079563975334167,0.4170556664466858,-0.12435390055179596
52335,-0.10974504798650742,0.24626967310905457,0.19064517319202423,-0.18251244723796844,0.4618983864784241,-0.10124488174915314
52375,-0.11090973764657974,0.2453065663576126,0.19124768674373627,-0.17503567039966583,0.47050759196281433,-0.10225814580917358
52415,-0.11141044646501541,0.2476903796195984,0.1934952735900879,-0.18278241157531738,0.47845983505249023,-0.09462219476699829
52455,-0.11718638986349106,0.24639175832271576,0.19419540464878082,-0.17423073947429657,0.5136089324951172,-0.08183787763118744
52495,-0.11377125233411789,0.246258944272995,0.19257201254367828,-0.17187421023845673,0.4831056594848633,-0.09493407607078552
52535,-0.10765621811151505,0.24758175015449524,0.19509485363960266,-0.17878413200378418,0.4453122615814209,-0.10624539107084274
52575,-0.10153961181640625,0.25012803077697754,0.19221888482570648,-0.19532926380634308,0.41091033816337585,-0.11399534344673157
52615,-0.10505949705839157,0.2510179579257965,0.1928962767124176,-0.20167705416679382,0.43420153856277466,-0.10033132135868073
52655,-0.10500109195709229,0.2508672773838043,0.187298983335495,-0.19661840796470642,0.4305005669593811,-0.10296666622161865
52695,-0.11124137043952942,0.2538124620914459,0.18873995542526245,-0.21392248570919037,0.45479917526245117,-0.08818528056144714
52735,-0.11031640321016312,0.2504592835903168,0.19293752312660217,-0.19449178874492645,0.43678781390190125,-0.0982057973742485
52775,-0.11411228775978088,0.2474839687347412,0.20080320537090302,-0.17690151929855347,0.4558398723602295,-0.09139373898506165
52815,-0.10346077382564545,0.2453668862581253,0.19958756864070892,-0.17162711918354034,0.3878701329231262,-0.11436373740434647
52855,-0.09650298953056335,0.24408085644245148,0.19800306856632233,-0.16086821258068085,0.3470485806465149,-0.12601017951965332
52895,-0.09279152750968933,0.24454475939273834,0.19782884418964386,-0.16764572262763977,0.32361140847206116,-0.1317196935415268
52935,-0.09873713552951813,0.24549803137779236,0.20021532475948334,-0.17572268843650818,0.36917179822921753,-0.12050583213567734
52975,-0.09352703392505646,0.24515216052532196,0.19769445061683655,-0.17450833320617676,0.3422461450099945,-0.12767015397548676
53015,-0.09447211027145386,0.24707943201065063,0.20323649048805237,-0.1911875158548355,0.35132285952568054,-0.1254982352256775
53055,-0.08947903662919998,0.2492014765739441,0.20426535606384277,-0.20623397827148438,0.327836811542511,-0.12841038405895233
53095,-0.0825115367770195,0.24871885776519775,0.21279610693454742,-0.20821887254714966,0.2971528470516205,-0.13177914917469025
53135,-0.09099878370761871,0.24658046662807465,0.20924878120422363,-0.19557693600654602,0.36568549275398254,-0.12760929763317108
53175,-0.09680881351232529,0.24992328882217407,0.21026654541492462,-0.21089251339435577,0.4085733890533447,-0.12388357520103455
53215,-0.09924740344285965,0.24693787097930908,0.20562094449996948,-0.2017095685005188,0.43071892857551575,-0.12221548706293106
53255,-0.0966612845659256,0.2502743601799011,0.20817188918590546,-0.22278238832950592,0.4149128794670105,-0.12507134675979614
53295,-0.09169941395521164,0.24797998368740082,0.20932547748088837,-0.21010853350162506,0.4004358947277069,-0.12370692193508148
53335,-0.10097843408584595,0.2512412369251251,0.20993603765964508,-0.22505666315555573,0.4539615213871002,-0.12330446392297745
53375,-0.10253512114286423,0.2499135583639145,0.21794478595256805,-0.21842369437217712,0.4606660306453705,-0.12024320662021637
53415,-0.09829574078321457,0.25169822573661804,0.2152208536863327,-0.23084039986133575,0.444058895111084,-0.1264532059431076
53455,-0.09269879013299942,0.2529129087924957,0.216073676943779,-0.23810310661792755,0.40924665331840515,-0.1309470534324646
53495,-0.094088613986969,0.2550930380821228,0.22035685181617737,-0.24783667922019958,0.42059770226478577,-0.13425548374652863
53535,-0.09957403689622879,0.25601980090141296,0.2182806134223938,-0.2563295364379883,0.4523949921131134,-0.13764074444770813
53575,-0.11138126254081726,0.25466370582580566,0.22143878042697906,-0.23827113211154938,0.5127363204956055,-0.12846055626869202
53615,-0.1112576350569725,0.24862980842590332,0.22057797014713287,-0.2050965428352356,0.5102894306182861,-0.11453050374984741
53655,-0.10690802335739136,0.24484418332576752,0.22018688917160034,-0.18910197913646698,0.48703664541244507,-0.10575548559427261
53695,-0.09746191650629044,0.24250318109989166,0.21893511712551117,-0.17760322988033295,0.43315497040748596,-0.10023467987775803
53735,-0.0836382582783699,0.24094238877296448,0.2125028669834137,-0.18061193823814392,0.36775487661361694,-0.0996050164103508
53775,-0.09540632367134094,0.2449817657470703,0.2101745456457138,-0.1928284764289856,0.4374520480632782,-0.11700738966464996
53815,-0.0918726921081543,0.24407920241355896,0.21210356056690216,-0.19169722497463226,0.4178023636341095,-0.11382640153169632
53855,-0.0912887379527092,0.24157045781612396,0.21261820197105408,-0.17252720892429352,0.41804924607276917,-0.10173691064119339
53895,-0.09872965514659882,0.2428569495677948,0.21366019546985626,-0.1656186431646347,0.4687727689743042,-0.11199908703565598
53935,-0.10477306693792343,0.24587711691856384,0.21016816794872284,-0.19484208524227142,0.5028571486473083,-0.13846638798713684
53975,-0.10281272232532501,0.24710765480995178,0.21193663775920868,-0.1960521638393402,0.4859583377838135,-0.13067302107810974
54015,-0.10011520236730576,0.24830275774002075,0.2152453362941742,-0.2052278369665146,0.46808287501335144,-0.13084693253040314
54055,-0.11008770018815994,0.2504616975784302,0.21273717284202576,-0.2129889726638794,0.5272995233535767,-0.1512734293937683
54095,-0.09848011285066605,0.24657000601291656,0.21281567215919495,-0.1899891346693039,0.4598449766635895,-0.12074192613363266
54135,-0.101413294672966,0.25018879771232605,0.21463270485401154,-0.20674817264080048,0.47045570611953735,-0.14060933887958527
54175,-0.09628118574619293,0.24658168852329254,0.21735328435897827,-0.1905284970998764,0.4459419846534729,-0.1223144605755806
54215,-0.09239768236875534,0.23948684334754944,0.21274356544017792,-0.15722987055778503,0.4296596050262451,-0.09675101935863495
54255,-0.08920802921056747,0.23185735940933228,0.20264022052288055,-0.12168526649475098,0.42296409606933594,-0.07364713400602341
54295,-0.09259960800409317,0.23399753868579865,0.2002294957637787,-0.14188317954540253,0.44037187099456787,-0.09372081607580185
54335,-0.09402038156986237,0.23477958142757416,0.20402680337429047,-0.13593198359012604,0.4461325407028198,-0.09323825687170029
54375,-0.09172149747610092,0.23593337833881378,0.20878617465496063,-0.14455316960811615,0.42914044857025146,-0.09592503309249878
54415,-0.10509258508682251,0.24401283264160156,0.2034372091293335,-0.18624374270439148,0.49610739946365356,-0.148682102560997
54455,-0.09974133968353271,0.23924823105335236,0.2018997222185135,-0.16451992094516754,0.45648735761642456,-0.12643063068389893
54495,-0.09186048805713654,0.24132242798805237,0.20220384001731873,-0.17712119221687317,0.4094352722167969,-0.118991918861866
54535,-0.10387490689754486,0.24166160821914673,0.19591408967971802,-0.175756573677063,0.4852684736251831,-0.14300285279750824
54575,-0.10241109132766724,0.24315916001796722,0.20084580779075623,-0.18302957713603973,0.4660745859146118,-0.14225445687770844
54615,-0.09881328046321869,0.23761284351348877,0.20883864164352417,-0.14115211367607117,0.4374862313270569,-0.11015632003545761
54655,-0.10851980000734329,0.24025380611419678,0.21162280440330505,-0.14975610375404358,0.49029865860939026,-0.12795419991016388
54695,-0.10973168909549713,0.23979564011096954,0.20664452016353607,-0.1471637636423111,0.4939539134502411,-0.12782369554042816
54735,-0.10827687382698059,0.23738671839237213,0.20582377910614014,-0.1419382393360138,0.4886191189289093,-0.12214575707912445
54775,-0.09751597046852112,0.2380538135766983,0.21010150015354156,-0.15166102349758148,0.42117685079574585,-0.11530929058790207
54815,-0.0996999442577362,0.23688684403896332,0.19875378906726837,-0.14781339466571808,0.4373108744621277,-0.11700252443552017
54855,-0.09933117032051086,0.23861387372016907,0.19687074422836304,-0.1604069620370865,0.432715505361557,-0.1242855042219162
54895,-0.09790635854005814,0.24051782488822937,0.19679607450962067,-0.17433883249759674,0.4253647029399872,-0.1307189017534256
54935,-0.10252775996923447,0.2401292324066162,0.20013408362865448,-0.1688748002052307,0.4575168788433075,-0.13586054742336273
54975,-0.09263961017131805,0.23623737692832947,0.20293240249156952,-0.15016549825668335,0.39600101113319397,-0.125003382563591
55015,-0.08758574724197388,0.235130175948143,0.1999606341123581,-0.1464531421661377,0.37270277738571167,-0.11929459869861603
55055,-0.08469212800264359,0.2384537011384964,0.20416179299354553,-0.15589937567710876,0.3542608916759491,-0.12163863331079483
55095,-0.08890318870544434,0.23618082702159882,0.1979072242975235,-0.14046162366867065,0.3934727609157562,-0.12060904502868652
55135,-0.09726287424564362,0.24223273992538452,0.1975260227918625,-0.17805133759975433,0.4355785846710205,-0.13290028274059296
55175,-0.10435296595096588,0.2348966896533966,0.19470861554145813,-0.13406896591186523,0.4833824336528778,-0.12362004071474075
55215,-0.09836072474718094,0.23045487701892853,0.19233481585979462,-0.12171633541584015,0.4498090147972107,-0.12030426412820816
55255,-0.09596606343984604,0.2280644327402115,0.1993311494588852,-0.10259107500314713,0.4364917576313019,-0.11829065531492233
55295,-0.09502013027667999,0.2278662919998169,0.19839279353618622,-0.10917621850967407,0.43237772583961487,-0.11955658346414566
55335,-0.09825343638658524,0.2336217612028122,0.19929622113704681,-0.14719940721988678,0.4521058201789856,-0.12672904133796692
55375,-0.09909164160490036,0.23840995132923126,0.20077264308929443,-0.17781168222427368,0.46070370078086853,-0.13393598794937134
55415,-0.10384933650493622,0.23933306336402893,0.19995376467704773,-0.18026095628738403,0.49099019169807434,-0.1342797577381134
55455,-0.10449907928705215,0.2404111921787262,0.2069963663816452,-0.18717820942401886,0.49335798621177673,-0.13563421368598938
55495,-0.10562702268362045,0.24710281193256378,0.21815571188926697,-0.22579163312911987,0.488681435585022,-0.14465489983558655
55535,-0.11126921325922012,0.24610571563243866,0.21914590895175934,-0.2123212367296219,0.5238204598426819,-0.14257588982582092
55575,-0.10731002688407898,0.2468254715204239,0.2147204577922821,-0.20806656777858734,0.5039629340171814,-0.14122997224330902
55615,-0.10926444828510284,0.2473183274269104,0.21172013878822327,-0.21333332359790802,0.5163713693618774,-0.1394578069448471
55655,-0.11610880494117737,0.24841313064098358,0.20663869380950928,-0.21200869977474213,0.5552229285240173,-0.12808804214000702
55695,-0.11247803270816803,0.2467067837715149,0.1961476355791092,-0.2129417359828949,0.532505452632904,-0.13291442394256592
55735,-0.10981599986553192,0.24873898923397064,0.1938609629869461,-0.23900997638702393,0.5035122036933899,-0.14823101460933685
55775,-0.1128874123096466,0.2525014281272888,0.18890593945980072,-0.25482484698295593,0.5117149353027344,-0.14754855632781982
55815,-0.11287596076726913,0.2526935935020447,0.18716368079185486,-0.26001468300819397,0.4999162554740906,-0.14746275544166565
55855,-0.11928177624940872,0.25802573561668396,0.19084100425243378,-0.27813026309013367,0.5322670340538025,-0.13787813484668732
55895,-0.11266053467988968,0.25985220074653625,0.1907784342765808,-0.2901323437690735,0.4841187000274658,-0.16383367776870728
55935,-0.10387847572565079,0.25764307379722595,0.19587530195713043,-0.27211713790893555,0.4305709898471832,-0.1844838708639145
55975,-0.10370767116546631,0.257479190826416,0.19621475040912628,-0.27023768424987793,0.4317227900028229,-0.18003283441066742
56015,-0.10539717972278595,0.25864043831825256,0.19833673536777496,-0.2731887102127075,0.4418717324733734,-0.17528626322746277
56055,-0.10124468803405762,0.2580205202102661,0.1907806098461151,-0.2643897831439972,0.4245455265045166,-0.18332365155220032
56095,-0.09228409826755524,0.2562898099422455,0.18944178521633148,-0.25149208307266235,0.3793140947818756,-0.205094113945961
56135,-0.08256205916404724,0.25458577275276184,0.18847805261611938,-0.24889543652534485,0.32861077785491943,-0.2313891351222992
56175,-0.09070029109716415,0.26019009947776794,0.18608947098255157,-0.26838555932044983,0.3832276165485382,-0.20187118649482727
56215,-0.10378605872392654,0.25489237904548645,0.18689487874507904,-0.23165041208267212,0.46833285689353943,-0.1649722009897232
56255,-0.10053271800279617,0.25199225544929504,0.18895094096660614,-0.2198581099510193,0.44728612899780273,-0.17581431567668915
56295,-0.10185711830854416,0.25126469135284424,0.18694235384464264,-0.205541729927063,0.4594619572162628,-0.1712161898612976
56335,-0.09545643627643585,0.24462832510471344,0.1916782408952713,-0.17545807361602783,0.4252411425113678,-0.1893809735774994
56375,-0.09027719497680664,0.2426164746284485,0.192170187830925,-0.16984055936336517,0.40055474638938904,-0.19754411280155182
56415,-0.09146338701248169,0.2422729879617691,0.19181592762470245,-0.16654938459396362,0.41476449370384216,-0.1933148354291916
56455,-0.08318756520748138,0.2451496124267578,0.187986359000206,-0.18699730932712555,0.3713831901550293,-0.19394004344940186
56495,-0.07742341607809067,0.24420198798179626,0.18646343052387238,-0.19213147461414337,0.34281232953071594,-0.1878451406955719
56535,-0.08047790080308914,0.24394012987613678,0.18441468477249146,-0.18680691719055176,0.36825916171073914,-0.18874765932559967
56575,-0.08229431509971619,0.2444271296262741,0.18700826168060303,-0.19042891263961792,0.3857731521129608,-0.18827393651008606
56615,-0.08736008405685425,0.2442566156387329,0.18743428587913513,-0.18845553696155548,0.4203833043575287,-0.19233104586601257
56655,-0.08258254826068878,0.2461755871772766,0.1913958638906479,-0.20229144394397736,0.4008169174194336,-0.18365827202796936
56695,-0.0726923793554306,0.2470615804195404,0.19126512110233307,-0.21393108367919922,0.34863772988319397,-0.17173074185848236
56735,-0.0761735811829567,0.24748706817626953,0.20215222239494324,-0.2140704095363617,0.3736247420310974,-0.17546342313289642
56775,-0.06715447455644608,0.24642974138259888,0.2076580673456192,-0.2048500031232834,0.3362048268318176,-0.17376482486724854
56815,-0.07497326284646988,0.25332510471343994,0.20459677278995514,-0.24291521310806274,0.40151533484458923,-0.15840978920459747
56855,-0.07411929965019226,0.24325019121170044,0.2058742344379425,-0.18447056412696838,0.4063713550567627,-0.1951560527086258
56895,-0.06621671468019485,0.24679556488990784,0.20595058798789978,-0.2006969004869461,0.3761405646800995,-0.17594902217388153
56935,-0.07436132431030273,0.24696354568004608,0.19668714702129364,-0.19393390417099,0.4454357326030731,-0.19231124222278595
56975,-0.07109090685844421,0.24962125718593597,0.20221953094005585,-0.20548024773597717,0.4299418032169342,-0.1790502518415451
57015,-0.07183384895324707,0.25042176246643066,0.19929620623588562,-0.2091285139322281,0.44321611523628235,-0.1801624447107315
57055,-0.07556270807981491,0.2515360414981842,0.20447836816310883,-0.20164798200130463,0.46489861607551575,-0.18956831097602844
57095,-0.07917121052742004,0.25236594676971436,0.2076938897371292,-0.218171164393425,0.4869924485683441,-0.1851584017276764
57135,-0.08789412677288055,0.25264036655426025,0.21411339938640594,-0.2112710326910019,0.5393856167793274,-0.19563952088356018
57175,-0.09087945520877838,0.25098535418510437,0.21203653514385223,-0.20704978704452515,0.5593792796134949,-0.19781386852264404
57215,-0.08707650005817413,0.25101426243782043,0.20633818209171295,-0.20676398277282715,0.5397814512252808,-0.1962217390537262
57255,-0.08934801071882248,0.2539713680744171,0.20141221582889557,-0.2286691665649414,0.5477297902107239,-0.19747716188430786
57295,-0.08892636001110077,0.24426014721393585,0.20072053372859955,-0.1736184060573578,0.5408675670623779,-0.19538696110248566
57335,-0.08667495101690292,0.24399827420711517,0.2038375586271286,-0.17022351920604706,0.520821750164032,-0.19396257400512695
57375,-0.09277603775262833,0.2387423813343048,0.20255915820598602,-0.13986554741859436,0.55946946144104,-0.19506949186325073
57415,-0.08145847171545029,0.23578187823295593,0.20151923596858978,-0.13232122361660004,0.4941779375076294,-0.1810288429260254
57455,-0.07755015045404434,0.2388218343257904,0.20643337070941925,-0.1572624146938324,0.47115036845207214,-0.1810186356306076
57495,-0.07764104008674622,0.2370837777853012,0.20937207341194153,-0.14984028041362762,0.472225159406662,-0.17987045645713806
57535,-0.09161761403083801,0.24167867004871368,0.20059452950954437,-0.17459170520305634,0.5604618191719055,-0.21481162309646606
57575,-0.09522315859794617,0.24112340807914734,0.2077340930700302,-0.17226414382457733,0.5675470232963562,-0.2178918421268463
57615,-0.09194881469011307,0.23687726259231567,0.20981912314891815,-0.15284180641174316,0.5446152091026306,-0.20459899306297302
57655,-0.09854733198881149,0.23860584199428558,0.20458346605300903,-0.17302072048187256,0.583179235458374,-0.22682024538516998
57695,-0.09356689453125,0.23894961178302765,0.20657473802566528,-0.18303462862968445,0.549935519695282,-0.22433680295944214
57735,-0.08504771441221237,0.23761242628097534,0.20310236513614655,-0.18575090169906616,0.5025866031646729,-0.2128085196018219
57775,-0.09132356941699982,0.23736508190631866,0.2072068750858307,-0.18439775705337524,0.5345171689987183,-0.22002777457237244
57815,-0.09236099570989609,0.23412911593914032,0.2123769372701645,-0.16895951330661774,0.5416215658187866,-0.212803915143013
57855,-0.08849114924669266,0.23559848964214325,0.21612679958343506,-0.17931526899337769,0.5213362574577332,-0.2135513871908188
57895,-0.08901325613260269,0.23206058144569397,0.21603351831436157,-0.16151753067970276,0.5197016000747681,-0.2036878913640976
57935,-0.09265226870775223,0.2308359444141388,0.21063533425331116,-0.16314150393009186,0.537187397480011,-0.21157845854759216
57975,-0.1032746210694313,0.23669233918190002,0.20830701291561127,-0.18433073163032532,0.5994734168052673,-0.24099144339561462
58015,-0.1131475493311882,0.238456130027771,0.20470893383026123,-0.19126491248607635,0.6457699537277222,-0.25764378905296326
58055,-0.11721787601709366,0.2435610294342041,0.19852636754512787,-0.22093679010868073,0.6600187420845032,-0.28190433979034424
58095,-0.12502418458461761,0.24692542850971222,0.20235370099544525,-0.23365363478660583,0.6780842542648315,-0.29417097568511963
58135,-0.12380357086658478,0.24295607209205627,0.1980334222316742,-0.21544595062732697,0.655055046081543,-0.276860773563385
58175,-0.12624932825565338,0.243602454662323,0.19362382590770721,-0.21948491036891937,0.6648086905479431,-0.2834353446960449
58215,-0.12593360245227814,0.241622656583786,0.1971486657857895,-0.20752744376659393,0.654612123966217,-0.26936203241348267
58255,-0.11984734982252121,0.2411555051803589,0.1962224692106247,-0.2083926498889923,0.6048263311386108,-0.27349475026130676
58295,-0.12632812559604645,0.24216841161251068,0.1900254338979721,-0.21165266633033752,0.6318538784980774,-0.2726646661758423
58335,-0.1256687045097351,0.24743281304836273,0.18850035965442657,-0.24038273096084595,0.6155740022659302,-0.3040623664855957
58375,-0.1241692528128624,0.24444401264190674,0.19123439490795135,-0.22122086584568024,0.5932450890541077,-0.2882799208164215
58415,-0.12086886912584305,0.2462732493877411,0.19763873517513275,-0.2152038961648941,0.5708426833152771,-0.29102030396461487
58455,-0.11566781252622604,0.24703449010849,0.19533686339855194,-0.22159142792224884,0.5319108963012695,-0.3063035309314728
58495,-0.12231241911649704,0.2433086782693863,0.19414480030536652,-0.19117455184459686,0.5670605301856995,-0.27249541878700256
58535,-0.12040653079748154,0.2506355047225952,0.1978408843278885,-0.22808295488357544,0.5411504507064819,-0.30968979001045227
58575,-0.11936130374670029,0.2542079985141754,0.19271989166736603,-0.24124227464199066,0.5296661853790283,-0.321403831243515
58615,-0.12453308701515198,0.25592538714408875,0.18639296293258667,-0.2558642029762268,0.552268385887146,-0.31852808594703674
58655,-0.11854107677936554,0.2542155086994171,0.18668055534362793,-0.2467358410358429,0.5001777410507202,-0.33178505301475525
58695,-0.11786655336618423,0.2580823600292206,0.1873236745595932,-0.2646499574184418,0.48691877722740173,-0.3423122465610504
58735,-0.1051490306854248,0.2500384449958801,0.190410315990448,-0.21886463463306427,0.4082734286785126,-0.3592672049999237
58775,-0.09919138252735138,0.24886949360370636,0.17978064715862274,-0.21589605510234833,0.37840601801872253,-0.37007856369018555
58815,-0.10140790045261383,0.2430548220872879,0.17581088840961456,-0.1788092404603958,0.39872080087661743,-0.3557342290878296
58855,-0.10885130614042282,0.245601624250412,0.17137639224529266,-0.1961972862482071,0.4385783076286316,-0.338839590549469
58895,-0.10695122927427292,0.24325577914714813,0.17512495815753937,-0.18565461039543152,0.41266006231307983,-0.3426554203033447
58935,-0.11185447126626968,0.2433699667453766,0.17461669445037842,-0.17348065972328186,0.4285612106323242,-0.3351356089115143
58975,-0.11322001367807388,0.24457986652851105,0.17810748517513275,-0.17873507738113403,0.4335750341415405,-0.331260621547699
59015,-0.10170135647058487,0.2398020476102829,0.180947408080101,-0.154921293258667,0.3713168501853943,-0.35112956166267395
59055,-0.10769292712211609,0.24419037997722626,0.18187500536441803,-0.17771410942077637,0.4047165811061859,-0.3330722153186798
59095,-0.10687626898288727,0.24337197840213776,0.1805378943681717,-0.174444779753685,0.4004282057285309,-0.33631017804145813
59135,-0.10356057435274124,0.24827957153320312,0.18322546780109406,-0.20610593259334564,0.3811281621456146,-0.31629160046577454
59175,-0.11031268537044525,0.2548891603946686,0.1871497631072998,-0.2296208292245865,0.4207122325897217,-0.29622936248779297
59215,-0.10264657437801361,0.2524823248386383,0.1838582158088684,-0.22123736143112183,0.3648294508457184,-0.3046521842479706
59255,-0.09725446254014969,0.24821068346500397,0.18242919445037842,-0.1969689577817917,0.34308019280433655,-0.3234807848930359
59295,-0.08860094100236893,0.2442447394132614,0.1903942972421646,-0.17834968864917755,0.298897385597229,-0.34137189388275146
59335,-0.0863620862364769,0.2472912073135376,0.1872975379228592,-0.20189666748046875,0.2945502996444702,-0.31555384397506714
59375,-0.08343037217855453,0.24417853355407715,0.18704946339130402,-0.17655713856220245,0.2910391688346863,-0.33786168694496155
59415,-0.08850057423114777,0.2465730458498001,0.19286386668682098,-0.19305290281772614,0.3288669288158417,-0.32208889722824097
59455,-0.09132526069879532,0.24570702016353607,0.19902381300926208,-0.18393947184085846,0.346515953540802,-0.3357345163822174
59495,-0.09580681473016739,0.24648906290531158,0.20016878843307495,-0.18375445902347565,0.37588390707969666,-0.3333940804004669
59535,-0.09626911580562592,0.24782794713974,0.20281119644641876,-0.20127615332603455,0.3773823082447052,-0.3119184970855713
59575,-0.10328184068202972,0.2459956556558609,0.20466944575309753,-0.19041629135608673,0.4270932674407959,-0.3221680819988251
59615,-0.10368447750806808,0.24668361246585846,0.20195342600345612,-0.1971423178911209,0.42719513177871704,-0.31261584162712097
59655,-0.10631980746984482,0.24722200632095337,0.19482935965061188,-0.19801202416419983,0.4433610737323761,-0.3086494207382202
59695,-0.11134807765483856,0.25194406509399414,0.1950068324804306,-0.21700046956539154,0.4709045886993408,-0.29407811164855957
59735,-0.11419794708490372,0.24396495521068573,0.20068587362766266,-0.17164790630340576,0.48070842027664185,-0.32373663783073425
59775,-0.10943032056093216,0.2423618584871292,0.19875666499137878,-0.1724115014076233,0.4481073319911957,-0.3219345211982727
59815,-0.1046055406332016,0.23880569636821747,0.20262043178081512,-0.14535565674304962,0.41083306074142456,-0.32915446162223816
59855,-0.09728337824344635,0.23783552646636963,0.2010832577943802,-0.14206406474113464,0.37110045552253723,-0.3271854519844055
59895,-0.09897886961698532,0.24139875173568726,0.2042565792798996,-0.16707472503185272,0.38072794675827026,-0.31879013776779175
59935,-0.10638178884983063,0.24196748435497284,0.20075595378875732,-0.18185338377952576,0.428052693605423,-0.31773874163627625
59975,-0.10893949121236801,0.23569414019584656,0.19689375162124634,-0.14492909610271454,0.45344528555870056,-0.3279399275779724
60015,-0.10126455873250961,0.23683951795101166,0.1999841332435608,-0.16572628915309906,0.4063258469104767,-0.31696340441703796
60055,-0.09371880441904068,0.2374442219734192,0.19994138181209564,-0.17689865827560425,0.36605149507522583,-0.3075716197490692
60095,-0.09177207201719284,0.2359854280948639,0.20553961396217346,-0.1761362999677658,0.35726866126060486,-0.3050954043865204
60135,-0.099716417491436,0.23781698942184448,0.20537051558494568,-0.18955475091934204,0.41082701086997986,-0.31177884340286255
60175,-0.09978704899549484,0.23598060011863708,0.19639752805233002,-0.19151103496551514,0.4235388934612274,-0.3129255771636963
60215,-0.09545469284057617,0.23905940353870392,0.1977926641702652,-0.21577252447605133,0.4023762047290802,-0.30570685863494873
60255,-0.09275393933057785,0.2372896373271942,0.19960124790668488,-0.2009228765964508,0.3931129574775696,-0.3055015206336975
60295,-0.09391319006681442,0.24199920892715454,0.20079047977924347,-0.23692281544208527,0.4052800238132477,-0.30413389205932617
60335,-0.10716632753610611,0.2434380054473877,0.20123445987701416,-0.2360292375087738,0.48790860176086426,-0.3128655254840851
60375,-0.10170633345842361,0.23095053434371948,0.2035367488861084,-0.17192986607551575,0.4574999213218689,-0.30481860041618347
60415,-0.10240498930215836,0.23580965399742126,0.2040223330259323,-0.2022218108177185,0.4582439959049225,-0.30961352586746216
60455,-0.10552827268838882,0.23502615094184875,0.20761243999004364,-0.19313111901283264,0.47041288018226624,-0.30916833877563477
60495,-0.10741373151540756,0.23443645238876343,0.20548829436302185,-0.20131467282772064,0.4827888607978821,-0.3094554543495178
60535,-0.10679925978183746,0.23195146024227142,0.20494531095027924,-0.19092495739459991,0.4768684208393097,-0.3070210814476013
60575,-0.10806624591350555,0.2303503155708313,0.2022760659456253,-0.19328546524047852,0.4963037669658661,-0.310775488615036
60615,-0.10750163346529007,0.23076923191547394,0.20050792396068573,-0.19372956454753876,0.4943295121192932,-0.3102251887321472
60655,-0.10214386880397797,0.23109053075313568,0.20440684258937836,-0.19653835892677307,0.4561554789543152,-0.30809590220451355
60695,-0.09420232474803925,0.2316480427980423,0.20456980168819427,-0.19925497472286224,0.409866064786911,-0.30578187108039856
60735,-0.09479298442602158,0.23150403797626495,0.20328667759895325,-0.18992823362350464,0.41730642318725586,-0.3023863732814789
60775,-0.1013704165816307,0.2423679232597351,0.2040124386548996,-0.25793173909187317,0.462568074464798,-0.3360220491886139
60815,-0.10064277052879333,0.24220696091651917,0.20860107243061066,-0.2534480690956116,0.45969662070274353,-0.3352125883102417
60855,-0.10408083349466324,0.2435598522424698,0.2129753828048706,-0.25652119517326355,0.4798028767108917,-0.3344644010066986
60895,-0.09706094115972519,0.24445922672748566,0.21578411757946014,-0.25435134768486023,0.4390949308872223,-0.3339986503124237
60935,-0.10094790905714035,0.24470163881778717,0.2123788446187973,-0.2626667022705078,0.476140558719635,-0.33191752433776855
60975,-0.1057077944278717,0.24234165251255035,0.20960861444473267,-0.24916952848434448,0.5081042647361755,-0.31825020909309387
61015,-0.10353987663984299,0.24672245979309082,0.20686548948287964,-0.2709577977657318,0.49229705333709717,-0.332029789686203
61055,-0.1054263561964035,0.24267606437206268,0.2088218331336975,-0.24499154090881348,0.49672695994377136,-0.31562480330467224
61095,-0.09799810498952866,0.2403286248445511,0.20800013840198517,-0.23993943631649017,0.4461093246936798,-0.32701224088668823
61135,-0.09771664440631866,0.24050569534301758,0.21490350365638733,-0.2394954264163971,0.4450526237487793,-0.32357704639434814
61175,-0.10028943419456482,0.23450389504432678,0.2125098705291748,-0.21756145358085632,0.4626332223415375,-0.30666840076446533
61215,-0.09582465887069702,0.23768465220928192,0.21188174188137054,-0.24000295996665955,0.43047896027565,-0.32573723793029785
61255,-0.09091454744338989,0.23652781546115875,0.20774894952774048,-0.24257877469062805,0.4105966091156006,-0.3312513828277588
61295,-0.08706702291965485,0.23550152778625488,0.20693500339984894,-0.2315434068441391,0.39873337745666504,-0.33158472180366516
61335,-0.08204120397567749,0.23682083189487457,0.2080690711736679,-0.24188140034675598,0.37177082896232605,-0.3396424651145935
61375,-0.09088633209466934,0.24563147127628326,0.21292835474014282,-0.2785387635231018,0.428498774766922,-0.33682432770729065
61415,-0.09422210603952408,0.24594472348690033,0.21211521327495575,-0.2731442451477051,0.45445558428764343,-0.32868292927742004
61455,-0.0909862220287323,0.2461397498846054,0.21211819350719452,-0.27259331941604614,0.43859973549842834,-0.33247271180152893
61495,-0.09731360524892807,0.2491936981678009,0.21512360870838165,-0.27577534317970276,0.48097649216651917,-0.32149672508239746
61535,-0.09274967759847641,0.2485300749540329,0.21168899536132812,-0.27299994230270386,0.45488470792770386,-0.32696691155433655
61575,-0.09204396605491638,0.24871446192264557,0.21350882947444916,-0.2588900923728943,0.4548855721950531,-0.3199155330657959
61615,-0.09964636713266373,0.2436372935771942,0.21414315700531006,-0.2154434472322464,0.5118281245231628,-0.2928115427494049
61655,-0.10883253067731857,0.2498009204864502,0.2167382836341858,-0.24805086851119995,0.5606509447097778,-0.284989595413208
61695,-0.1061011552810669,0.24217724800109863,0.2183072715997696,-0.19489705562591553,0.5409986972808838,-0.2726314961910248
61735,-0.10487625002861023,0.24103569984436035,0.22110143303871155,-0.18084833025932312,0.5319700837135315,-0.26592862606048584
61775,-0.10329288989305496,0.23798426985740662,0.21507905423641205,-0.17415285110473633,0.5207712054252625,-0.26286396384239197
61815,-0.10305695980787277,0.2414543777704239,0.21829423308372498,-0.18293675780296326,0.5198559761047363,-0.26737990975379944
61855,-0.0978592112660408,0.23876486718654633,0.22096103429794312,-0.16205339133739471,0.4885609447956085,-0.2647884488105774
61895,-0.09017086029052734,0.23780812323093414,0.2214582860469818,-0.1577751189470291,0.4434749186038971,-0.26757925748825073
61935,-0.09516283124685287,0.23538728058338165,0.2281532883644104,-0.14628516137599945,0.46680936217308044,-0.2621971070766449
61975,-0.09458127617835999,0.2383781522512436,0.22652944922447205,-0.16818895936012268,0.4569006860256195,-0.26880112290382385
62015,-0.09921707957983017,0.24163490533828735,0.2271394282579422,-0.1834333837032318,0.48272109031677246,-0.27021273970603943
62055,-0.09874220937490463,0.24530376493930817,0.22286012768745422,-0.2020721137523651,0.48670339584350586,-0.27746373414993286
62095,-0.10387609153985977,0.24755226075649261,0.22265493869781494,-0.2026800960302353,0.5135735273361206,-0.2769923508167267
62135,-0.10789769887924194,0.24373599886894226,0.22867324948310852,-0.16464367508888245,0.5302756428718567,-0.26476630568504333
62175,-0.09816709160804749,0.24263598024845123,0.22903762757778168,-0.15613646805286407,0.47096818685531616,-0.26390156149864197
62215,-0.09935588389635086,0.24471375346183777,0.22665028274059296,-0.16617316007614136,0.4811018109321594,-0.2645745277404785
62255,-0.10191916674375534,0.2452322393655777,0.22170698642730713,-0.1689128279685974,0.501399040222168,-0.2637673616409302
62295,-0.10942796617746353,0.24825359880924225,0.22327110171318054,-0.18985113501548767,0.5479831695556641,-0.26829877495765686
62335,-0.11244208365678787,0.24419276416301727,0.2277429699897766,-0.16905167698860168,0.5531502366065979,-0.26083558797836304
62375,-0.11656156182289124,0.2423064261674881,0.22518476843833923,-0.15807269513607025,0.5740687847137451,-0.2574819326400757
62415,-0.11727077513933182,0.2420949786901474,0.22297987341880798,-0.14176003634929657,0.5750628709793091,-0.2529251277446747
62455,-0.12098906189203262,0.2443528175354004,0.22151130437850952,-0.1589059829711914,0.5925565958023071,-0.25978466868400574
62495,-0.12089398503303528,0.24381417036056519,0.21859142184257507,-0.15637291967868805,0.584875762462616,-0.2573237717151642
62535,-0.12860259413719177,0.2476993203163147,0.22034485638141632,-0.1691358983516693,0.6233340501785278,-0.2656695544719696
62575,-0.132181778550148,0.24628353118896484,0.215724915266037,-0.15274979174137115,0.6336911916732788,-0.25667113065719604
62615,-0.1349819153547287,0.2478368878364563,0.2135530561208725,-0.16068385541439056,0.6345105767250061,-0.2678784430027008
62655,-0.13559912145137787,0.2508368194103241,0.21754097938537598,-0.17435546219348907,0.62257319688797,-0.2744412422180176
62695,-0.13068462908267975,0.2499869167804718,0.21881625056266785,-0.15748675167560577,0.5854488611221313,-0.2592901587486267
62735,-0.13216209411621094,0.2494514137506485,0.21979230642318726,-0.15952832996845245,0.5995354652404785,-0.26182273030281067
62775,-0.13606208562850952,0.2478666752576828,0.2142898291349411,-0.14857424795627594,0.6211534738540649,-0.2540696859359741
62815,-0.13467316329479218,0.2494744062423706,0.21250025928020477,-0.16003631055355072,0.5970228910446167,-0.2631581127643585
62855,-0.13790085911750793,0.24833737313747406,0.20768608152866364,-0.1527288407087326,0.608260452747345,-0.2590104043483734
62895,-0.13510911166667938,0.25065550208091736,0.20196175575256348,-0.16892622411251068,0.579468309879303,-0.2710859179496765
62935,-0.12272841483354568,0.24232998490333557,0.20045065879821777,-0.13492253422737122,0.5003887414932251,-0.24824804067611694
62975,-0.1170564517378807,0.24000737071037292,0.1981414258480072,-0.1255372166633606,0.4584268033504486,-0.24192386865615845
63015,-0.10883913934230804,0.23981274664402008,0.19674594700336456,-0.12990306317806244,0.4043450951576233,-0.2413824200630188
63055,-0.10496635735034943,0.24178168177604675,0.1954575777053833,-0.14104220271110535,0.37869542837142944,-0.24343819916248322
63095,-0.10666671395301819,0.2454741895198822,0.19994090497493744,-0.15050263702869415,0.38937774300575256,-0.24603991210460663
63135,-0.103708416223526,0.24576887488365173,0.19713765382766724,-0.15333245694637299,0.3775337338447571,-0.24441614747047424
63175,-0.1037432849407196,0.25235694646835327,0.19642940163612366,-0.19494381546974182,0.37826651334762573,-0.2373088300228119
63215,-0.10233323276042938,0.24857020378112793,0.19571396708488464,-0.1760183572769165,0.38301369547843933,-0.24506154656410217
63255,-0.10298427194356918,0.2514594495296478,0.19851218163967133,-0.1953199952840805,0.3855535686016083,-0.2347186952829361
63295,-0.09876371920108795,0.2549472153186798,0.19672204554080963,-0.20810452103614807,0.36522048711776733,-0.2265307605266571
63335,-0.09675711393356323,0.24945376813411713,0.19288770854473114,-0.18120016157627106,0.3665267527103424,-0.24480018019676208
63375,-0.09174011647701263,0.2450879067182541,0.18945275247097015,-0.16138112545013428,0.3454647958278656,-0.2564469873905182
63415,-0.10119489580392838,0.2398725003004074,0.19686827063560486,-0.12074656039476395,0.40820834040641785,-0.2919336259365082
63455,-0.11314396560192108,0.2366628348827362,0.2003503292798996,-0.0913131907582283,0.47459182143211365,-0.32012832164764404
63495,-0.11100558936595917,0.2376294583082199,0.20665350556373596,-0.09952867031097412,0.4580586552619934,-0.30931976437568665
63535,-0.1084151491522789,0.23889338970184326,0.20958887040615082,-0.11228423565626144,0.43323054909706116,-0.2940947115421295
63575,-0.10931118577718735,0.2408849596977234,0.20772990584373474,-0.12414612621068954,0.4372697174549103,-0.2839050889015198
63615,-0.1103050485253334,0.24196705222129822,0.20728805661201477,-0.1371902972459793,0.43956032395362854,-0.27396512031555176
63655,-0.11015231907367706,0.24308794736862183,0.20475955307483673,-0.14742736518383026,0.43353015184402466,-0.2623838782310486
63695,-0.10626434534788132,0.24249936640262604,0.20294325053691864,-0.1565399318933487,0.40531423687934875,-0.2516252398490906
63735,-0.10692083090543747,0.24238745868206024,0.20511272549629211,-0.15145231783390045,0.40490391850471497,-0.25388282537460327
63775,-0.11102981120347977,0.24133971333503723,0.20258799195289612,-0.14314301311969757,0.43764176964759827,-0.26134443283081055
63815,-0.11251912266016006,0.24155279994010925,0.20152273774147034,-0.1458951085805893,0.44795435667037964,-0.2597406804561615
63855,-0.11459348350763321,0.23675915598869324,0.20265774428844452,-0.1172533854842186,0.4623708724975586,-0.2772199809551239
63895,-0.10892368853092194,0.23075786232948303,0.19954414665699005,-0.09172789007425308,0.4355870485305786,-0.28583839535713196
63935,-0.11042509973049164,0.229025200009346,0.20072594285011292,-0.0837269276380539,0.4360741674900055,-0.28679758310317993
63975,-0.10563960671424866,0.23334071040153503,0.19773471355438232,-0.12362401932477951,0.4150785803794861,-0.2658335268497467
64015,-0.10206067562103271,0.23166976869106293,0.20574940741062164,-0.10576777160167694,0.38870587944984436,-0.2674674689769745
64055,-0.1004103422164917,0.22950217127799988,0.20851591229438782,-0.09661246091127396,0.365399569272995,-0.2668006420135498
64095,-0.10192219167947769,0.22576050460338593,0.20680643618106842,-0.0884304791688919,0.3800136148929596,-0.2724933624267578
64135,-0.10701920092105865,0.22740240395069122,0.20575541257858276,-0.11906945705413818,0.4050339460372925,-0.26710009574890137
64175,-0.1047399491071701,0.23044347763061523,0.20187386870384216,-0.1413978636264801,0.39040184020996094,-0.255334734916687
64215,-0.10713271051645279,0.2290841042995453,0.20275186002254486,-0.13482461869716644,0.4088723361492157,-0.2614235281944275
64255,-0.10569645464420319,0.22751262784004211,0.20609480142593384,-0.13454373180866241,0.3973884582519531,-0.25926777720451355
64295,-0.10060960799455643,0.23146940767765045,0.21124592423439026,-0.1653762310743332,0.36434921622276306,-0.24417316913604736
64335,-0.1000799685716629,0.23071697354316711,0.21760356426239014,-0.16557589173316956,0.36102378368377686,-0.24217447638511658
64375,-0.0975639596581459,0.23151780664920807,0.21612291038036346,-0.1729787439107895,0.3524513244628906,-0.23891469836235046
64415,-0.10067432373762131,0.2314472198486328,0.21644312143325806,-0.1811523735523224,0.3807966411113739,-0.24170076847076416
64455,-0.10042809695005417,0.23448845744132996,0.2198021560907364,-0.19686676561832428,0.38565129041671753,-0.2397640347480774
64495,-0.09626037627458572,0.23692837357521057,0.2152167558670044,-0.21890659630298615,0.3686182498931885,-0.23445455729961395
64535,-0.09689205139875412,0.23800942301750183,0.2109200358390808,-0.21149680018424988,0.3733382225036621,-0.23596781492233276
64575,-0.0935160219669342,0.23659071326255798,0.21190105378627777,-0.2057521492242813,0.3523920774459839,-0.23755718767642975
64615,-0.09771624207496643,0.24047835171222687,0.20363357663154602,-0.22602015733718872,0.388314813375473,-0.22893157601356506
64655,-0.09323384612798691,0.23875534534454346,0.2059071809053421,-0.21216270327568054,0.3698508143424988,-0.23263593018054962
64695,-0.08436904847621918,0.23928950726985931,0.20730802416801453,-0.217699334025383,0.3241591453552246,-0.2440907210111618
64735,-0.08285308629274368,0.23612739145755768,0.20796184241771698,-0.21534380316734314,0.32047972083091736,-0.24439455568790436
64775,-0.09612306952476501,0.23397184908390045,0.20051850378513336,-0.19903092086315155,0.4134998321533203,-0.21448951959609985
64815,-0.09147575497627258,0.23127059638500214,0.2005009800195694,-0.18679362535476685,0.38735899329185486,-0.22206568717956543
64855,-0.08852439373731613,0.22951316833496094,0.20196785032749176,-0.17770731449127197,0.37720200419425964,-0.22188562154769897
64895,-0.08334651589393616,0.23222915828227997,0.1993347704410553,-0.19708043336868286,0.3551778793334961,-0.22925390303134918
64935,-0.08769755810499191,0.2322930097579956,0.19432413578033447,-0.20241495966911316,0.39776766300201416,-0.2143261879682541
64975,-0.08896005153656006,0.23220233619213104,0.18765641748905182,-0.20023804903030396,0.41999050974845886,-0.20802561938762665
65015,-0.0941934660077095,0.2283942848443985,0.19047461450099945,-0.17088723182678223,0.45375189185142517,-0.1942589282989502
65055,-0.09852790832519531,0.23418503999710083,0.18488824367523193,-0.20321249961853027,0.4805082678794861,-0.18718786537647247
65095,-0.10309351235628128,0.23523764312267303,0.1906655728816986,-0.20326459407806396,0.5017532110214233,-0.1804446578025818
65135,-0.0993383526802063,0.23547032475471497,0.18893787264823914,-0.20467031002044678,0.479906290769577,-0.18673723936080933
65175,-0.10722383111715317,0.23994725942611694,0.19053462147712708,-0.22387370467185974,0.5179911255836487,-0.17790652811527252
65215,-0.10740988701581955,0.23715531826019287,0.1909359246492386,-0.2144700586795807,0.5167174935340881,-0.17360058426856995
65255,-0.10920876264572144,0.2367892861366272,0.18906033039093018,-0.19665415585041046,0.524786114692688,-0.16279162466526031
65295,-0.10982684791088104,0.23778235912322998,0.18795818090438843,-0.19491848349571228,0.5318468809127808,-0.15733100473880768
65335,-0.10594119876623154,0.23958994448184967,0.18669304251670837,-0.19865725934505463,0.5059460401535034,-0.1698981672525406
65375,-0.10202046483755112,0.2388235479593277,0.1858777105808258,-0.19461800158023834,0.48110130429267883,-0.1792745739221573
65415,-0.1040290966629982,0.24042457342147827,0.18979264795780182,-0.20067493617534637,0.489947646856308,-0.17929716408252716
65455,-0.11070681363344193,0.2363872230052948,0.1843089759349823,-0.16997955739498138,0.5312533378601074,-0.13657914102077484
65495,-0.11248310655355453,0.23937056958675385,0.18554431200027466,-0.17641665041446686,0.5389375686645508,-0.13775691390037537
65535,-0.10382270812988281,0.23806169629096985,0.18222099542617798,-0.17241062223911285,0.48553895950317383,-0.15569041669368744
65575,-0.09965848177671432,0.23880890011787415,0.18741077184677124,-0.1687995046377182,0.45324477553367615,-0.16801689565181732
65615,-0.10397989302873611,0.24137148261070251,0.19400762021541595,-0.17994369566440582,0.47824373841285706,-0.16658836603164673
65655,-0.10351695120334625,0.24393387138843536,0.20097294449806213,-0.1838252991437912,0.47712743282318115,-0.17104722559452057
65695,-0.10657718032598495,0.24746544659137726,0.20376628637313843,-0.19940252602100372,0.4950871467590332,-0.17231494188308716
65735,-0.10076893121004105,0.24777299165725708,0.20754610002040863,-0.1934209167957306,0.4537055790424347,-0.18505723774433136
65775,-0.09212023764848709,0.24908310174942017,0.20062950253486633,-0.20165584981441498,0.40849193930625916,-0.20725476741790771
65815,-0.09583535045385361,0.25141140818595886,0.20529446005821228,-0.2014112025499344,0.43253692984580994,-0.19549675285816193
65855,-0.09745785593986511,0.25321346521377563,0.19775763154029846,-0.21204301714897156,0.4471108317375183,-0.19063787162303925
65895,-0.10461227595806122,0.24984480440616608,0.20299500226974487,-0.18166019022464752,0.4834282696247101,-0.16126474738121033
65935,-0.10530731827020645,0.2516205906867981,0.20620518922805786,-0.17640018463134766,0.487515389919281,-0.15847371518611908
65975,-0.09875726699829102,0.24819985032081604,0.2082727998495102,-0.15356403589248657,0.45099207758903503,-0.162386953830719
66015,-0.09856250882148743,0.2559405267238617,0.21505244076251984,-0.18778130412101746,0.4500456154346466,-0.17581790685653687
66055,-0.09347930550575256,0.2561711370944977,0.22136276960372925,-0.18444976210594177,0.4212445318698883,-0.18326745927333832
66095,-0.09640638530254364,0.2580024302005768,0.22992047667503357,-0.1946309208869934,0.43723204731941223,-0.18084271252155304
66135,-0.09438826888799667,0.2571921944618225,0.22651198506355286,-0.1905125230550766,0.4345763027667999,-0.1803765743970871
66175,-0.09985684603452682,0.2489444613456726,0.222143292427063,-0.13305991888046265,0.4794706106185913,-0.15081508457660675
66215,-0.09597223252058029,0.2521646022796631,0.2213779240846634,-0.16264553368091583,0.46859753131866455,-0.16028472781181335
66255,-0.09738187491893768,0.24997812509536743,0.2179296910762787,-0.15862829983234406,0.4818554222583771,-0.15281537175178528
66295,-0.10359354317188263,0.25003015995025635,0.21830566227436066,-0.1604645699262619,0.5203550457954407,-0.14461275935173035
66335,-0.09706013649702072,0.25023454427719116,0.21808727085590363,-0.1579732596874237,0.48087406158447266,-0.14953988790512085
66375,-0.09770946204662323,0.249740332365036,0.2227695733308792,-0.1510646492242813,0.487897664308548,-0.14877215027809143
66415,-0.08991388231515884,0.2467411309480667,0.2226976454257965,-0.14070424437522888,0.4518541395664215,-0.1545606106519699
66455,-0.08877205848693848,0.25137123465538025,0.22639328241348267,-0.15856494009494781,0.4461112320423126,-0.15439321100711823
66495,-0.08587313443422318,0.2531691789627075,0.22866910696029663,-0.16631287336349487,0.4381290078163147,-0.15340577065944672
66535,-0.09830524027347565,0.2528156340122223,0.2193506360054016,-0.1607876569032669,0.5156490802764893,-0.15837256610393524
66575,-0.10333000123500824,0.2545110583305359,0.21527770161628723,-0.17441609501838684,0.5474000573158264,-0.1608080416917801
66615,-0.10464471578598022,0.2506473958492279,0.20718760788440704,-0.15169912576675415,0.5651525855064392,-0.1625017374753952
66655,-0.10172215104103088,0.2468637228012085,0.21116356551647186,-0.1293460875749588,0.5562832355499268,-0.16004440188407898
66695,-0.09356360137462616,0.24261030554771423,0.20670804381370544,-0.11547617614269257,0.5140923261642456,-0.15448828041553497
66735,-0.0940922424197197,0.2405657321214676,0.2074747234582901,-0.1093374565243721,0.516375720500946,-0.15710888803005219
66775,-0.10008281469345093,0.24057254195213318,0.20572926104068756,-0.10679403692483902,0.5456618070602417,-0.1664000153541565
66815,-0.09355714172124863,0.23593880236148834,0.20188181102275848,-0.08733691275119781,0.5138310194015503,-0.15567252039909363
66855,-0.10028102248907089,0.23841287195682526,0.1978551745414734,-0.09691429138183594,0.5580812692642212,-0.17486199736595154
66895,-0.10019415616989136,0.24140134453773499,0.19833680987358093,-0.11217383295297623,0.5554028749465942,-0.17740561068058014
66935,-0.09953675419092178,0.23892681300640106,0.19840899109840393,-0.10010410100221634,0.5388928651809692,-0.1690494269132614
66975,-0.09059562534093857,0.2440916746854782,0.1903911679983139,-0.13613006472587585,0.48304179310798645,-0.15365254878997803
67015,-0.08847605437040329,0.2510468661785126,0.18631772696971893,-0.17412741482257843,0.4798588156700134,-0.15644259750843048
67055,-0.08625738322734833,0.25199732184410095,0.18017829954624176,-0.18737246096134186,0.4794495701789856,-0.15540608763694763
67095,-0.08214524388313293,0.25027230381965637,0.1831015795469284,-0.1752905249595642,0.46613243222236633,-0.15288980305194855
67135,-0.07839639484882355,0.24638742208480835,0.1829502284526825,-0.15517182648181915,0.45605090260505676,-0.15089060366153717
67175,-0.08522242307662964,0.24304452538490295,0.18006205558776855,-0.13071678578853607,0.49661198258399963,-0.16683313250541687
67215,-0.09115912765264511,0.23929616808891296,0.1855524629354477,-0.10493142902851105,0.5272507667541504,-0.18344281613826752
67255,-0.09682004898786545,0.23989087343215942,0.18733179569244385,-0.11443490535020828,0.5605453252792358,-0.19340577721595764
67295,-0.09911734610795975,0.23590965569019318,0.19579969346523285,-0.0902930200099945,0.5711830854415894,-0.19873280823230743
67335,-0.09333156049251556,0.2356742024421692,0.19187961518764496,-0.10413305461406708,0.5493706464767456,-0.18767467141151428
67375,-0.09611112624406815,0.24188584089279175,0.19734321534633636,-0.13656528294086456,0.5629225969314575,-0.1926295906305313
67415,-0.09816808253526688,0.24069535732269287,0.19865530729293823,-0.13158442080020905,0.5705928206443787,-0.197071373462677
67455,-0.09588655829429626,0.23426686227321625,0.20101980865001678,-0.09246360510587692,0.5579476952552795,-0.1925007402896881
67495,-0.09651653468608856,0.23474645614624023,0.19919151067733765,-0.09612014144659042,0.5552335977554321,-0.19282600283622742
67535,-0.09665179997682571,0.23489832878112793,0.20436686277389526,-0.09770548343658447,0.5544167757034302,-0.19323468208312988
67575,-0.09211885184049606,0.2329777479171753,0.20651443302631378,-0.09179374575614929,0.5296736359596252,-0.18540628254413605
