Timestamp,stateEstimate.x,stateEstimate.y,stateEstimate.z,stateEstimate.roll,stateEstimate.pitch,stateEstimate.yaw
162004,75.46337890625,74.73067474365234,1.0128337144851685,-0.834150493144989,-0.8084778785705566,-0.003528937231749296
162044,75.49696350097656,74.74829864501953,1.0129588842391968,-0.832202136516571,-0.8049938678741455,-0.00219407444819808
162084,75.53091430664062,74.7660903930664,1.013076663017273,-0.8267998695373535,-0.8049091100692749,-0.001888600760139525
162124,74.05760192871094,72.6461181640625,1.2198023796081543,1.2660375833511353,1.253958821296692,-0.04240884259343147
162164,73.80139923095703,72.61309051513672,1.239639401435852,1.3997783660888672,1.3887463808059692,-0.04854920879006386
162204,73.77583312988281,72.58219909667969,1.2380846738815308,1.399202823638916,1.3911429643630981,-0.048933956772089005
162244,73.76176452636719,72.55060577392578,1.2353166341781616,1.390587568283081,1.3825386762619019,-0.04728115350008011
162284,73.74745178222656,72.5185775756836,1.2325410842895508,1.3866708278656006,1.3771473169326782,-0.046774886548519135
162324,73.73291015625,72.48612213134766,1.229764461517334,1.3804829120635986,1.3727744817733765,-0.047924406826496124
162364,73.7181625366211,72.45323944091797,1.2269536256790161,1.3753001689910889,1.3707001209259033,-0.047751326113939285
162404,73.70317840576172,72.41992950439453,1.224112629890442,1.3665437698364258,1.3633865118026733,-0.04658015817403793
162444,73.68798065185547,72.38619232177734,1.2212681770324707,1.3601776361465454,1.3563936948776245,-0.04414800927042961
162484,73.67254638671875,72.35202026367188,1.218416690826416,1.3526298999786377,1.3494654893875122,-0.04227565973997116
162524,73.65689086914062,72.31742095947266,1.2155641317367554,1.3487517833709717,1.3428632020950317,-0.04434496909379959
162564,73.64100646972656,72.28240966796875,1.212723731994629,1.3443560600280762,1.3333817720413208,-0.04289625212550163
162604,73.62491607666016,72.24698638916016,1.2098798751831055,1.3378413915634155,1.3253751993179321,-0.042487241327762604
162644,73.60861206054688,72.21115112304688,1.207029104232788,1.3321492671966553,1.3191732168197632,-0.04313693568110466
162684,73.59209442138672,72.1749038696289,1.2041865587234497,1.3253674507141113,1.3089451789855957,-0.04246325045824051
162724,73.57536315917969,72.13825225830078,1.2013379335403442,1.319897174835205,1.3049407005310059,-0.04249456897377968
162764,73.55841827392578,72.10118103027344,1.1984773874282837,1.315740704536438,1.3001534938812256,-0.04285458102822304
162804,73.54127502441406,72.06371307373047,1.195602297782898,1.3075069189071655,1.2945733070373535,-0.04138283059000969
162844,74.41295623779297,72.04261779785156,1.0231130123138428,0.6023656725883484,0.5980507135391235,-0.016761187463998795
162884,104.25473022460938,43.0202522277832,0.8709167838096619,0.0676044374704361,-0.23779496550559998,0.0005244759377092123
162924,25.300201416015625,-20.708343505859375,-0.045475251972675323,-0.004372003488242626,0.0016471706330776215,0.003238752018660307
162964,25.300399780273438,-20.708436965942383,-0.04550310596823692,-0.0035985740832984447,0.0030607408843934536,0.006067243870347738
163004,25.30074119567871,-20.708568572998047,-0.04554395005106926,-0.004140921402722597,0.002889098832383752,0.005957745015621185
163044,25.30122947692871,-20.708744049072266,-0.045588262379169464,-0.004723923746496439,0.005910387262701988,0.007416745647788048
163084,25.3018741607666,-20.708955764770508,-0.04563816636800766,-0.005901759024709463,0.005259712226688862,0.008356304839253426
163124,25.30265998840332,-20.70920753479004,-0.04569534957408905,-0.008197570219635963,0.006092841736972332,0.009036925621330738
163164,25.303560256958008,-20.709503173828125,-0.045762695372104645,-0.012363649904727936,0.003666751319542527,0.008493263274431229
163204,25.304597854614258,-20.709829330444336,-0.04583100974559784,-0.013110294006764889,0.004112175665795803,0.00879206694662571
163244,0.0,0.0,0.0,0.0,0.0,0.0
163284,16.516586303710938,-10.679193496704102,-0.057477470487356186,-0.002006230875849724,-0.00032661124714650214,0.0022337341215461493
163324,16.51682472229004,-10.679272651672363,-0.05749097093939781,-0.0019363262690603733,-0.0014337653992697597,0.00293148634955287
163364,16.517223358154297,-10.679396629333496,-0.05749484896659851,-0.0020254210103303194,-0.0023889578878879547,0.005853538401424885
163404,16.51776123046875,-10.679547309875488,-0.05748502165079117,-0.0018518541473895311,-0.002255404135212302,0.005764320492744446
163444,16.518449783325195,-10.679739952087402,-0.05747212469577789,-0.002039482584223151,-0.004129862412810326,0.006104090251028538
163484,1.9145818441757e-05,-6.3662309912615456e-06,-1.8321443349123001e-06,-0.0015486313495784998,-0.0010553267784416676,0.0017095203511416912
163524,0.00016128350398503244,-4.4118954974692315e-05,-2.0280102035030723e-05,-0.0032846610993146896,-0.0018002144061028957,0.00273489230312407
163564,0.0004505458055064082,-0.0001309885992668569,-3.7776422686874866e-05,-0.0034376566763967276,0.0030495058745145798,0.001055936561897397
163604,0.0008959674742072821,-0.0002826074487529695,-4.8612389946356416e-05,-0.0036151057574898005,0.0022211025934666395,0.0016319041606038809
163644,0.001479882630519569,-0.0004721016448456794,-7.004753570072353e-05,-0.004589916206896305,0.0009009729255922139,0.0010745583567768335
163684,0.002204165793955326,-0.0007180985994637012,-9.347806917503476e-05,-0.005541316699236631,-0.004850845318287611,0.0023368760012090206
163724,0.0030554707627743483,-0.0010220614494755864,-0.00011930009350180626,-0.00628897687420249,-0.0042314063757658005,0.00101368292234838
163764,0.004052965436130762,-0.0013742162846028805,-0.00013819965533912182,-0.009061395190656185,-0.0054266685619950294,0.0008438819204457104
163804,0.0052006179466843605,-0.0017785474192351103,-0.00015007093315944076,-0.008408364839851856,-0.006680220831185579,-0.0006041175802238286
163844,0.00649944506585598,-0.0022267214953899384,-0.00014875771012157202,-0.010143869556486607,-0.007114508654922247,-0.0017173889791592956
163884,0.007947854697704315,-0.002719693351536989,-0.00016332094673998654,-0.011224224232137203,-0.0067411018535494804,-0.0007998200599104166
163924,0.009642397984862328,-0.003286656690761447,-0.00020426310948096216,-0.015939317643642426,-0.008339500986039639,-0.001790150417946279
163964,0.011506391689181328,-0.00392581382766366,-0.0002470612234901637,-0.017343970015645027,-0.010446511209011078,-0.0007201179396361113
164004,0.013591954484581947,-0.004638674668967724,-0.0002825593401212245,-0.02062617614865303,-0.009691537357866764,0.0008513923967257142
164044,0.015684382990002632,-0.00535254692658782,-0.00031924256472848356,-0.020380936563014984,-0.010608644224703312,0.0024247136898338795
164084,0.017925160005688667,-0.006119632162153721,-0.0003739986859727651,-0.02137092500925064,-0.010701085440814495,0.0024889300111681223
164124,0.020316146314144135,-0.006940637715160847,-0.00042136741103604436,-0.02161845751106739,-0.015603872947394848,0.002597021171823144
164164,0.022857898846268654,-0.0078018829226493835,-0.0004698589618783444,-0.0226560290902853,-0.014493587426841259,0.0045462921261787415
164204,0.02555892802774906,-0.00870206393301487,-0.0005258459132164717,-0.023533286526799202,-0.008424592204391956,0.0028093259315937757
164244,0.02841239795088768,-0.009647334925830364,-0.0006063403561711311,-0.02376255765557289,-0.0066803270019590855,0.003966029267758131
164284,0.03142416849732399,-0.010637389495968819,-0.0006916258716955781,-0.024166973307728767,-0.006839515641331673,0.004241748247295618
164324,0.03459148481488228,-0.011673695407807827,-0.0007782611064612865,-0.024985695257782936,-0.008777198381721973,0.00305985938757658
164364,0.03791947290301323,-0.012753022834658623,-0.0008850760059431195,-0.02674996294081211,-0.012371684424579144,0.0030262840446084738
164404,0.041403885930776596,-0.013870751485228539,-0.0009894149843603373,-0.024976877495646477,-0.01196670439094305,0.003523130901157856
164444,0.04503002017736435,-0.015050283633172512,-0.0010944594396278262,-0.023918211460113525,-0.010353568010032177,0.00043370301136747
164484,-1.3806402683258057,0.005482133477926254,-0.0014175183605402708,-0.02680533193051815,-0.009473967365920544,0.00033390315365977585
164524,-1.3706804513931274,0.3889490067958832,-0.005368831567466259,-0.028115255758166313,-0.008671705611050129,-0.001406756928190589
164564,-1.366588830947876,0.3876439332962036,-0.0054905349388718605,-0.03021470457315445,-0.011095807887613773,-0.0006393290823325515
164604,-1.3623296022415161,0.38628172874450684,-0.005622320342808962,-0.029282480478286743,-0.011530454270541668,-0.0023189110215753317
164644,-1.3579386472702026,0.38486573100090027,-0.005762535613030195,-0.029841462150216103,-0.014420690014958382,-0.0028219865635037422
164684,-1.3534117937088013,0.3834041953086853,-0.005888307932764292,-0.030208110809326172,-0.016127102077007294,-0.0023729605600237846
164724,-1.348734974861145,0.38191258907318115,-0.006002121604979038,-0.031519658863544464,-0.014779248274862766,-0.0031109917908906937
164764,-1.3438960313796997,0.380369633436203,-0.006106249056756496,-0.03297199681401253,-0.013420208357274532,-0.0037538865581154823
164804,-1.3388917446136475,0.3787783086299896,-0.006214912049472332,-0.033667758107185364,-0.015407528728246689,-0.003007831983268261
164844,-1.3337219953536987,0.3771398067474365,-0.006329718977212906,-0.0327240526676178,-0.015444177202880383,-0.004906475078314543
164884,-1.3283904790878296,0.37545350193977356,-0.0064668962731957436,-0.03313039615750313,-0.013605057261884212,-0.0050730579532682896
164924,-1.3229143619537354,0.3737216889858246,-0.006628441158682108,-0.032067835330963135,-0.013019084930419922,-0.0058828252367675304
164964,-1.3172743320465088,0.3719595968723297,-0.006793166045099497,-0.033962544053792953,-0.014236107468605042,-0.005964298732578754
165004,-1.3114904165267944,0.370170921087265,-0.006951773539185524,-0.0358361080288887,-0.014082794077694416,-0.004032825119793415
165044,-1.3054169416427612,0.36829060316085815,-0.007136499509215355,-0.03799304738640785,-0.017801471054553986,-0.0034323642030358315
165084,-1.299338698387146,0.3663908541202545,-0.007350367493927479,-0.03773227334022522,-0.019612381234765053,-0.003123063128441572
165124,-1.2931039333343506,0.3644353151321411,-0.007574633229523897,-0.03702427074313164,-0.023005161434412003,-0.0018701039953157306
165164,-1.2867062091827393,0.3624347746372223,-0.007814864628016949,-0.03814694285392761,-0.026719801127910614,-0.0021249931305646896
165204,-1.2801597118377686,0.36038410663604736,-0.008074277080595493,-0.037320081144571304,-0.02374870330095291,-0.0025753751397132874
165244,-1.2734612226486206,0.3582969903945923,-0.008354853838682175,-0.03992912173271179,-0.02494170144200325,-0.0005029069143347442
165284,-1.2666021585464478,0.356172114610672,-0.00864096824079752,-0.04227980598807335,-0.027431530877947807,-0.0011705253273248672
165324,-1.25957453250885,0.35400721430778503,-0.008948723785579205,-0.04390542581677437,-0.024698449298739433,-0.0011209577787667513
165364,-1.2523993253707886,0.3518023192882538,-0.00928191002458334,-0.04657873511314392,-0.025075549259781837,-0.00031757637043483555
165404,-1.2450758218765259,0.3495716452598572,-0.009631665423512459,-0.04788658022880554,-0.024512752890586853,-0.0014003367396071553
165444,-1.2375961542129517,0.3473183810710907,-0.009982621297240257,-0.048783257603645325,-0.025698432698845863,-0.0007075878093019128
165484,-1.2299466133117676,0.34503310918807983,-0.010351117700338364,-0.05164816603064537,-0.026194723322987556,0.001584468293003738
165524,-1.2221430540084839,0.34270063042640686,-0.010740757919847965,-0.052155692130327225,-0.024140341207385063,-0.0014654431724920869
165564,-1.2141884565353394,0.34032055735588074,-0.011133975349366665,-0.05148196592926979,-0.028302691876888275,-0.0017325789667665958
165604,-1.2060725688934326,0.3378998935222626,-0.011540298350155354,-0.05161016061902046,-0.031515657901763916,-0.0018123429035767913
165644,-1.1977996826171875,0.3354319632053375,-0.011968902312219143,-0.05298633873462677,-0.03229430690407753,-0.0013665348524227738
165684,-1.1893634796142578,0.3329254388809204,-0.012418944388628006,-0.0527033805847168,-0.02990891970694065,-0.001445869798772037
165724,-1.1807838678359985,0.3303757309913635,-0.012886335141956806,-0.05537429824471474,-0.03136184811592102,-0.002546923700720072
165764,-1.172044277191162,0.32777953147888184,-0.013370688073337078,-0.05603976547718048,-0.034210335463285446,-2.0215913536958396e-05
165804,-1.1631401777267456,0.32515475153923035,-0.01387244462966919,-0.05549931526184082,-0.03334251418709755,-0.0012880052672699094
165844,-1.1540963649749756,0.3224829435348511,-0.014376742765307426,-0.0557548962533474,-0.036571405827999115,-0.0015733292093500495
165884,-1.144915223121643,0.31976696848869324,-0.014898438937962055,-0.053896963596343994,-0.03649761900305748,-0.0018229116685688496
165924,-1.1355843544006348,0.3170250952243805,-0.015431600622832775,-0.05425216257572174,-0.036877553910017014,-0.0004876505408901721
165964,-1.1260933876037598,0.3142560124397278,-0.015981143340468407,-0.05492414906620979,-0.03666478767991066,-0.0011255000717937946
166004,-1.1164427995681763,0.3114660084247589,-0.016547759994864464,-0.054765310138463974,-0.035810161381959915,-0.0013856724835932255
166044,-1.106626272201538,0.3086482584476471,-0.017114805057644844,-0.05612999200820923,-0.03292979300022125,-0.002613305114209652
166084,-1.0966438055038452,0.30579674243927,-0.017678940668702126,-0.05688164010643959,-0.03475050628185272,-0.002863449975848198
166124,-1.0865155458450317,0.3029143214225769,-0.018248744308948517,-0.057192325592041016,-0.03706900402903557,-0.0013325809268280864
166164,-1.0785564184188843,0.30066347122192383,-0.018688317388296127,-0.05825984850525856,-0.03643884137272835,-0.0005781659274362028
166204,-1.0655088424682617,0.2970169186592102,-0.019389931112527847,-0.05638815090060234,-0.0389397107064724,0.0007600832614116371
166244,-1.054883360862732,0.2940963804721832,-0.019943565130233765,-0.05708979815244675,-0.042217131704092026,0.0027948436327278614
166284,-1.0440962314605713,0.29113972187042236,-0.020476115867495537,-0.05647097900509834,-0.04540522024035454,0.003910981584340334
166324,-1.033145546913147,0.2881481349468231,-0.021016210317611694,-0.05660188943147659,-0.0460825115442276,0.0033245536033064127
166364,-1.024836540222168,0.28588640689849854,-0.021416205912828445,-0.056872088462114334,-0.04478786513209343,0.004695424344390631
166404,-1.0136324167251587,0.2828373312950134,-0.02194148488342762,-0.05879531800746918,-0.04465879127383232,0.006294467486441135
166444,-1.0022622346878052,0.27975454926490784,-0.022468140348792076,-0.05914115905761719,-0.04779188334941864,0.006967590190470219
166484,-0.9907054901123047,0.27664437890052795,-0.02297789976000786,-0.0599624328315258,-0.0470314621925354,0.008908717893064022
166524,-0.9789712429046631,0.2734996974468231,-0.02349189668893814,-0.060802146792411804,-0.0483599416911602,0.00863311905413866
166564,-0.9670681357383728,0.27032312750816345,-0.024013541638851166,-0.061451349407434464,-0.04662993550300598,0.005551333539187908
166604,-0.9549980759620667,0.2671103775501251,-0.02452780492603779,-0.06243450194597244,-0.04386517405509949,0.0035546848084777594
166644,-0.9427617192268372,0.2638694643974304,-0.025045517832040787,-0.06100284308195114,-0.045366719365119934,0.002431793138384819
166684,-0.930350124835968,0.2605977952480316,-0.025566697120666504,-0.06000254675745964,-0.04425566643476486,-0.001066660974174738
166724,-0.9177594780921936,0.25728318095207214,-0.026088746264576912,-0.06213434040546417,-0.040470197796821594,-0.0026340121403336525
166764,-0.9049935340881348,0.25394386053085327,-0.026611069217324257,-0.061821259558200836,-0.04537628963589668,-0.0017743216594681144
166804,-0.8920645713806152,0.2505853474140167,-0.02712847664952278,-0.061821985989809036,-0.04830013960599899,-0.000999898067675531
166844,-0.8789790868759155,0.24720461666584015,-0.02763228304684162,-0.06277748942375183,-0.04921237751841545,3.9131351513788104e-05
166884,-1.3620599508285522,-0.08197453618049622,-0.10649426281452179,0.1093018427491188,0.4926578402519226,-0.0036243863869458437
166924,-1.361287236213684,-0.08940193802118301,-0.10690191388130188,0.10840464383363724,0.4865751266479492,-0.004781295545399189
166964,-1.3604985475540161,-0.09691104292869568,-0.10731662809848785,0.10356485843658447,0.4830497205257416,-0.0039564501494169235
167004,-1.3597095012664795,-0.1044958084821701,-0.10774670541286469,0.10284915566444397,0.47813358902931213,-0.004705523606389761
167044,-1.3589160442352295,-0.11214201897382736,-0.10816852748394012,0.10140499472618103,0.4794405698776245,-0.004723848309367895
167084,-1.3581008911132812,-0.11986518651247025,-0.10860460996627808,0.10253965109586716,0.47505784034729004,-0.003644864074885845
167124,-1.3572765588760376,-0.12766793370246887,-0.10904601961374283,0.10026449710130692,0.4689890444278717,-0.0025029254611581564
167164,-1.3564382791519165,-0.13555367290973663,-0.10949435830116272,0.09791890531778336,0.4662412405014038,-0.0003008954518008977
167204,-1.3555796146392822,-0.14352144300937653,-0.10995698720216751,0.09558438509702682,0.46506109833717346,-0.0003725957067217678
167244,-1.3546667098999023,-0.1519773006439209,-0.11044382303953171,0.09456510096788406,0.46087610721588135,-0.0007422194466926157
167284,-1.3537436723709106,-0.16051293909549713,-0.11093468219041824,0.09316932410001755,0.4616631269454956,-0.0020422195084393024
167324,-1.3528399467468262,-0.16891993582248688,-0.11141590029001236,0.0918302908539772,0.46111512184143066,-0.0023155210074037313
167364,-1.3519424200057983,-0.17720745503902435,-0.11187780648469925,0.09158877283334732,0.45961108803749084,-0.0018065678887069225
167404,-1.35100257396698,-0.18558602035045624,-0.112334705889225,0.09043634682893753,0.4573330581188202,-0.0011922660050913692
167444,-1.468506932258606,0.16318939626216888,0.5353280901908875,0.2815801799297333,0.5725062489509583,-0.0027031712234020233
167484,-1.470545768737793,0.14958986639976501,0.5351220965385437,0.2792443335056305,0.5702071785926819,-0.0013169805752113461
167524,-1.472593069076538,0.13586881756782532,0.5349105000495911,0.2763386070728302,0.5666496157646179,-0.0007971558370627463
167564,-1.4746509790420532,0.12200665473937988,0.5347027778625488,0.27337735891342163,0.5610731244087219,-0.0011756863677874207
167604,-1.4767125844955444,0.1080114021897316,0.5345050692558289,0.2697896659374237,0.5589664578437805,-0.0019099919591099024
167644,-1.4787719249725342,0.0938885360956192,0.5343027114868164,0.2676105499267578,0.5540273785591125,-0.001586375292390585
167684,-1.480838418006897,0.07964040338993073,0.5340981483459473,0.26259416341781616,0.552095353603363,-0.0036984863691031933
167724,-1.4829012155532837,0.06525281071662903,0.5338910222053528,0.26311302185058594,0.5474362969398499,-0.0016426105285063386
167764,-1.4849506616592407,0.05073747783899307,0.5336760878562927,0.26300883293151855,0.5458857417106628,-0.00279755936935544
167804,-1.4869753122329712,0.03609485551714897,0.5334784984588623,0.25947606563568115,0.5397785305976868,-0.0006402310100384057
167844,-1.4889873266220093,0.021326925605535507,0.5333001017570496,0.25773221254348755,0.5357561707496643,-0.0005928991013206542
167884,-1.4909850358963013,0.006462876684963703,0.5331224203109741,0.2551163136959076,0.5302308797836304,0.0005722989444620907
167924,-1.4929808378219604,-0.00851215049624443,0.5329533219337463,0.2535074055194855,0.5267758369445801,0.0007093701860867441
167964,-1.4949849843978882,-0.023601610213518143,0.5327914357185364,0.2515905201435089,0.5217342972755432,0.00043306717998348176
168004,-1.4969836473464966,-0.03879782557487488,0.5326284766197205,0.2489202469587326,0.5159355998039246,0.0002922930580098182
168044,-1.4989759922027588,-0.0541105680167675,0.5324469804763794,0.24845679104328156,0.5107307434082031,0.0013279055710881948
168084,-1.5009697675704956,-0.06955389678478241,0.5322468280792236,0.24734100699424744,0.5088445544242859,0.0014398284256458282
168124,-1.5029486417770386,-0.0851154625415802,0.5320378541946411,0.24427807331085205,0.505345344543457,0.0021519106812775135
168164,-1.504921555519104,-0.1008058711886406,0.5318455100059509,0.2413707673549652,0.502400815486908,0.0005527652683667839
168204,-1.5068864822387695,-0.11662287265062332,0.5316522717475891,0.24084094166755676,0.5032028555870056,0.0019395695999264717
168244,-1.5088645219802856,-0.13255752623081207,0.5314432978630066,0.23578119277954102,0.5003388524055481,0.002613613847643137
168284,-1.5108495950698853,-0.14860869944095612,0.531211793422699,0.23391075432300568,0.4997171461582184,0.0017573003424331546
168324,-1.5128262042999268,-0.16476993262767792,0.5309818983078003,0.2308470606803894,0.49776917695999146,0.0021456023678183556
168364,-1.5147844552993774,-0.18104171752929688,0.5307443737983704,0.23058703541755676,0.49526724219322205,0.003616900881752372
168404,-1.5167245864868164,-0.1974133998155594,0.5305195450782776,0.2285171002149582,0.4911327362060547,0.005926130339503288
168444,-1.5187056064605713,-0.21430295705795288,0.5302852392196655,0.22775328159332275,0.4915590286254883,0.003221300197765231
168484,-1.5206354856491089,-0.2308938056230545,0.530036449432373,0.22392256557941437,0.4938710033893585,0.005497266538441181
168524,-1.5225669145584106,-0.24758745729923248,0.529794454574585,0.2241245061159134,0.4922623336315155,0.006098968908190727
168564,-1.5244786739349365,-0.2643739879131317,0.5295634269714355,0.221742644906044,0.48772457242012024,0.008840609341859818
168604,-1.5263593196868896,-0.2812586724758148,0.5293212532997131,0.22204634547233582,0.48665884137153625,0.008217405527830124
168644,-1.5282186269760132,-0.29825037717819214,0.5290732979774475,0.22097231447696686,0.48377394676208496,0.011415586806833744
168684,-1.5300631523132324,-0.3153495192527771,0.5288315415382385,0.21937333047389984,0.4772704839706421,0.013888243585824966
168724,-1.531886100769043,-0.3325507938861847,0.5285921692848206,0.2176487296819687,0.47282466292381287,0.01551545225083828
168764,-1.5336933135986328,-0.34985998272895813,0.5283331871032715,0.21526366472244263,0.4693846106529236,0.016486505046486855
168804,-1.5354799032211304,-0.3672924339771271,0.5280529856681824,0.2130415439605713,0.46832770109176636,0.015598428435623646
168844,-1.5372599363327026,-0.384851336479187,0.527772843837738,0.2129974365234375,0.4681607782840729,0.014001758769154549
168884,-1.539026141166687,-0.40253421664237976,0.5274843573570251,0.212149977684021,0.4654669165611267,0.014659619890153408
168924,-1.5407634973526,-0.4203278720378876,0.5271978378295898,0.2092360407114029,0.4614989459514618,0.014421573840081692
168964,-1.5424866676330566,-0.4382335841655731,0.5268987417221069,0.20663733780384064,0.46211856603622437,0.01376294530928135
169004,-1.5441900491714478,-0.4562537968158722,0.5265977382659912,0.20609024167060852,0.4601811468601227,0.01355466153472662
169044,-1.5458624362945557,-0.47440916299819946,0.5262841582298279,0.20531566441059113,0.4570753276348114,0.012302425689995289
169084,-1.547482967376709,-0.49266719818115234,0.5259743928909302,0.20113562047481537,0.4526531994342804,0.011879260651767254
169124,-1.549066424369812,-0.5110280513763428,0.5256571769714355,0.20095503330230713,0.4536730945110321,0.010349400341510773
169164,-1.550618290901184,-0.529496967792511,0.525326132774353,0.20110410451889038,0.45305293798446655,0.011096655391156673
169204,-1.5521448850631714,-0.5480765104293823,0.5249842405319214,0.19975732266902924,0.44857046008110046,0.01110010128468275
169244,-1.5536441802978516,-0.5667651891708374,0.5246558785438538,0.19993972778320312,0.44700488448143005,0.011570170521736145
169284,-1.5551015138626099,-0.5855464935302734,0.5243260264396667,0.19608117640018463,0.4437185227870941,0.010721459053456783
169324,-1.5565274953842163,-0.6044436097145081,0.5239770412445068,0.19486096501350403,0.435879111289978,0.013507814146578312
169364,-1.5579249858856201,-0.6234561204910278,0.5236064791679382,0.19276857376098633,0.43602070212364197,0.013112449087202549
169404,-1.5593239068984985,-0.6430621147155762,0.5232195854187012,0.19308900833129883,0.43187761306762695,0.01436372846364975
169444,-1.5607348680496216,-0.6632550358772278,0.5228230357170105,0.19139406085014343,0.4282146990299225,0.01628408022224903
169484,-1.5620554685592651,-0.682595431804657,0.5224297046661377,0.18966646492481232,0.42710331082344055,0.0154114356264472
169524,-1.5630604028701782,-0.6976621747016907,0.5221113562583923,0.18971911072731018,0.42708277702331543,0.016292069107294083
169564,-1.56434965133667,-0.7176938652992249,0.521683931350708,0.18824437260627747,0.4283623993396759,0.015512719750404358
169604,-1.5655770301818848,-0.7373414039611816,0.5212631821632385,0.18810299038887024,0.425444096326828,0.01663500815629959
169644,-1.566772222518921,-0.7570844888687134,0.5208360552787781,0.1870041787624359,0.42670610547065735,0.016849897801876068
169684,-1.567931890487671,-0.77692711353302,0.520408570766449,0.18736675381660461,0.425599068403244,0.014646893367171288
169724,-1.5690515041351318,-0.7968647480010986,0.5199671983718872,0.18584118783473969,0.4215627610683441,0.014855879358947277
169764,-1.5701278448104858,-0.8169105648994446,0.5195119380950928,0.18355634808540344,0.4169604778289795,0.016479667276144028
169804,-1.5711727142333984,-0.8370534777641296,0.5190611481666565,0.1816219836473465,0.4142061471939087,0.01567419245839119
169844,-1.572190284729004,-0.8572977781295776,0.518612802028656,0.18027625977993011,0.41593530774116516,0.014206935651600361
169884,-1.5731815099716187,-0.8776524662971497,0.5181641578674316,0.17895978689193726,0.4118412137031555,0.012602625414729118
169924,-1.5741264820098877,-0.8981081247329712,0.5177232623100281,0.17809897661209106,0.4108947515487671,0.013745240867137909
169964,-1.57504141330719,-0.918651819229126,0.5172640085220337,0.17582127451896667,0.40771862864494324,0.011413952335715294
170004,-1.57590913772583,-0.9392786026000977,0.516792893409729,0.17406557500362396,0.4046271741390228,0.013376491144299507
170044,-1.5767536163330078,-0.9599959254264832,0.5163361430168152,0.1704462319612503,0.404864639043808,0.012391376309096813
170084,-1.5775688886642456,-0.9808126091957092,0.5158804655075073,0.1696479469537735,0.40145185589790344,0.012367655523121357
170124,-1.578351616859436,-1.0017338991165161,0.5154209136962891,0.1705315262079239,0.39966049790382385,0.014465724118053913
170164,-1.5791008472442627,-1.0227469205856323,0.5149626731872559,0.16881543397903442,0.3967491388320923,0.014981796033680439
170204,-1.579819917678833,-1.0438669919967651,0.5145083069801331,0.165323406457901,0.3911450207233429,0.015348600223660469
170244,-1.5804774761199951,-1.0650684833526611,0.5140298008918762,0.16442565619945526,0.39198037981987,0.01479378528892994
170284,-1.5810858011245728,-1.0863617658615112,0.5135332345962524,0.16314776241779327,0.3925865590572357,0.013647438026964664
170324,-1.581670880317688,-1.1077520847320557,0.5130395293235779,0.1635422557592392,0.39305856823921204,0.01132443267852068
170364,-1.5822192430496216,-1.12925386428833,0.5125376582145691,0.16370250284671783,0.39642617106437683,0.009450274519622326
170404,-1.5827302932739258,-1.1508455276489258,0.5120227336883545,0.162608340382576,0.3922194540500641,0.008792520500719547
170444,-1.583186149597168,-1.1725056171417236,0.5115087032318115,0.16166037321090698,0.39076852798461914,0.008995835669338703
170484,-1.5836020708084106,-1.1942557096481323,0.5109938979148865,0.16033756732940674,0.38503217697143555,0.008148040622472763
170524,-1.5839834213256836,-1.2166498899459839,0.5104461312294006,0.1595516949892044,0.3859279453754425,0.0062973336316645145
170564,-1.5843123197555542,-1.2386016845703125,0.5098900198936462,0.15954215824604034,0.3824559450149536,0.005066577810794115
170604,-1.5846214294433594,-1.261764645576477,0.5092893838882446,0.15614430606365204,0.385975182056427,0.003098410787060857
170644,-1.5848838090896606,-1.283913254737854,0.508711040019989,0.1539880782365799,0.3820451498031616,0.0009495225385762751
170684,-1.5851082801818848,-1.3061432838439941,0.5081388354301453,0.15313422679901123,0.3801761567592621,0.002967220963910222
170724,-1.5852857828140259,-1.328481912612915,0.5075621008872986,0.1530221402645111,0.3791823387145996,0.003781828097999096
170764,-1.5854204893112183,-1.3509126901626587,0.5069897174835205,0.15013177692890167,0.377115935087204,0.0037269897293299437
170804,-1.5855191946029663,-1.3734264373779297,0.5064099431037903,0.15118566155433655,0.3798564374446869,0.0031151820439845324
170844,-1.5855858325958252,-1.3960349559783936,0.505832314491272,0.14751429855823517,0.37441253662109375,0.0038726769853383303
170884,-1.5856083631515503,-1.4187242984771729,0.5052454471588135,0.14665861427783966,0.3702501654624939,0.005130200181156397
170924,-1.5855847597122192,-1.441501259803772,0.5046508312225342,0.146846204996109,0.3706229627132416,0.0028212787583470345
170964,-1.5855005979537964,-1.4643665552139282,0.5040404200553894,0.14733155071735382,0.36954405903816223,0.0052930633537471294
171004,-1.585373878479004,-1.4873265027999878,0.5034131407737732,0.1472999006509781,0.3641626834869385,0.0047951145097613335
171044,-1.585185170173645,-1.5103870630264282,0.5027788877487183,0.14674939215183258,0.3626275062561035,0.004629513248801231
171084,-1.5849424600601196,-1.5335290431976318,0.5021406412124634,0.14720340073108673,0.35984933376312256,0.00520719401538372
171124,-1.5846697092056274,-1.5567511320114136,0.5014867186546326,0.14434926211833954,0.35917389392852783,0.004514836706221104
171164,-1.5843627452850342,-1.5800539255142212,0.5008378624916077,0.1448613852262497,0.3527732789516449,0.0025839521549642086
171204,-1.5839987993240356,-1.6034400463104248,0.5002034902572632,0.14387184381484985,0.3486456274986267,0.0003980063193012029
171244,-1.5835838317871094,-1.6269221305847168,0.4995732307434082,0.14086297154426575,0.34534382820129395,0.0009573290008120239
171284,-1.5831072330474854,-1.6504961252212524,0.49891921877861023,0.14115020632743835,0.3448179364204407,-0.0006948710069991648
171324,-1.5825581550598145,-1.6741522550582886,0.49824097752571106,0.13730494678020477,0.34346482157707214,-0.0020370653364807367
171364,-1.581948161125183,-1.6978832483291626,0.49754461646080017,0.1375218778848648,0.3459518253803253,-0.002239787485450506
171404,-1.5812736749649048,-1.7217121124267578,0.49684858322143555,0.13767606019973755,0.3436706066131592,-0.0005944722797721624
171444,-1.5805339813232422,-1.7456207275390625,0.49613648653030396,0.135911762714386,0.3421441316604614,-0.0006435412797145545
171484,-1.579722285270691,-1.7696267366409302,0.4954153597354889,0.13693466782569885,0.34031182527542114,-0.003014109330251813
171524,-1.5788522958755493,-1.7937283515930176,0.49469029903411865,0.13542026281356812,0.3391420245170593,-0.0038174765650182962
171564,-1.5779403448104858,-1.8179069757461548,0.4939591586589813,0.13372859358787537,0.3360305726528168,-0.004196035210043192
171604,-1.576939344406128,-1.8427739143371582,0.4932096302509308,0.1330322027206421,0.3361852169036865,-0.004225826822221279
171644,-1.5758904218673706,-1.8671073913574219,0.49248749017715454,0.13239426910877228,0.3349725902080536,-0.0036184450145810843
171684,-1.5747748613357544,-1.8915146589279175,0.4917445480823517,0.13013409078121185,0.33013540506362915,-0.0031274110078811646
171724,-1.5735931396484375,-1.9160139560699463,0.4909922182559967,0.12849661707878113,0.32660606503486633,-0.0029325124341994524
171764,-1.5723578929901123,-1.940600872039795,0.4902264177799225,0.12624546885490417,0.3252958655357361,-0.001964619616046548
171804,-1.571061372756958,-1.9652923345565796,0.48946231603622437,0.1271362602710724,0.32421907782554626,-0.004156938754022121
171844,-1.5696885585784912,-1.9900707006454468,0.48869872093200684,0.12517794966697693,0.31896737217903137,-0.0052673653699457645
171884,-1.5682406425476074,-2.014932155609131,0.48793691396713257,0.12368045747280121,0.3172270953655243,-0.00610697828233242
171924,-1.5667014122009277,-2.03987193107605,0.48716989159584045,0.1208406612277031,0.31337472796440125,-0.006269222125411034
171964,-1.5650863647460938,-2.064892053604126,0.48639005422592163,0.12093427032232285,0.3100127875804901,-0.006770635489374399
172004,-1.5633935928344727,-2.0899813175201416,0.48559415340423584,0.12081950157880783,0.30885687470436096,-0.0060621327720582485
172044,-1.5616395473480225,-2.1151506900787354,0.484778493642807,0.11667021363973618,0.30956676602363586,-0.008311494253575802
172084,-1.5598440170288086,-2.140415906906128,0.48394522070884705,0.11585104465484619,0.3066648840904236,-0.009021561592817307
172124,-1.5579848289489746,-2.165761709213257,0.4831049144268036,0.1130916103720665,0.3050461411476135,-0.011028955690562725
172164,-1.556075096130371,-2.191192150115967,0.4822613298892975,0.11066881567239761,0.3037230670452118,-0.009874863550066948
172204,-1.5541096925735474,-2.2167069911956787,0.4814102053642273,0.10929656028747559,0.30141687393188477,-0.010012603364884853
172244,-1.5520918369293213,-2.242295026779175,0.4805486500263214,0.10806266963481903,0.300728976726532,-0.011543151922523975
172284,-1.5499924421310425,-2.2679615020751953,0.47966742515563965,0.1076916977763176,0.29667529463768005,-0.012047036550939083
172324,-1.5478150844573975,-2.2937169075012207,0.478780597448349,0.10602418333292007,0.29095351696014404,-0.013331861235201359
172364,-1.5455559492111206,-2.319568395614624,0.4778744578361511,0.10207287222146988,0.28816118836402893,-0.011152142658829689
172404,-1.5432336330413818,-2.3455207347869873,0.4769527018070221,0.10151408612728119,0.2885384261608124,-0.010364526882767677
172444,-1.5408316850662231,-2.3715620040893555,0.4760296642780304,0.10110726952552795,0.2886994779109955,-0.00982458796352148
172484,-1.5383479595184326,-2.397686719894409,0.4751036763191223,0.10113134235143661,0.28947699069976807,-0.00859288964420557
172524,-1.5357983112335205,-2.423889398574829,0.47418004274368286,0.09749208390712738,0.2872433364391327,-0.007559544872492552
172564,-1.5331774950027466,-2.4501821994781494,0.47325634956359863,0.09820449352264404,0.2826659083366394,-0.006782103795558214
172604,-1.530484676361084,-2.4765472412109375,0.4723212718963623,0.0970422551035881,0.2814118266105652,-0.005934065207839012
172644,-1.527650237083435,-2.503638744354248,0.47135913372039795,0.09625254571437836,0.27828729152679443,-0.008244498632848263
172684,-1.5245743989944458,-2.5321218967437744,0.4703541696071625,0.09687428921461105,0.27652961015701294,-0.010902157984673977
172724,-1.5222914218902588,-2.552701711654663,0.4696402847766876,0.09610487520694733,0.2765974998474121,-0.008625824935734272
172764,-0.3110640347003937,-5.154361248016357,0.3218837380409241,0.44776904582977295,0.0778445303440094,-0.009000029414892197
172804,-0.2966155707836151,-5.202581882476807,0.32057610154151917,0.4483082592487335,0.07603016495704651,-0.007875481620430946
172844,-0.2820427119731903,-5.250975131988525,0.319275826215744,0.4439626634120941,0.07159166783094406,-0.008112020790576935
172884,-0.26733827590942383,-5.299549102783203,0.3179698586463928,0.4411891996860504,0.07440951466560364,-0.008531725965440273
172924,-0.25250640511512756,-5.348297119140625,0.3166557252407074,0.4378789961338043,0.07378988713026047,-0.01038683857768774
172964,-0.23755012452602386,-5.397221565246582,0.31533440947532654,0.4367138743400574,0.07150456309318542,-0.010865695774555206
173004,-0.2224593162536621,-5.446338176727295,0.31401556730270386,0.4325994849205017,0.06851610541343689,-0.009204700589179993
173044,-0.20723940432071686,-5.495638847351074,0.31269004940986633,0.4291570782661438,0.06890326738357544,-0.007626036647707224
173084,-0.191896453499794,-5.54511833190918,0.311358779668808,0.42751604318618774,0.06830459088087082,-0.005534400697797537
173124,-0.17643611133098602,-5.5947723388671875,0.31002330780029297,0.4267686605453491,0.06759516894817352,-0.005652539897710085
173164,-0.16084399819374084,-5.644596099853516,0.30867183208465576,0.4249236583709717,0.06853701174259186,-0.004593770019710064
173204,-0.14512071013450623,-5.694587230682373,0.307317852973938,0.4212242066860199,0.0666901245713234,-0.003963652532547712
173244,-0.12926803529262543,-5.744731903076172,0.30595457553863525,0.4184509217739105,0.06058856472373009,-0.0013269385090097785
173284,-0.11327758431434631,-5.7950310707092285,0.3045893609523773,0.416999489068985,0.059415772557258606,0.001775830751284957
173324,-0.0971594750881195,-5.845480918884277,0.30321937799453735,0.4147898256778717,0.05712969973683357,-0.0005940314731560647
173364,-0.08091217279434204,-5.8960862159729,0.3018544912338257,0.4150639772415161,0.052915219217538834,-0.0009167540702037513
173404,-0.06453568488359451,-5.94686222076416,0.30048730969429016,0.411831259727478,0.05196414142847061,-0.0010463838698342443
173444,-0.04803546890616417,-5.997795581817627,0.2991168200969696,0.40889862179756165,0.05284394323825836,-0.0023120404221117496
173484,-0.0314064547419548,-6.048892498016357,0.29771825671195984,0.408308744430542,0.05098184943199158,-0.0026237699203193188
173524,-0.014615552499890327,-6.100149631500244,0.29630962014198303,0.40446633100509644,0.04847138747572899,-0.0021901498548686504
173564,0.002321294043213129,-6.151551723480225,0.29491737484931946,0.4012691378593445,0.04929863288998604,-0.0012579120229929686
173604,0.019376114010810852,-6.203114032745361,0.29351571202278137,0.3994177281856537,0.04846978187561035,-0.0032968646846711636
173644,0.03656638413667679,-6.254848480224609,0.29209285974502563,0.3955655097961426,0.045703593641519547,-0.003038529073819518
173684,0.05389220267534256,-6.306735515594482,0.29067641496658325,0.39399778842926025,0.046788640320301056,-0.0014274336863309145
173724,0.07135828584432602,-6.3587775230407715,0.28926610946655273,0.3907639682292938,0.04847685992717743,-0.0006691766320727766
173764,0.08894291520118713,-6.410981178283691,0.2878526449203491,0.38614583015441895,0.049019407480955124,-0.001900354167446494
173804,0.10665684938430786,-6.463339328765869,0.28644561767578125,0.38408493995666504,0.04782610759139061,-0.0037810197100043297
173844,0.1254124641418457,-6.51847505569458,0.2849792540073395,0.38293734192848206,0.04393065348267555,-0.0015516083221882582
173884,0.1438744068145752,-6.572449207305908,0.2835513949394226,0.38095200061798096,0.044112998992204666,-0.0022877287119627
173924,0.16247351467609406,-6.626577854156494,0.2821318507194519,0.3772108852863312,0.04521287977695465,-0.00015840302512515336
173964,0.18120187520980835,-6.68087911605835,0.2806994915008545,0.37262848019599915,0.0428985096514225,0.0012059506261721253
174004,0.1996006816625595,-6.734004497528076,0.27929002046585083,0.37057000398635864,0.041408028453588486,0.0015164146898314357
174044,0.21812289953231812,-6.7872724533081055,0.2778768837451935,0.36832061409950256,0.03882364183664322,0.002319969469681382
174084,0.23676517605781555,-6.840689182281494,0.27647098898887634,0.36499762535095215,0.03827783837914467,0.003760050982236862
174124,0.2555452883243561,-6.894277095794678,0.2750590741634369,0.3621567487716675,0.03569289296865463,0.0036277424078434706
174164,0.27447009086608887,-6.948021411895752,0.27363619208335876,0.36109617352485657,0.032332371920347214,0.0036304336972534657
174204,0.29354000091552734,-7.001914024353027,0.2722003757953644,0.358374685049057,0.028255149722099304,0.005641455762088299
174244,0.3127654492855072,-7.0559797286987305,0.27075284719467163,0.35519301891326904,0.027971437200903893,0.00512842508032918
174284,0.3321477770805359,-7.110198974609375,0.2692928612232208,0.35443684458732605,0.027969198301434517,0.004082430154085159
174324,0.35168761014938354,-7.164557933807373,0.26782092452049255,0.3508712649345398,0.027506129816174507,0.0030034238006919622
174364,0.37137898802757263,-7.21907377243042,0.2663274109363556,0.3484576940536499,0.027983300387859344,0.0024673037696629763
174404,0.3912254273891449,-7.273739814758301,0.26481571793556213,0.3482036590576172,0.027811145409941673,0.0010204552672803402
174444,0.41122809052467346,-7.328559398651123,0.26330915093421936,0.3464013934135437,0.026308100670576096,0.00017518465756438673
174484,0.4313708245754242,-7.383535861968994,0.26179826259613037,0.34449759125709534,0.021079614758491516,0.001693860744126141
174524,0.45165401697158813,-7.438669204711914,0.2602899372577667,0.3440473973751068,0.021633407101035118,-0.0014383913949131966
174564,0.4720909297466278,-7.493941307067871,0.25877949595451355,0.3402484953403473,0.024682290852069855,-0.0008431890746578574
174604,0.49267563223838806,-7.5493550300598145,0.25728005170822144,0.3387615382671356,0.022887108847498894,-0.0007183000561781228
174644,0.5134046673774719,-7.604903697967529,0.2557865381240845,0.33690690994262695,0.026715263724327087,-0.0008444216218777001
174684,0.5342824459075928,-7.660588264465332,0.2542973756790161,0.3326297402381897,0.022356105968356133,-0.0013042360078543425
174724,0.5552945733070374,-7.716411113739014,0.25279998779296875,0.32830312848091125,0.02016301639378071,-0.0003677472996059805
174764,0.5764306783676147,-7.772374153137207,0.2513017952442169,0.32784751057624817,0.02010088786482811,-0.0007282496662810445
174804,0.5976930260658264,-7.828486919403076,0.24980658292770386,0.3230416178703308,0.017671259120106697,0.00025539571652188897
174844,0.6191044449806213,-7.884746074676514,0.248310849070549,0.3194345533847809,0.01697441004216671,0.0028408640064299107
174884,0.6406697630882263,-7.941154956817627,0.24680383503437042,0.31731125712394714,0.015543033368885517,0.0035065924748778343
174924,0.662375271320343,-7.9977216720581055,0.2452990859746933,0.315605491399765,0.01586907170712948,0.0029787463136017323
174964,0.6847692131996155,-8.055855751037598,0.24373815953731537,0.31500035524368286,0.013623957522213459,0.00421490240842104
175004,0.7067698240280151,-8.112727165222168,0.24220174551010132,0.3123628497123718,0.014391082338988781,0.003732074983417988
175044,0.7289147973060608,-8.16975212097168,0.24066445231437683,0.30949103832244873,0.016423676162958145,0.00365803437307477
175084,0.7511837482452393,-8.226926803588867,0.23909622430801392,0.30730220675468445,0.020950255915522575,0.0044065723195672035
175124,0.7735942006111145,-8.284238815307617,0.23752032220363617,0.30324694514274597,0.02075113356113434,0.00442834896966815
175164,0.7961347103118896,-8.341691017150879,0.23594504594802856,0.29955947399139404,0.01967734284698963,0.0048364512622356415
175204,0.818821132183075,-8.399273872375488,0.23437219858169556,0.29898563027381897,0.020312301814556122,0.0033109846990555525
175244,0.8416528701782227,-8.457001686096191,0.23281212151050568,0.2982301115989685,0.024394650012254715,0.0019769149366766214
175284,0.8646324276924133,-8.514863967895508,0.2312455177307129,0.29681211709976196,0.023718321695923805,0.00047017697943374515
175324,0.8877491354942322,-8.572858810424805,0.22966048121452332,0.29468321800231934,0.023743761703372,0.00035921778180636466
175364,0.9109991192817688,-8.630990028381348,0.22806991636753082,0.29052630066871643,0.02309047244489193,-0.0011245700297877192
175404,0.9343839287757874,-8.689248085021973,0.2264637053012848,0.2854781448841095,0.021650703623890877,-0.0007461042841896415
175444,0.9579188227653503,-8.747614860534668,0.22484153509140015,0.2846421003341675,0.022808415815234184,0.0021577002480626106
175484,0.9815977215766907,-8.806113243103027,0.22320590913295746,0.28234654664993286,0.019742829725146294,0.0027555262204259634
175524,1.0054244995117188,-8.864747047424316,0.22157086431980133,0.2785413861274719,0.019867949187755585,0.0025261733680963516
175564,1.0293790102005005,-8.923514366149902,0.21993359923362732,0.27663251757621765,0.0206453837454319,0.0022783437743782997
175604,1.053469181060791,-8.982407569885254,0.21828587353229523,0.2760431468486786,0.019692817702889442,0.001959090353921056
175644,1.0776939392089844,-9.0414457321167,0.21662990748882294,0.27472248673439026,0.022293344140052795,0.00152833282481879
175684,1.1020636558532715,-9.10061264038086,0.2149573117494583,0.27223992347717285,0.02471303567290306,-9.670201689004898e-05
175724,1.1265664100646973,-9.15990161895752,0.21327239274978638,0.27080899477005005,0.022335916757583618,-0.0005502841086126864
175764,1.1512106657028198,-9.219304084777832,0.2115875780582428,0.27170509099960327,0.02223316580057144,-0.0005487187299877405
175804,1.1759986877441406,-9.278827667236328,0.20990854501724243,0.26799729466438293,0.02281726524233818,-0.0012629812117666006
175844,1.2009239196777344,-9.33846664428711,0.20822791755199432,0.26478108763694763,0.023287614807486534,-0.002147994004189968
175884,1.2260040044784546,-9.398222923278809,0.2065667361021042,0.26307767629623413,0.02532227709889412,0.00039522562292404473
175924,1.2512332201004028,-9.458102226257324,0.20490464568138123,0.2615654766559601,0.026006901636719704,0.0017305129440501332
175964,1.277231216430664,-9.519625663757324,0.2031857669353485,0.2599628269672394,0.024923747405409813,0.0017323266947641969
176004,1.2969887256622314,-9.566232681274414,0.20188158750534058,0.2603960335254669,0.02404671534895897,0.004748382139950991
176044,1.323246955871582,-9.6279935836792,0.20015086233615875,0.25898438692092896,0.023349901661276817,0.004814476240426302
176084,1.3503077030181885,-9.691390991210938,0.1983913779258728,0.25533273816108704,0.021072451025247574,0.007467665709555149
176124,1.3768773078918457,-9.75341510772705,0.19666998088359833,0.255950927734375,0.019820837303996086,0.007674027234315872
176164,1.4029384851455688,-9.814037322998047,0.194985494017601,0.25210559368133545,0.017077812924981117,0.008329552598297596
176204,1.4291329383850098,-9.874761581420898,0.19328336417675018,0.24889421463012695,0.02036307007074356,0.010075856931507587
176244,1.4554370641708374,-9.935598373413086,0.19158637523651123,0.24806523323059082,0.021510690450668335,0.009158150292932987
176284,1.481876015663147,-9.996563911437988,0.18987692892551422,0.246297225356102,0.021482735872268677,0.008507335558533669
176324,1.508441686630249,-10.057657241821289,0.1881568729877472,0.2436618059873581,0.01867474801838398,0.00808658730238676
176364,1.535145878791809,-10.118853569030762,0.18642883002758026,0.24266377091407776,0.017177490517497063,0.007516636047512293
176404,1.5619785785675049,-10.180148124694824,0.1846780627965927,0.23969507217407227,0.014773000031709671,0.008104328066110611
176444,1.5889613628387451,-10.241551399230957,0.1829114407300949,0.24086759984493256,0.013632886111736298,0.006416677962988615
176484,1.6160906553268433,-10.30307674407959,0.1811588555574417,0.2389838993549347,0.012515797279775143,0.006859256885945797
176524,1.643356442451477,-10.36472225189209,0.17938342690467834,0.2364378422498703,0.014769760891795158,0.005616684909909964
176564,1.6707528829574585,-10.426492691040039,0.1775979995727539,0.23273305594921112,0.010848800651729107,0.00680922856554389
176604,1.698291540145874,-10.488373756408691,0.17580437660217285,0.23262353241443634,0.008443329483270645,0.006025358103215694
176644,1.7259756326675415,-10.550366401672363,0.1740046888589859,0.2317151427268982,0.00607174402102828,0.006485265213996172
176684,1.7538225650787354,-10.612479209899902,0.17219305038452148,0.23013469576835632,0.003792035859078169,0.006304845679551363
176724,1.781836748123169,-10.67470645904541,0.17038117349147797,0.22746922075748444,0.0028834680560976267,0.008063233457505703
176764,1.8100022077560425,-10.737051010131836,0.16857299208641052,0.22526288032531738,-0.0004669352201744914,0.007605712860822678
176804,1.838311791419983,-10.799510955810547,0.1667586863040924,0.2233089953660965,0.0019177829381078482,0.005885329097509384
176844,1.8667705059051514,-10.86209487915039,0.1649423986673355,0.2216709554195404,0.0008445854182355106,0.005343531258404255
176884,1.8953744173049927,-10.924788475036621,0.1631307750940323,0.21942010521888733,0.004659783560782671,0.004948778077960014
176924,1.9241297245025635,-10.987590789794922,0.1613047569990158,0.21815717220306396,0.001539494376629591,0.0052050938829779625
176964,1.9530341625213623,-11.05049991607666,0.15948344767093658,0.21481935679912567,-0.001290968619287014,0.0071600754745304585
177004,1.9820865392684937,-11.113517761230469,0.15766005218029022,0.2122889906167984,-0.004104419611394405,0.004705115687102079
177044,2.011289119720459,-11.17664623260498,0.15580503642559052,0.21085581183433533,-0.007485380861908197,0.004453778266906738
177084,2.040637731552124,-11.239883422851562,0.15395009517669678,0.2093477100133896,-0.012278676964342594,0.0042373682372272015
177124,2.070870876312256,-11.304793357849121,0.1520409733057022,0.20785658061504364,-0.014984467066824436,0.0016444041393697262
177164,2.101997137069702,-11.37137222290039,0.15005776286125183,0.20787519216537476,-0.015223808586597443,0.0030600253958255053
177204,2.1317861080169678,-11.434879302978516,0.1481723040342331,0.20724605023860931,-0.013619659468531609,0.001792187918908894
177244,2.162476062774658,-11.50007438659668,0.14624015986919403,0.20814847946166992,-0.017124945297837257,0.0019724604208022356
177284,2.192556619644165,-11.563783645629883,0.14434348046779633,0.20751234889030457,-0.018807949498295784,0.0027877504471689463
177324,2.222785711288452,-11.627601623535156,0.14245396852493286,0.20487046241760254,-0.019442282617092133,0.002674582414329052
177364,2.2531609535217285,-11.691527366638184,0.14053890109062195,0.20214442908763885,-0.022019587457180023,0.0017720867181196809
177404,2.283684730529785,-11.755561828613281,0.1386076807975769,0.2007983922958374,-0.023337623104453087,0.0005321293720044196
177444,2.3143506050109863,-11.819693565368652,0.13667984306812286,0.20115090906620026,-0.023032210767269135,-0.0002613389224279672
177484,2.34515118598938,-11.883926391601562,0.13474826514720917,0.20179301500320435,-0.023670800030231476,-0.002507958095520735
177524,2.3761003017425537,-11.948262214660645,0.13280995190143585,0.19885779917240143,-0.024872438982129097,-0.0020912911277264357
177564,2.407201051712036,-12.012703895568848,0.13086847960948944,0.19760066270828247,-0.027327481657266617,-0.001794790499843657
177604,2.438452959060669,-12.077254295349121,0.12891785800457,0.19381192326545715,-0.029858291149139404,-0.003202208550646901
177644,2.469860076904297,-12.14191722869873,0.12696750462055206,0.19353897869586945,-0.02958555333316326,-0.0024681740906089544
177684,2.5014150142669678,-12.20668888092041,0.1250026822090149,0.19271379709243774,-0.03460639715194702,-0.003223652020096779
177724,2.533139705657959,-12.271576881408691,0.12303277105093002,0.19066160917282104,-0.035915177315473557,-0.0029320677276700735
177764,2.5650246143341064,-12.336560249328613,0.1210520789027214,0.1871490478515625,-0.03914833068847656,-0.0008154668030329049
177804,2.5970709323883057,-12.401632308959961,0.11905704438686371,0.18378663063049316,-0.040173884481191635,-0.0016703655710443854
177844,2.6292974948883057,-12.466795921325684,0.11704590916633606,0.18189983069896698,-0.043225228786468506,-0.0013181987451389432
177884,2.6616806983947754,-12.53207778930664,0.1150389090180397,0.18079407513141632,-0.041379041969776154,-0.0008387170382775366
177924,2.694211483001709,-12.597482681274414,0.11303481459617615,0.1793956607580185,-0.04507073014974594,-0.002320279832929373
177964,2.726881980895996,-12.662978172302246,0.11103227734565735,0.17677991092205048,-0.046227965503931046,-0.0012790113687515259
178004,2.7597122192382812,-12.728569030761719,0.10901614278554916,0.17392876744270325,-0.04806186258792877,-0.0003999066539108753
178044,2.792694568634033,-12.794255256652832,0.1069905161857605,0.17222854495048523,-0.047029539942741394,0.0007656589150428772
178084,2.825836420059204,-12.860040664672852,0.10496635735034943,0.1731279194355011,-0.04751735180616379,-0.0011081178672611713
178124,2.859137773513794,-12.925902366638184,0.1029324159026146,0.1723378449678421,-0.04948197677731514,-0.0008822929812595248
178164,2.892594575881958,-12.991859436035156,0.10089423507452011,0.1707615703344345,-0.05052105709910393,0.00015504918701481074
178204,2.926212787628174,-13.057908058166504,0.09885066747665405,0.16976489126682281,-0.049389686435461044,0.00031154369935393333
178244,2.961686134338379,-13.127363204956055,0.0966949313879013,0.16733068227767944,-0.052552610635757446,0.00211981195025146
178284,2.995637893676758,-13.193621635437012,0.09462811797857285,0.1661902517080307,-0.05259403958916664,0.0022976496256887913
178324,3.0220608711242676,-13.245034217834473,0.09302176535129547,0.16700240969657898,-0.050088804215192795,0.00023011694429442286
178364,3.056288480758667,-13.311469078063965,0.09094464778900146,0.16611240804195404,-0.054554469883441925,0.0005043409182690084
178404,3.0906801223754883,-13.378016471862793,0.08887647837400436,0.16470599174499512,-0.05471691116690636,-8.086906018434092e-05
178444,3.125227689743042,-13.444652557373047,0.08680745959281921,0.1620396375656128,-0.053380005061626434,0.0013144297990947962
178484,3.15993332862854,-13.511378288269043,0.08473460376262665,0.1589079648256302,-0.053454410284757614,0.0009766027797013521
178524,3.19480299949646,-13.578217506408691,0.08265978842973709,0.15511636435985565,-0.051637232303619385,-0.0006480226293206215
178564,3.2298388481140137,-13.645159721374512,0.08059111982584,0.15517683327198029,-0.05152644217014313,-0.002394438488408923
178604,3.2650227546691895,-13.712196350097656,0.07852533459663391,0.1541764885187149,-0.05389324203133583,-0.0008893155609257519
178644,3.300379753112793,-13.779339790344238,0.07645531743764877,0.15074096620082855,-0.05626601353287697,0.003695806721225381
178684,3.335883617401123,-13.84658145904541,0.07439135760068893,0.14893849194049835,-0.05450299009680748,0.005517196841537952
178724,3.371554136276245,-13.913908004760742,0.0723276138305664,0.14582471549510956,-0.05750670284032822,0.005419339053332806
178764,3.407383680343628,-13.981315612792969,0.0702696219086647,0.14411453902721405,-0.05572281405329704,0.002992686815559864
178804,3.4433743953704834,-14.04879379272461,0.06820376217365265,0.1406606286764145,-0.056783922016620636,0.004274689592421055
178844,3.4795360565185547,-14.116348266601562,0.06612944602966309,0.1385839432477951,-0.06056348979473114,0.005492999218404293
178884,3.5158653259277344,-14.183989524841309,0.0640590637922287,0.13609857857227325,-0.0607183501124382,0.006446494720876217
178924,3.5523533821105957,-14.25173568725586,0.06200093403458595,0.13317666947841644,-0.06423928588628769,0.007360740564763546
178964,3.589016914367676,-14.31956672668457,0.05995049700140953,0.13426631689071655,-0.06555885076522827,0.005093795713037252
179004,3.625843048095703,-14.38748550415039,0.05791449174284935,0.13299037516117096,-0.06431341916322708,0.0059043332003057
179044,3.6628363132476807,-14.4555025100708,0.05587814003229141,0.13214664161205292,-0.06739653646945953,0.006907307542860508
179084,3.699998617172241,-14.523608207702637,0.0538647286593914,0.1296262890100479,-0.06601344048976898,0.007785153109580278
179124,3.7373175621032715,-14.59180736541748,0.05185295268893242,0.12769997119903564,-0.06527137756347656,0.007127860561013222
179164,3.774789810180664,-14.660088539123535,0.04983405023813248,0.12589585781097412,-0.06419885158538818,0.005378445610404015
179204,3.8124165534973145,-14.728463172912598,0.047794271260499954,0.12671472132205963,-0.06763012707233429,0.005610976368188858
179244,3.8502185344696045,-14.796926498413086,0.0457586944103241,0.12633974850177765,-0.06734013557434082,0.0053824977949261665
179284,3.889124870300293,-14.867198944091797,0.04366776719689369,0.12445719540119171,-0.06197010353207588,0.005595691502094269
179324,3.9272565841674805,-14.935851097106934,0.041650913655757904,0.12177474051713943,-0.06497680395841599,0.006392620038241148
179364,3.9665098190307617,-15.006308555603027,0.039590492844581604,0.12155105173587799,-0.06316045671701431,0.006901473738253117
179404,4.0059494972229,-15.07686710357666,0.03752558305859566,0.11965510249137878,-0.06637775897979736,0.01000138372182846
179444,4.046541690826416,-15.149215698242188,0.035391684621572495,0.11885646730661392,-0.06730518490076065,0.01015483122318983
179484,4.085376739501953,-15.218191146850586,0.033355001360177994,0.11755293607711792,-0.07228948175907135,0.012301331385970116
179524,4.124375343322754,-15.28725814819336,0.031318873167037964,0.11527186632156372,-0.07384747266769409,0.012454207986593246
179564,4.1635260581970215,-15.356419563293457,0.02925392985343933,0.11260836571455002,-0.0764213427901268,0.014192495495080948
179604,4.2028398513793945,-15.425664901733398,0.027173858135938644,0.10888370126485825,-0.07650263607501984,0.014241130091249943
179644,4.2423200607299805,-15.495002746582031,0.02509007416665554,0.10878189653158188,-0.07295116782188416,0.012686279602348804
179684,4.281948566436768,-15.564423561096191,0.022997822612524033,0.10773473978042603,-0.07463975995779037,0.015832634642720222
179724,4.321731090545654,-15.633923530578613,0.020883487537503242,0.10590146481990814,-0.07531260699033737,0.017116744071245193
179764,4.36167049407959,-15.703516960144043,0.01875954307615757,0.10495392978191376,-0.07459085434675217,0.01560689602047205
179804,4.40175724029541,-15.77319622039795,0.016638295724987984,0.10528568923473358,-0.07073406875133514,0.015121610835194588
179844,4.442005634307861,-15.842958450317383,0.014518978074193,0.10382089763879776,-0.07082665711641312,0.015843236818909645
179884,4.482390880584717,-15.91281509399414,0.012397125363349915,0.10270511358976364,-0.07115978747606277,0.018036559224128723
179924,4.522948741912842,-15.982754707336426,0.010263628326356411,0.1021558940410614,-0.07419779896736145,0.020732473582029343
179964,4.5636796951293945,-16.05276870727539,0.008129660040140152,0.10068167746067047,-0.07082474231719971,0.020975643768906593
180004,4.604573726654053,-16.12285804748535,0.005995640531182289,0.09889441728591919,-0.0727507546544075,0.019659284502267838
180044,4.6456193923950195,-16.19302749633789,0.0038510053418576717,0.09816306829452515,-0.07473603636026382,0.018589608371257782
180084,4.686809062957764,-16.263269424438477,0.0017082076519727707,0.09529611468315125,-0.07791060209274292,0.02096668630838394
180124,4.728151321411133,-16.333608627319336,-0.00043432717211544514,0.09281779080629349,-0.08112063258886337,0.02068829908967018
180164,4.769653797149658,-16.404041290283203,-0.002569582313299179,0.09124691039323807,-0.08100228756666183,0.02005849964916706
180204,4.8113250732421875,-16.474563598632812,-0.004709336906671524,0.08944874256849289,-0.08239024132490158,0.01999650150537491
180244,4.853161334991455,-16.54517364501953,-0.0068601323291659355,0.09024780988693237,-0.08366274833679199,0.0194002166390419
180284,4.895159721374512,-16.615856170654297,-0.009023893624544144,0.09107248485088348,-0.08192957192659378,0.020413290709257126
180324,4.93733549118042,-16.686622619628906,-0.01120688859373331,0.09105456620454788,-0.07936984300613403,0.021457916125655174
180364,4.9796929359436035,-16.757482528686523,-0.013394152745604515,0.08934907615184784,-0.07934308797121048,0.02275182493031025
180404,5.022214889526367,-16.828428268432617,-0.015590444207191467,0.0885983258485794,-0.07634450495243073,0.02398616261780262
180444,5.064919471740723,-16.899456024169922,-0.01779562421143055,0.08798414468765259,-0.07597052305936813,0.02157585881650448
180484,5.107786178588867,-16.970558166503906,-0.020006174221634865,0.08711890876293182,-0.07436731457710266,0.01923278719186783
180524,5.151895523071289,-17.043508529663086,-0.022275565192103386,0.08600396662950516,-0.07596861571073532,0.021488137543201447
180564,5.195076942443848,-17.11473846435547,-0.02449307218194008,0.0829928070306778,-0.0774151012301445,0.022371932864189148
180604,5.238423824310303,-17.18604850769043,-0.026717137545347214,0.08332233130931854,-0.07902759313583374,0.024989375844597816
180644,5.281938552856445,-17.257423400878906,-0.028952673077583313,0.08158363401889801,-0.07872512936592102,0.024538876488804817
