Timestamp,stateEstimate.x,stateEstimate.y,stateEstimate.z,stateEstimate.roll,stateEstimate.pitch,stateEstimate.yaw
454680,-0.01895732991397381,0.2315801978111267,0.2299865186214447,-0.2516557574272156,0.41000255942344666,2.6054606437683105
454720,-0.017389390617609024,0.22726275026798248,0.22535976767539978,-0.22305545210838318,0.40631169080734253,2.5921201705932617
454760,-0.021455492824316025,0.22333639860153198,0.22794127464294434,-0.1958089917898178,0.4284926652908325,2.5769286155700684
454800,-0.017185090109705925,0.22249236702919006,0.2312013804912567,-0.19692835211753845,0.4077056348323822,2.5669050216674805
454840,-0.0096663823351264,0.21729344129562378,0.23169945180416107,-0.16380736231803894,0.3696032166481018,2.5532233715057373
454880,-0.014099342748522758,0.22046668827533722,0.22514495253562927,-0.1952139288187027,0.3992627263069153,2.543517589569092
454920,-0.01778438687324524,0.2192186862230301,0.22726377844810486,-0.19295558333396912,0.4202427566051483,2.5291004180908203
454960,-0.016343209892511368,0.22604596614837646,0.228325754404068,-0.2378786951303482,0.4132377803325653,2.520850419998169
455000,-0.02009720355272293,0.22658610343933105,0.22855065762996674,-0.24499431252479553,0.43363216519355774,2.5109288692474365
455040,-0.01861991547048092,0.23153766989707947,0.2245897501707077,-0.26807790994644165,0.4330979883670807,2.5019142627716064
455080,-0.020604904741048813,0.22998687624931335,0.2249417006969452,-0.26078903675079346,0.44493481516838074,2.489495277404785
455120,-0.016023501753807068,0.22711873054504395,0.2287401407957077,-0.24335996806621552,0.4161761701107025,2.473193407058716
455160,-0.009134970605373383,0.22411242127418518,0.23053501546382904,-0.2192891538143158,0.3757832944393158,2.4600727558135986
455200,-0.01047205738723278,0.21591320633888245,0.23260420560836792,-0.17310532927513123,0.39438456296920776,2.448845148086548
455240,-0.008026338182389736,0.21885310113430023,0.2360156625509262,-0.19238097965717316,0.3779626488685608,2.4397220611572266
455280,-0.012518265284597874,0.21743720769882202,0.2371077835559845,-0.1843794286251068,0.4101783037185669,2.4319682121276855
455320,-0.012310406193137169,0.2159850150346756,0.23964813351631165,-0.17855873703956604,0.4083837866783142,2.4219465255737305
455360,-0.014636089093983173,0.21213984489440918,0.2390209436416626,-0.1618235558271408,0.43386679887771606,2.4133572578430176
455400,-0.017546338960528374,0.21877837181091309,0.2307860553264618,-0.2045757919549942,0.4594639241695404,2.4028682708740234
455440,-0.02259613573551178,0.21805855631828308,0.22699879109859467,-0.19936583936214447,0.49629640579223633,2.395787239074707
455480,-0.021416546776890755,0.22028212249279022,0.23277786374092102,-0.21419760584831238,0.5000515580177307,2.3831818103790283
455520,-0.01811791956424713,0.2234078198671341,0.23749354481697083,-0.23437952995300293,0.47591981291770935,2.36665678024292
455560,-0.017394276335835457,0.2174505740404129,0.23624330759048462,-0.20911335945129395,0.4789181649684906,2.359606981277466
455600,-0.017806073650717735,0.2141498476266861,0.23530039191246033,-0.19265811145305634,0.48920369148254395,2.3534231185913086
455640,-0.017701124772429466,0.21271030604839325,0.23516517877578735,-0.1770123839378357,0.5048978328704834,2.3485500812530518
455680,-0.015757156535983086,0.2125527560710907,0.2420751005411148,-0.18211393058300018,0.49905121326446533,2.3335390090942383
455720,-0.019753867760300636,0.21986918151378632,0.241786926984787,-0.23049907386302948,0.5191132426261902,2.3198585510253906
455760,-0.01854417845606804,0.21874462068080902,0.24857188761234283,-0.23258142173290253,0.5117416381835938,2.3111608028411865
455800,-0.020424701273441315,0.2190159559249878,0.24982140958309174,-0.23333124816417694,0.5173462629318237,2.301750659942627
455840,-0.026374727487564087,0.22188766300678253,0.24247896671295166,-0.22942982614040375,0.5566904544830322,2.2961440086364746
455880,-0.023034926503896713,0.22389034926891327,0.2462911456823349,-0.23914563655853271,0.5317076444625854,2.278592586517334
455920,-0.022722749039530754,0.2274411916732788,0.2459082007408142,-0.26458287239074707,0.5249518752098083,2.2632651329040527
455960,-0.02479950711131096,0.2317705601453781,0.25122255086898804,-0.2905709445476532,0.5352607369422913,2.2511208057403564
456000,-0.02636178396642208,0.22790944576263428,0.2507985532283783,-0.25826796889305115,0.5446364879608154,2.2534236907958984
456040,-0.032915834337472916,0.2222219705581665,0.24421042203903198,-0.2186238318681717,0.5771939754486084,2.2601511478424072
456080,-0.032067593187093735,0.2149571180343628,0.2390640377998352,-0.17662198841571808,0.5613771080970764,2.2581961154937744
456120,-0.029431864619255066,0.21783359348773956,0.24445658922195435,-0.20247629284858704,0.5462502837181091,2.2384212017059326
456160,-0.029363976791501045,0.22259345650672913,0.2470838725566864,-0.23284727334976196,0.5485890507698059,2.2207212448120117
456200,-0.035703495144844055,0.22284631431102753,0.2485351264476776,-0.2451697587966919,0.5882084369659424,2.215589761734009
456240,-0.04570677503943443,0.2259947508573532,0.24180422723293304,-0.26413220167160034,0.6552966833114624,2.2131266593933105
456280,-0.049173105508089066,0.222874253988266,0.23954486846923828,-0.24096713960170746,0.6641985774040222,2.2117578983306885
456320,-0.04936414957046509,0.22215315699577332,0.23672142624855042,-0.2441435009241104,0.65911465883255,2.197404384613037
456360,-0.048831745982170105,0.2220519483089447,0.24307675659656525,-0.24190613627433777,0.6420273780822754,2.182210922241211
456400,-0.04750357195734978,0.22562307119369507,0.2483140379190445,-0.26064375042915344,0.6299394965171814,2.162327766418457
456440,-0.05024823173880577,0.2215321660041809,0.24798107147216797,-0.22685375809669495,0.6327084302902222,2.169039487838745
456480,-0.050171613693237305,0.21355053782463074,0.23832516372203827,-0.18020710349082947,0.627559244632721,2.1752049922943115
456520,-0.05463927984237671,0.21489642560482025,0.23732592165470123,-0.18483871221542358,0.6460307836532593,2.1686952114105225
456560,-0.055995844304561615,0.21713922917842865,0.24324944615364075,-0.21030662953853607,0.6491511464118958,2.1492507457733154
456600,-0.05895247310400009,0.21944622695446014,0.24524390697479248,-0.22634032368659973,0.6588796377182007,2.13335919380188
456640,-0.056867919862270355,0.2196648120880127,0.2481580227613449,-0.22811606526374817,0.6363589763641357,2.12164044380188
456680,-0.05724869668483734,0.21773062646389008,0.24302031099796295,-0.2233976572751999,0.6214095950126648,2.1120004653930664
456720,-0.061043109744787216,0.21165971457958221,0.24183744192123413,-0.19440458714962006,0.6330182552337646,2.1165931224823
456760,-0.057455893605947495,0.21521209180355072,0.24705176055431366,-0.21625906229019165,0.5927548408508301,2.0959551334381104
456800,-0.05972107872366905,0.21761928498744965,0.2465440183877945,-0.23476487398147583,0.5980734825134277,2.080803155899048
456840,-0.05557100102305412,0.2189265489578247,0.24772411584854126,-0.2435532510280609,0.5631384253501892,2.0671393871307373
456880,-0.05841640383005142,0.21767084300518036,0.24509237706661224,-0.24026648700237274,0.5745002627372742,2.0592095851898193
456920,-0.056979160755872726,0.2088088095188141,0.2352205365896225,-0.1854625642299652,0.5665073394775391,2.0605428218841553
456960,-0.056635782122612,0.206884503364563,0.22817252576351166,-0.16506071388721466,0.5599896311759949,2.052307367324829
457000,-0.054764293134212494,0.21005378663539886,0.23102974891662598,-0.18189331889152527,0.5303830504417419,2.040837049484253
457040,-0.0501481331884861,0.21554240584373474,0.23463548719882965,-0.2170465588569641,0.49009090662002563,2.0319104194641113
457080,-0.047233376652002335,0.22082357108592987,0.2343100607395172,-0.25195232033729553,0.47021985054016113,2.0214428901672363
457120,-0.053354810923337936,0.21980950236320496,0.22619064152240753,-0.25003892183303833,0.5134300589561462,2.011566162109375
457160,-0.05294843763113022,0.22099679708480835,0.22620488703250885,-0.2559130787849426,0.5053067207336426,2.0015957355499268
457200,-0.05244344845414162,0.22511737048625946,0.224286749958992,-0.2784295082092285,0.49199050664901733,1.99533212184906
457240,-0.0522274523973465,0.22918827831745148,0.22794106602668762,-0.30090799927711487,0.48587027192115784,1.989698886871338
457280,-0.05392466485500336,0.233459934592247,0.22459496557712555,-0.32664602994918823,0.5026040077209473,1.9856007099151611
457320,-0.04861470311880112,0.23298202455043793,0.22347542643547058,-0.322026789188385,0.4699591398239136,1.9745452404022217
457360,-0.052364688366651535,0.22513779997825623,0.21989932656288147,-0.2730953097343445,0.4903170168399811,1.9527435302734375
457400,-0.054618071764707565,0.22279974818229675,0.21726277470588684,-0.25244152545928955,0.5094437003135681,1.9381015300750732
457440,-0.052100181579589844,0.22172647714614868,0.2180739939212799,-0.2476831078529358,0.48933979868888855,1.9262737035751343
457480,-0.05240362137556076,0.2195492535829544,0.22131305932998657,-0.24309591948986053,0.48531651496887207,1.913088083267212
457520,-0.056967318058013916,0.22370396554470062,0.22258242964744568,-0.2631206214427948,0.5162397027015686,1.912509799003601
457560,-0.0604156032204628,0.22568906843662262,0.22001338005065918,-0.27185776829719543,0.5228139162063599,1.905819058418274
457600,-0.06404536217451096,0.22436319291591644,0.2198980450630188,-0.259701132774353,0.5540528297424316,1.8942514657974243
457640,-0.05971422791481018,0.22476278245449066,0.22072061896324158,-0.24422134459018707,0.5210123658180237,1.8782442808151245
457680,-0.05794580280780792,0.2213324010372162,0.22300666570663452,-0.2222127616405487,0.5058110952377319,1.8602476119995117
457720,-0.056078676134347916,0.2261471301317215,0.22436177730560303,-0.2481161653995514,0.4815700352191925,1.8578386306762695
457760,-0.05046669766306877,0.22505316138267517,0.22180591523647308,-0.25352683663368225,0.4445398151874542,1.8504186868667603
457800,-0.04741083085536957,0.2178850919008255,0.22070114314556122,-0.2014499008655548,0.43689143657684326,1.8203012943267822
457840,-0.044769540429115295,0.2205621302127838,0.21795283257961273,-0.21943631768226624,0.4256824851036072,1.8176895380020142
457880,-0.04408234730362892,0.22038276493549347,0.22262798249721527,-0.22301268577575684,0.42048919200897217,1.8085147142410278
457920,-0.04351278394460678,0.21666862070560455,0.2250271737575531,-0.20476017892360687,0.41618841886520386,1.7921000719070435
457960,-0.0403810478746891,0.21625973284244537,0.22955095767974854,-0.2055824249982834,0.4030493497848511,1.7850981950759888
458000,-0.04378630965948105,0.21616481244564056,0.22858376801013947,-0.2187047302722931,0.43468379974365234,1.783171534538269
458040,-0.04918624088168144,0.21885043382644653,0.22484171390533447,-0.23388561606407166,0.4666728675365448,1.7792730331420898
458080,-0.05157233029603958,0.21644370257854462,0.21700944006443024,-0.22603623569011688,0.4906350374221802,1.7625970840454102
458120,-0.051269013434648514,0.21445563435554504,0.21693556010723114,-0.2249377816915512,0.48218581080436707,1.755205512046814
458160,-0.052066903561353683,0.21554841101169586,0.21890345215797424,-0.23034358024597168,0.4870397448539734,1.7469056844711304
458200,-0.050328996032476425,0.21553784608840942,0.21815598011016846,-0.24159975349903107,0.47960054874420166,1.7429580688476562
458240,-0.04487038776278496,0.21485473215579987,0.2246168702840805,-0.23960617184638977,0.4520215690135956,1.736554503440857
458280,-0.04169066250324249,0.21251541376113892,0.22923986613750458,-0.22838760912418365,0.43920841813087463,1.7262049913406372
458320,-0.04065509885549545,0.21415135264396667,0.23345054686069489,-0.24538645148277283,0.44028812646865845,1.7235190868377686
458360,-0.04722447693347931,0.21524737775325775,0.23392897844314575,-0.2584211230278015,0.47792938351631165,1.7141064405441284
458400,-0.045016709715127945,0.21517914533615112,0.23883743584156036,-0.25657498836517334,0.468921422958374,1.7052041292190552
458440,-0.0404701791703701,0.21707727015018463,0.24463894963264465,-0.27616995573043823,0.4463198184967041,1.7063742876052856
458480,-0.04160328209400177,0.21673360466957092,0.23950539529323578,-0.26981866359710693,0.46767646074295044,1.696812391281128
458520,-0.03879997506737709,0.22072088718414307,0.24291963875293732,-0.28763288259506226,0.4515005052089691,1.6961278915405273
458560,-0.03615843132138252,0.222480908036232,0.2473781406879425,-0.30319249629974365,0.4385349154472351,1.696081280708313
458600,-0.036735899746418,0.22670453786849976,0.24927262961864471,-0.3238571584224701,0.4519542455673218,1.6908537149429321
458640,-0.0362592376768589,0.2275013029575348,0.2526654005050659,-0.3269692659378052,0.4598565995693207,1.6830998659133911
458680,-0.03817436099052429,0.2278326451778412,0.2486032247543335,-0.3067462742328644,0.4823509156703949,1.672337293624878
458720,-0.036833424121141434,0.22603853046894073,0.24464763700962067,-0.29475513100624084,0.469782292842865,1.6596916913986206
458760,-0.0376308374106884,0.22553303837776184,0.24939312040805817,-0.28655099868774414,0.4828733205795288,1.6526482105255127
458800,-0.03811529651284218,0.2250908762216568,0.24136985838413239,-0.27551600337028503,0.48704543709754944,1.6414930820465088
458840,-0.036496441811323166,0.22270062565803528,0.24252915382385254,-0.24852639436721802,0.48032885789871216,1.6267908811569214
458880,-0.04131633788347244,0.23176194727420807,0.24317064881324768,-0.30184656381607056,0.5024271607398987,1.6272814273834229
458920,-0.0412253811955452,0.22967715561389923,0.2406090945005417,-0.28237223625183105,0.4973033368587494,1.6192504167556763
458960,-0.04377594217658043,0.2317134588956833,0.24086840450763702,-0.2870367765426636,0.5056564211845398,1.6151636838912964
459000,-0.05520656332373619,0.23496678471565247,0.240451842546463,-0.30476465821266174,0.569010317325592,1.6164398193359375
459040,-0.05188129469752312,0.2386765480041504,0.24203819036483765,-0.32241368293762207,0.5435833930969238,1.6049928665161133
459080,-0.051624976098537445,0.23309138417243958,0.2467186003923416,-0.280017226934433,0.5417919158935547,1.604095697402954
459120,-0.05158586800098419,0.22833190858364105,0.24039621651172638,-0.24737708270549774,0.5366004109382629,1.6016408205032349
459160,-0.05156726390123367,0.22587300837039948,0.24453707039356232,-0.23163747787475586,0.525833010673523,1.5962581634521484
459200,-0.05041090026497841,0.2279977649450302,0.2500911056995392,-0.24232912063598633,0.5210150480270386,1.5889464616775513
459240,-0.055640920996665955,0.22684024274349213,0.24916759133338928,-0.23110021650791168,0.5544684529304504,1.5900425910949707
459280,-0.05118756741285324,0.23252803087234497,0.253191739320755,-0.2662941515445709,0.5238113403320312,1.5682704448699951
459320,-0.05088628828525543,0.23167844116687775,0.2450161874294281,-0.2607213258743286,0.5230659246444702,1.5669565200805664
459360,-0.05527052283287048,0.23662249743938446,0.23991777002811432,-0.28663957118988037,0.5553866624832153,1.5519847869873047
459400,-0.060002271085977554,0.23963691294193268,0.24274595081806183,-0.3167816996574402,0.5814370512962341,1.5357927083969116
459440,-0.06585463881492615,0.23932789266109467,0.24412119388580322,-0.30797702074050903,0.6219654083251953,1.5368049144744873
459480,-0.0638003870844841,0.24113711714744568,0.24431872367858887,-0.32161471247673035,0.6024040579795837,1.5206340551376343
459520,-0.05938974395394325,0.24069754779338837,0.24924324452877045,-0.3181936740875244,0.5634273886680603,1.509356141090393
459560,-0.054337598383426666,0.23380890488624573,0.24526585638523102,-0.27684301137924194,0.5358673930168152,1.5197322368621826
459600,-0.05652362108230591,0.22951625287532806,0.24438615143299103,-0.24768289923667908,0.5539631843566895,1.5287647247314453
459640,-0.05750022456049919,0.23006626963615417,0.24553325772285461,-0.252093106508255,0.5579461455345154,1.520437240600586
459680,-0.05525348708033562,0.22892242670059204,0.2371218502521515,-0.24167068302631378,0.5481231212615967,1.5184316635131836
459720,-0.05181216448545456,0.2300536036491394,0.24408285319805145,-0.24217243492603302,0.5227225422859192,1.5103228092193604
459760,-0.04917373135685921,0.23144258558750153,0.24048450589179993,-0.24691300094127655,0.5168489813804626,1.5020695924758911
459800,-0.04844212159514427,0.2314572036266327,0.24314051866531372,-0.25022104382514954,0.513559103012085,1.4952123165130615
459840,-0.04756234213709831,0.23477676510810852,0.24167940020561218,-0.2609136402606964,0.5106305480003357,1.4845980405807495
459880,-0.05282311886548996,0.2300730049610138,0.23968049883842468,-0.2319180965423584,0.5469555258750916,1.4843637943267822
459920,-0.05334167927503586,0.23009105026721954,0.2394917905330658,-0.2327864170074463,0.5573529005050659,1.4766759872436523
459960,-0.04856376349925995,0.23082335293293,0.2432577759027481,-0.23390568792819977,0.5254669189453125,1.4722357988357544
460000,-0.044972047209739685,0.22592787444591522,0.24766217172145844,-0.20509666204452515,0.510182797908783,1.4741911888122559
460040,-0.043910279870033264,0.2236422300338745,0.2448824942111969,-0.19676660001277924,0.5074065327644348,1.4675524234771729
460080,-0.04153444617986679,0.22485987842082977,0.2458162158727646,-0.20647980272769928,0.4991447627544403,1.4616731405258179
460120,-0.04331441968679428,0.22154323756694794,0.24386978149414062,-0.18959487974643707,0.5246307253837585,1.4510501623153687
460160,-0.04649095609784126,0.2229214459657669,0.24493290483951569,-0.19998688995838165,0.5506397485733032,1.435762882232666
460200,-0.040660761296749115,0.2213355451822281,0.24591287970542908,-0.19807565212249756,0.5296452045440674,1.4319685697555542
460240,-0.0421002097427845,0.2186056524515152,0.23743022978305817,-0.1869048923254013,0.5466098189353943,1.4208309650421143
460280,-0.04534298554062843,0.21872861683368683,0.23659174144268036,-0.1938118189573288,0.5702997446060181,1.4059101343154907
460320,-0.04129932075738907,0.2166256159543991,0.23478113114833832,-0.17568513751029968,0.5517745018005371,1.4030083417892456
460360,-0.04069500416517258,0.2203713357448578,0.23921933770179749,-0.2037418633699417,0.5573375225067139,1.3928078413009644
460400,-0.03539706766605377,0.21944791078567505,0.2422543466091156,-0.20642249286174774,0.5353115797042847,1.3916536569595337
460440,-0.03709784522652626,0.218612402677536,0.2376450002193451,-0.2007216066122055,0.5416178107261658,1.3817744255065918
460480,-0.03477216139435768,0.21720929443836212,0.23814459145069122,-0.1965978890657425,0.538263201713562,1.3758790493011475
460520,-0.03808307647705078,0.21381555497646332,0.23459094762802124,-0.17872492969036102,0.5667245984077454,1.3579213619232178
460560,-0.04145785793662071,0.21257421374320984,0.2363833636045456,-0.1779344230890274,0.581727147102356,1.3477365970611572
460600,-0.04052482545375824,0.2136613130569458,0.23867137730121613,-0.18612083792686462,0.5697183609008789,1.3459522724151611
460640,-0.041486043483018875,0.2158556878566742,0.24328263103961945,-0.20782431960105896,0.5747135281562805,1.3407799005508423
460680,-0.04911893233656883,0.21206282079219818,0.2375628501176834,-0.1953125,0.6278788447380066,1.3209768533706665
460720,-0.0504230335354805,0.21294933557510376,0.23726078867912292,-0.20672403275966644,0.6394807696342468,1.3129668235778809
460760,-0.05503983050584793,0.21770864725112915,0.2346034049987793,-0.24135689437389374,0.6647762656211853,1.3014849424362183
460800,-0.05339064821600914,0.22126564383506775,0.23645681142807007,-0.2615216076374054,0.650134801864624,1.2964519262313843
460840,-0.048077259212732315,0.21760517358779907,0.2354697287082672,-0.24176688492298126,0.6136339902877808,1.2952642440795898
460880,-0.04836393892765045,0.21317824721336365,0.23335719108581543,-0.22472235560417175,0.6248515248298645,1.2884842157363892
460920,-0.05234299972653389,0.20854413509368896,0.2261004000902176,-0.2073865830898285,0.6576485633850098,1.2771245241165161
460960,-0.051174189895391464,0.21221823990345,0.229473277926445,-0.2355457842350006,0.6498063802719116,1.2705340385437012
461000,-0.054762616753578186,0.2156602293252945,0.22936809062957764,-0.2568649351596832,0.6724563837051392,1.260172963142395
461040,-0.05867556482553482,0.21480552852153778,0.2301858812570572,-0.24983304738998413,0.6857687830924988,1.2528101205825806
461080,-0.06351856887340546,0.21060407161712646,0.2205398976802826,-0.22687114775180817,0.7229145169258118,1.249808430671692
461120,-0.06488877534866333,0.21170970797538757,0.21840377151966095,-0.23680704832077026,0.7204585671424866,1.244123101234436
461160,-0.06326834112405777,0.20848073065280914,0.21379300951957703,-0.2205205112695694,0.7042616605758667,1.2443854808807373
461200,-0.06360719352960587,0.20948709547519684,0.21343450248241425,-0.22683104872703552,0.703407883644104,1.2340422868728638
461240,-0.0609099343419075,0.21104185283184052,0.21560344099998474,-0.2387118637561798,0.6827656626701355,1.2245368957519531
461280,-0.05609563738107681,0.21244333684444427,0.21975630521774292,-0.24427060782909393,0.648707926273346,1.213977575302124
461320,-0.05544722452759743,0.2098252922296524,0.22608429193496704,-0.22329236567020416,0.6382810473442078,1.2132090330123901
461360,-0.05602386221289635,0.20955124497413635,0.22342199087142944,-0.22153103351593018,0.6411557197570801,1.2074580192565918
461400,-0.05968572571873665,0.21350418031215668,0.22207000851631165,-0.24343140423297882,0.6539598107337952,1.2009016275405884
461440,-0.06012324243783951,0.20831382274627686,0.22257480025291443,-0.2222331464290619,0.6422132253646851,1.199276089668274
461480,-0.05548105388879776,0.2055589109659195,0.22257430851459503,-0.20655877888202667,0.597556471824646,1.1909139156341553
461520,-0.053849756717681885,0.20740880072116852,0.2230423390865326,-0.22865740954875946,0.5948415398597717,1.1805490255355835
461560,-0.055935271084308624,0.20819558203220367,0.22531655430793762,-0.23647922277450562,0.6046846508979797,1.1765419244766235
461600,-0.055317223072052,0.20914289355278015,0.22600391507148743,-0.24687276780605316,0.591953456401825,1.1676318645477295
461640,-0.0542512983083725,0.2155258059501648,0.23135249316692352,-0.2820439636707306,0.5839768052101135,1.1577554941177368
461680,-0.05034756287932396,0.21866191923618317,0.23126094043254852,-0.3035576045513153,0.5669648051261902,1.1494876146316528
461720,-0.049097079783678055,0.22160756587982178,0.2313387095928192,-0.30606406927108765,0.5574524998664856,1.1437137126922607
461760,-0.04770778492093086,0.2114022970199585,0.23155753314495087,-0.23617775738239288,0.5524287819862366,1.1324115991592407
461800,-0.04927794262766838,0.21470338106155396,0.22928090393543243,-0.25227266550064087,0.5584798455238342,1.130732536315918
461840,-0.05625535547733307,0.22115419805049896,0.2292536050081253,-0.294992595911026,0.5993348956108093,1.1382811069488525
461880,-0.06160040944814682,0.2194732278585434,0.2258586436510086,-0.27609291672706604,0.6332076191902161,1.1393758058547974
461920,-0.06114916875958443,0.22206071019172668,0.22419284284114838,-0.28673702478408813,0.6176720857620239,1.1285412311553955
461960,-0.06394992023706436,0.21884338557720184,0.21694348752498627,-0.24774564802646637,0.6331480145454407,1.1274818181991577
462000,-0.0634840726852417,0.22131358087062836,0.22159263491630554,-0.2599821984767914,0.6215963959693909,1.117502212524414
462040,-0.06416286528110504,0.2225670963525772,0.22369399666786194,-0.2581288516521454,0.6222761273384094,1.11219322681427
462080,-0.06448595970869064,0.2211359441280365,0.22788411378860474,-0.25148817896842957,0.6146568655967712,1.1060758829116821
462120,-0.065299853682518,0.22086942195892334,0.22711527347564697,-0.2438126653432846,0.6123625040054321,1.1003472805023193
462160,-0.06100955605506897,0.22356437146663666,0.23192793130874634,-0.26570427417755127,0.5841167569160461,1.0837666988372803
462200,-0.05775364488363266,0.22075147926807404,0.23219136893749237,-0.24471411108970642,0.5573421716690063,1.0696347951889038
462240,-0.0645451620221138,0.22122755646705627,0.22942790389060974,-0.24244211614131927,0.6001129150390625,1.0786973237991333
462280,-0.06438148021697998,0.22120697796344757,0.22814150154590607,-0.23577532172203064,0.588458776473999,1.0707693099975586
462320,-0.0660112202167511,0.22202865779399872,0.22883424162864685,-0.24075399339199066,0.6046710014343262,1.0702879428863525
462360,-0.06509765237569809,0.222026526927948,0.22714172303676605,-0.2482975274324417,0.5934031009674072,1.0622889995574951
462400,-0.06562452763319016,0.2214914858341217,0.22451435029506683,-0.2382606565952301,0.5879899263381958,1.0542094707489014
462440,-0.06646902114152908,0.2229124903678894,0.22470566630363464,-0.25489410758018494,0.5944747924804688,1.04905366897583
462480,-0.06378509104251862,0.22812913358211517,0.22978846728801727,-0.28594037890434265,0.5746700167655945,1.0392149686813354
462520,-0.07012108713388443,0.2279215157032013,0.22781579196453094,-0.27376657724380493,0.6142570972442627,1.0472160577774048
462560,-0.07011961936950684,0.22914889454841614,0.2288205772638321,-0.27159684896469116,0.609788715839386,1.0407135486602783
462600,-0.0692296028137207,0.23144789040088654,0.23271317780017853,-0.2801867723464966,0.5995641350746155,1.0324796438217163
462640,-0.06266871094703674,0.22370778024196625,0.23657169938087463,-0.2204783707857132,0.5630889534950256,1.0163607597351074
462680,-0.056463733315467834,0.22384406626224518,0.237667515873909,-0.2106936275959015,0.5248317122459412,1.0028022527694702
462720,-0.05547249689698219,0.22679482400417328,0.2379656881093979,-0.22253893315792084,0.5114392042160034,0.9951614141464233
462760,-0.06009430065751076,0.23072141408920288,0.23778162896633148,-0.24783702194690704,0.5422041416168213,0.9964965581893921
462800,-0.055913642048835754,0.23062749207019806,0.23428358137607574,-0.2493792325258255,0.5135411620140076,0.9870051741600037
462840,-0.052976321429014206,0.23101578652858734,0.23643381893634796,-0.250885933637619,0.4953802525997162,0.9785175919532776
462880,-0.047847501933574677,0.23247607052326202,0.24266383051872253,-0.24791859090328217,0.46804913878440857,0.969590961933136
462920,-0.042008593678474426,0.2332358956336975,0.24784931540489197,-0.2516569197177887,0.4352864921092987,0.9615330696105957
462960,-0.04104801267385483,0.22662268579006195,0.25067347288131714,-0.19914495944976807,0.4352280795574188,0.9433912038803101
463000,-0.045546989887952805,0.2323555052280426,0.24442557990550995,-0.22570455074310303,0.4713718295097351,0.9482371211051941
463040,-0.044057026505470276,0.22809875011444092,0.23548047244548798,-0.20265160501003265,0.46941709518432617,0.93575519323349
463080,-0.04508568346500397,0.22744856774806976,0.22984522581100464,-0.20212942361831665,0.4938569664955139,0.9318075180053711
463120,-0.04322715848684311,0.22785955667495728,0.23488175868988037,-0.1981426626443863,0.47964948415756226,0.926323652267456
463160,-0.041264064610004425,0.2266940325498581,0.24165204167366028,-0.18843749165534973,0.47480085492134094,0.9191471338272095
463200,-0.040145520120859146,0.22860194742679596,0.24496304988861084,-0.2034292072057724,0.4672316610813141,0.9201192855834961
463240,-0.03886175528168678,0.2258339524269104,0.23462258279323578,-0.18316809833049774,0.4712834060192108,0.9090515971183777
463280,-0.04390682652592659,0.2278355360031128,0.23328255116939545,-0.1918434202671051,0.5098446011543274,0.9030206203460693
463320,-0.046465929597616196,0.22769054770469666,0.22804974019527435,-0.1823350191116333,0.532073974609375,0.8906875252723694
463360,-0.04836332052946091,0.22334636747837067,0.21910062432289124,-0.15590524673461914,0.5584771037101746,0.8757182955741882
463400,-0.054994478821754456,0.2233200967311859,0.2112778127193451,-0.16274096071720123,0.6083898544311523,0.866862952709198
463440,-0.05481478571891785,0.2248774766921997,0.21307815611362457,-0.17451654374599457,0.602993369102478,0.8644795417785645
463480,-0.050033748149871826,0.2249867171049118,0.21591371297836304,-0.1718553900718689,0.5739869475364685,0.8631371259689331
463520,-0.049599889665842056,0.22401654720306396,0.22021019458770752,-0.16138000786304474,0.5657984614372253,0.859222412109375
463560,-0.04609031230211258,0.22174398601055145,0.22193016111850739,-0.14998531341552734,0.5501589179039001,0.8562121391296387
463600,-0.045015688985586166,0.22440457344055176,0.21842540800571442,-0.1653612107038498,0.542829692363739,0.8557949662208557
463640,-0.04494871571660042,0.22404883801937103,0.2198803424835205,-0.16470767557621002,0.5417361855506897,0.8526645302772522
463680,-0.046008188277482986,0.22155900299549103,0.22626790404319763,-0.1508825719356537,0.5417585968971252,0.8461110591888428
463720,-0.04741593450307846,0.22273895144462585,0.22513988614082336,-0.16072046756744385,0.5537137389183044,0.8367803692817688
463760,-0.04925152286887169,0.22704365849494934,0.22560901939868927,-0.1889900416135788,0.5598085522651672,0.8295758962631226
463800,-0.0482252836227417,0.22827811539173126,0.22587615251541138,-0.20804964005947113,0.5520651340484619,0.8252147436141968
463840,-0.05236076936125755,0.22869594395160675,0.22002510726451874,-0.2186008244752884,0.5862618088722229,0.8119627833366394
463880,-0.051667939871549606,0.22740846872329712,0.22076287865638733,-0.20734094083309174,0.5862061381340027,0.8096579909324646
463920,-0.04946991056203842,0.22702531516551971,0.2234008014202118,-0.21629619598388672,0.5716338157653809,0.8067658543586731
463960,-0.04681555926799774,0.2279125601053238,0.22478334605693817,-0.22124169766902924,0.5620803236961365,0.8009784817695618
464000,-0.04447270929813385,0.22462700307369232,0.2279343158006668,-0.20210863649845123,0.5586990118026733,0.8006477952003479
464040,-0.05000445991754532,0.2249961942434311,0.22258560359477997,-0.19854597747325897,0.594944953918457,0.7899373173713684
464080,-0.049130115658044815,0.22227469086647034,0.22151222825050354,-0.1691373586654663,0.5999999642372131,0.791950523853302
464120,-0.049450043588876724,0.2251562774181366,0.228235125541687,-0.1845206618309021,0.5972679257392883,0.7830984592437744
464160,-0.05487952381372452,0.22677534818649292,0.23136745393276215,-0.1970263570547104,0.6347721815109253,0.7674134373664856
464200,-0.05036306753754616,0.22473390400409698,0.2295166254043579,-0.18413898348808289,0.5995737314224243,0.7699381113052368
464240,-0.057249411940574646,0.22827541828155518,0.2329050749540329,-0.21421372890472412,0.6334919929504395,0.7537388205528259
464280,-0.0557379275560379,0.2275216281414032,0.23319274187088013,-0.2112484872341156,0.6222069263458252,0.7517609000205994
464320,-0.05556950345635414,0.22561702132225037,0.23719467222690582,-0.1960490494966507,0.6316011548042297,0.7520447969436646
464360,-0.05189282074570656,0.22280576825141907,0.23549175262451172,-0.1741669476032257,0.6046008467674255,0.7541142106056213
464400,-0.04949873685836792,0.2168288379907608,0.23349890112876892,-0.13287483155727386,0.5946997404098511,0.7644704580307007
464440,-0.0467880442738533,0.21627721190452576,0.2355397790670395,-0.1386094093322754,0.5770907402038574,0.7593856453895569
464480,-0.04826023057103157,0.2183753252029419,0.23475103080272675,-0.15457135438919067,0.5912837386131287,0.7481816411018372
464520,-0.049171462655067444,0.21764077246189117,0.2358504682779312,-0.15559180080890656,0.5981765389442444,0.7432608604431152
464560,-0.05253442004323006,0.21993546187877655,0.2368331104516983,-0.17446990311145782,0.6249436140060425,0.7306196093559265
464600,-0.05631507560610771,0.2161170393228531,0.23378978669643402,-0.15476834774017334,0.6502310037612915,0.7316072583198547
464640,-0.056795503944158554,0.21670560538768768,0.23628370463848114,-0.17281639575958252,0.6551103591918945,0.7229293584823608
464680,-0.05760806426405907,0.217391237616539,0.24030165374279022,-0.18601857125759125,0.6607860922813416,0.7158022522926331
464720,-0.055381935089826584,0.21563062071800232,0.23394733667373657,-0.18019746243953705,0.6427760720252991,0.7134115099906921
464760,-0.055158186703920364,0.2178192436695099,0.2339002937078476,-0.1873684972524643,0.642179548740387,0.7037584185600281
464800,-0.04975695163011551,0.22308605909347534,0.23934389650821686,-0.22618301212787628,0.6096301674842834,0.6882191896438599
464840,-0.04738437011837959,0.21625259518623352,0.23315748572349548,-0.17985399067401886,0.5951461791992188,0.6971374154090881
464880,-0.05070468410849571,0.21668237447738647,0.23302754759788513,-0.17911259829998016,0.6193273067474365,0.6913521885871887
464920,-0.05353477969765663,0.2190447747707367,0.2341468334197998,-0.1941477507352829,0.6397934556007385,0.6843811273574829
464960,-0.05767514929175377,0.21663986146450043,0.22962449491024017,-0.17925629019737244,0.6572595238685608,0.6853006482124329
465000,-0.05927348881959915,0.22065137326717377,0.22823119163513184,-0.20616953074932098,0.6652652025222778,0.6751676797866821
465040,-0.05702716484665871,0.21831028163433075,0.22404037415981293,-0.1948273926973343,0.6422967314720154,0.6745035648345947
465080,-0.059326447546482086,0.2164316028356552,0.22314439713954926,-0.19100086390972137,0.6520944833755493,0.6733407974243164
465120,-0.058767590671777725,0.2168755978345871,0.22215650975704193,-0.18836075067520142,0.6384106278419495,0.6728175282478333
465160,-0.05756235122680664,0.21694348752498627,0.2247316539287567,-0.19666673243045807,0.6256377100944519,0.6662271022796631
465200,-0.05758011341094971,0.2164696305990219,0.228208526968956,-0.2046063095331192,0.6171591281890869,0.6608474254608154
465240,-0.04984251409769058,0.2111658751964569,0.22350583970546722,-0.16707177460193634,0.5678997039794922,0.6609706878662109
465280,-0.04790991172194481,0.2097269892692566,0.22999435663223267,-0.17669783532619476,0.5531586408615112,0.6568248867988586
465320,-0.047335270792245865,0.20782777667045593,0.2328689992427826,-0.1691012680530548,0.5448064208030701,0.6524454355239868
465360,-0.05067969113588333,0.2107357531785965,0.232864111661911,-0.1952277272939682,0.559203565120697,0.6488913893699646
465400,-0.055612362921237946,0.20596861839294434,0.2351434826850891,-0.1803208291530609,0.5850245356559753,0.6448056697845459
465440,-0.04971621558070183,0.2081531137228012,0.24037621915340424,-0.19984756410121918,0.5348793268203735,0.6384854912757874
465480,-0.05011218041181564,0.20816899836063385,0.24406376481056213,-0.2046518623828888,0.5391899347305298,0.6336676478385925
465520,-0.05733346566557884,0.21326510608196259,0.23847642540931702,-0.24494239687919617,0.5840578675270081,0.6308729648590088
465560,-0.05947616323828697,0.21359752118587494,0.23825189471244812,-0.2484360784292221,0.590397298336029,0.6243906021118164
465600,-0.061106350272893906,0.2155628651380539,0.23898084461688995,-0.2648114264011383,0.599586546421051,0.6232095956802368
465640,-0.05876590684056282,0.21992117166519165,0.24299603700637817,-0.2912837564945221,0.5744518041610718,0.6156742572784424
465680,-0.05538759380578995,0.22265954315662384,0.24507935345172882,-0.2999464273452759,0.5419734716415405,0.6092106103897095
465720,-0.050892870873212814,0.2217695713043213,0.24184183776378632,-0.28815412521362305,0.5136921405792236,0.6025848388671875
465760,-0.04876641556620598,0.2260112762451172,0.24540208280086517,-0.30927157402038574,0.503019392490387,0.5944718718528748
465800,-0.05067678540945053,0.2249239683151245,0.24032701551914215,-0.30200257897377014,0.5110706090927124,0.5937520265579224
465840,-0.054347652941942215,0.23003603518009186,0.24141128361225128,-0.325715571641922,0.5290509462356567,0.5957526564598083
465880,-0.05138692632317543,0.22721220552921295,0.24136316776275635,-0.3058302104473114,0.5176597833633423,0.5897067785263062
465920,-0.04910670965909958,0.231119304895401,0.2431338131427765,-0.3268851041793823,0.5028588175773621,0.5828396677970886
465960,-0.047622986137866974,0.23349949717521667,0.24653591215610504,-0.3454363942146301,0.4900054335594177,0.5778559446334839
466000,-0.04533684626221657,0.2339722067117691,0.24724838137626648,-0.326297789812088,0.4738231599330902,0.5691395401954651
466040,-0.05113056302070618,0.2289944440126419,0.24262617528438568,-0.2944606840610504,0.5081501007080078,0.5759214758872986
466080,-0.043238718062639236,0.2292424589395523,0.24505819380283356,-0.2932903468608856,0.4570656716823578,0.5520691871643066
466120,-0.036957189440727234,0.22206541895866394,0.24474403262138367,-0.24371469020843506,0.41726815700531006,0.5253440141677856
466160,-0.04202593117952347,0.22211246192455292,0.2407343089580536,-0.24810396134853363,0.4665322005748749,0.5414830446243286
466200,-0.038491420447826385,0.22270427644252777,0.24392971396446228,-0.24892428517341614,0.44559264183044434,0.5340004563331604
466240,-0.032918017357587814,0.22154447436332703,0.24059422314167023,-0.24007003009319305,0.41265207529067993,0.5198507308959961
466280,-0.039886657148599625,0.22020433843135834,0.2344762533903122,-0.22769036889076233,0.45608365535736084,0.5262366533279419
466320,-0.04095299541950226,0.22038348019123077,0.23279969394207,-0.22553673386573792,0.46743425726890564,0.5264758467674255
466360,-0.04473576694726944,0.21732379496097565,0.2226928025484085,-0.20193859934806824,0.4905085265636444,0.5220458507537842
466400,-0.04075591638684273,0.21797767281532288,0.22639787197113037,-0.20475606620311737,0.4756300747394562,0.517565906047821
466440,-0.03834374621510506,0.21636003255844116,0.23122146725654602,-0.19686855375766754,0.4615863859653473,0.5092118382453918
466480,-0.034112174063920975,0.2203780710697174,0.23994305729866028,-0.23179841041564941,0.436303049325943,0.5112788081169128
466520,-0.030970020219683647,0.22301286458969116,0.24251814186573029,-0.2444145679473877,0.4272533655166626,0.511445939540863
466560,-0.025869375094771385,0.22124601900577545,0.24702653288841248,-0.22852656245231628,0.39789655804634094,0.5020827054977417
466600,-0.02705015242099762,0.22230365872383118,0.24483469128608704,-0.230789914727211,0.4124569296836853,0.49906519055366516
466640,-0.023952079936861992,0.22223502397537231,0.24927681684494019,-0.2398165762424469,0.3938312232494354,0.4966636896133423
466680,-0.023718036711215973,0.21735626459121704,0.24637722969055176,-0.21293970942497253,0.40020859241485596,0.4844864308834076
466720,-0.027267178520560265,0.21935418248176575,0.2467692494392395,-0.22856861352920532,0.43095624446868896,0.4853692650794983
466760,-0.025462975725531578,0.2217712253332138,0.25151318311691284,-0.2475377768278122,0.41816645860671997,0.48683980107307434
466800,-0.035793647170066833,0.22468246519565582,0.23974813520908356,-0.27266472578048706,0.497591108083725,0.48950010538101196
466840,-0.032976184040308,0.22767916321754456,0.24395617842674255,-0.2833818197250366,0.49045658111572266,0.4867675006389618
466880,-0.036074813455343246,0.22531798481941223,0.24025538563728333,-0.26217684149742126,0.5102372765541077,0.47833096981048584
466920,-0.03970622643828392,0.22492563724517822,0.23465174436569214,-0.2678680717945099,0.5387489795684814,0.47602856159210205
466960,-0.037087615579366684,0.22826996445655823,0.23854462802410126,-0.2879931926727295,0.5368795990943909,0.4740588068962097
467000,-0.03695933520793915,0.22596247494220734,0.2427825927734375,-0.27555814385414124,0.5330612659454346,0.46989431977272034
467040,-0.035452134907245636,0.22519351541996002,0.23714478313922882,-0.2670389711856842,0.5354722142219543,0.46483632922172546
467080,-0.0314180925488472,0.22290150821208954,0.2427200973033905,-0.2539783716201782,0.526282548904419,0.46210506558418274
467120,-0.03497570380568504,0.22107771039009094,0.239643394947052,-0.23198202252388,0.5505239367485046,0.4617007374763489
467160,-0.03850686550140381,0.2141362875699997,0.23749585449695587,-0.18539217114448547,0.5777680277824402,0.461525022983551
467200,-0.03635645657777786,0.21537180244922638,0.24213512241840363,-0.19394616782665253,0.5750734806060791,0.45651209354400635
467240,-0.03564408794045448,0.22245942056179047,0.24091488122940063,-0.23025113344192505,0.5704665184020996,0.4441452920436859
467280,-0.03433305397629738,0.225089892745018,0.24354980885982513,-0.24476763606071472,0.5661570429801941,0.43675747513771057
467320,-0.03631903976202011,0.22727759182453156,0.2432868629693985,-0.25636807084083557,0.5809404253959656,0.431286096572876
467360,-0.043164901435375214,0.22283174097537994,0.23881542682647705,-0.2286221832036972,0.6227003335952759,0.430865079164505
467400,-0.03932902216911316,0.2264990657567978,0.2397533804178238,-0.25014057755470276,0.6030162572860718,0.4224139451980591
467440,-0.0400073267519474,0.2247856706380844,0.23891369998455048,-0.2452734410762787,0.6069126725196838,0.41861796379089355
467480,-0.03779967501759529,0.22344784438610077,0.24203552305698395,-0.2278325855731964,0.581026554107666,0.42103415727615356
467520,-0.03792326897382736,0.22384440898895264,0.2382178157567978,-0.22368119657039642,0.5890008211135864,0.41720470786094666
467560,-0.04345329850912094,0.2223757803440094,0.23397232592105865,-0.2124335765838623,0.6229618191719055,0.41826188564300537
467600,-0.04635210335254669,0.22276240587234497,0.23809517920017242,-0.2168045938014984,0.637681245803833,0.4128025770187378
467640,-0.046047892421483994,0.2252393662929535,0.24438919126987457,-0.23056283593177795,0.6397737860679626,0.40370896458625793
467680,-0.04288152977824211,0.2246646285057068,0.24469511210918427,-0.22846578061580658,0.6189537644386292,0.40114301443099976
467720,-0.040300674736499786,0.22610625624656677,0.24681881070137024,-0.22709177434444427,0.5996016263961792,0.40104037523269653
467760,-0.038070812821388245,0.22585120797157288,0.24685944616794586,-0.23894430696964264,0.587952196598053,0.3954177498817444
467800,-0.04170101508498192,0.22493261098861694,0.24162068963050842,-0.2282520830631256,0.613470196723938,0.3961656093597412
467840,-0.03794027119874954,0.22665958106517792,0.24542243778705597,-0.24113593995571136,0.5972117185592651,0.39082688093185425
467880,-0.03809675574302673,0.2208673655986786,0.24566076695919037,-0.2073921412229538,0.5926439166069031,0.4027555584907532
467920,-0.03743509575724602,0.2217334508895874,0.24596582353115082,-0.21591024100780487,0.5861747860908508,0.39682573080062866
467960,-0.03187789022922516,0.22280503809452057,0.24709491431713104,-0.2140495926141739,0.5503824949264526,0.3970986604690552
468000,-0.03201277554035187,0.22473153471946716,0.25231555104255676,-0.21771298348903656,0.5589501857757568,0.3897855877876282
468040,-0.038113921880722046,0.2235410064458847,0.24756620824337006,-0.2145618498325348,0.6009306907653809,0.3857637941837311
468080,-0.03429719805717468,0.22361856698989868,0.25402915477752686,-0.21502232551574707,0.5711531639099121,0.38406312465667725
468120,-0.0396561436355114,0.22082971036434174,0.2457892894744873,-0.19194313883781433,0.613345742225647,0.3849753737449646
468160,-0.04064571112394333,0.22490891814231873,0.24698202311992645,-0.21829266846179962,0.6134172081947327,0.3756795823574066
468200,-0.0405014231801033,0.22722867131233215,0.2503335177898407,-0.2358715832233429,0.6079009175300598,0.366416335105896
468240,-0.039947133511304855,0.2320840060710907,0.25548216700553894,-0.2690882980823517,0.5907178521156311,0.3587208688259125
468280,-0.042539551854133606,0.23461613059043884,0.25496014952659607,-0.27994176745414734,0.6137693524360657,0.35050565004348755
468320,-0.04225383698940277,0.2272120863199234,0.250946044921875,-0.2407044917345047,0.6171779632568359,0.35786172747612
468360,-0.04180068522691727,0.219050794839859,0.25174593925476074,-0.1939822882413864,0.6171938180923462,0.3657341003417969
468400,-0.03707098588347435,0.22324270009994507,0.25578194856643677,-0.20998655259609222,0.5837528109550476,0.35909104347229004
468440,-0.03381232172250748,0.22726231813430786,0.2585349380970001,-0.2405158430337906,0.5667082071304321,0.35072076320648193
468480,-0.044355280697345734,0.2310457080602646,0.25029709935188293,-0.2696748375892639,0.6248697638511658,0.3431004583835602
468520,-0.043300751596689224,0.22898319363594055,0.25273269414901733,-0.24754628539085388,0.6207816004753113,0.3426312208175659
468560,-0.04289151355624199,0.2270185649394989,0.2567601799964905,-0.23882661759853363,0.6099526286125183,0.340175062417984
468600,-0.04559729993343353,0.2281029373407364,0.25628170371055603,-0.23621949553489685,0.6227283477783203,0.3378009796142578
468640,-0.041958101093769073,0.22888442873954773,0.258767306804657,-0.24279087781906128,0.5976358652114868,0.3345950245857239
468680,-0.04071768373250961,0.22659027576446533,0.2588070333003998,-0.22638849914073944,0.5816046595573425,0.33343446254730225
468720,-0.03704478591680527,0.22606872022151947,0.26169782876968384,-0.22413206100463867,0.5603000521659851,0.3304447829723358
468760,-0.0354449525475502,0.22362969815731049,0.2626253366470337,-0.2060955911874771,0.5682730078697205,0.3293052315711975
468800,-0.038334399461746216,0.2180517017841339,0.2552943229675293,-0.17045029997825623,0.5977237224578857,0.3288498520851135
468840,-0.03536802530288696,0.21843481063842773,0.2597227692604065,-0.1750134527683258,0.578617513179779,0.32487598061561584
468880,-0.03452790901064873,0.21879607439041138,0.2612510025501251,-0.17498371005058289,0.5776283740997314,0.32289814949035645
468920,-0.036343932151794434,0.21969754993915558,0.2612212002277374,-0.17863516509532928,0.5829232335090637,0.3220759332180023
468960,-0.04185158386826515,0.22732561826705933,0.2575322985649109,-0.22142964601516724,0.6147879362106323,0.3158259987831116
469000,-0.04743639752268791,0.2238052934408188,0.2538272440433502,-0.19837482273578644,0.6372997164726257,0.31265679001808167
469040,-0.04723124951124191,0.22491143643856049,0.25556084513664246,-0.20847682654857635,0.6278090476989746,0.31089746952056885
469080,-0.050484221428632736,0.22849969565868378,0.25385987758636475,-0.23098503053188324,0.6411604881286621,0.30823051929473877
469120,-0.051149312406778336,0.2324623316526413,0.2502215504646301,-0.2481573522090912,0.6324860453605652,0.3057628273963928
469160,-0.050062257796525955,0.23309214413166046,0.2523583471775055,-0.24969953298568726,0.6161307096481323,0.30182597041130066
469200,-0.043637774884700775,0.22890694439411163,0.2501004934310913,-0.22599224746227264,0.5774627327919006,0.29898008704185486
469240,-0.04179640859365463,0.22614465653896332,0.24397119879722595,-0.19667933881282806,0.5731086134910583,0.29810255765914917
469280,-0.04398626834154129,0.22559881210327148,0.24475827813148499,-0.19708210229873657,0.5902348160743713,0.29669520258903503
469320,-0.04759237542748451,0.22409573197364807,0.24768656492233276,-0.1974809765815735,0.5997356176376343,0.2947472333908081
469360,-0.04684574902057648,0.22605571150779724,0.25102221965789795,-0.21298116445541382,0.5973777174949646,0.292397141456604
469400,-0.044041022658348083,0.22217494249343872,0.25276702642440796,-0.19285564124584198,0.5715963840484619,0.2865753173828125
469440,-0.0457625687122345,0.22140251100063324,0.2442162036895752,-0.18599526584148407,0.5884369611740112,0.2843557298183441
469480,-0.0494379922747612,0.22141191363334656,0.23699504137039185,-0.19817011058330536,0.6126630306243896,0.2832033336162567
469520,-0.053822536021471024,0.2214309573173523,0.23312436044216156,-0.19239667057991028,0.6388429999351501,0.2808348834514618
469560,-0.05448715016245842,0.22349941730499268,0.23086412250995636,-0.20677068829536438,0.6393234133720398,0.2787325978279114
469600,-0.05227351188659668,0.22493351995944977,0.23150481283664703,-0.22129592299461365,0.6162954568862915,0.2740929126739502
469640,-0.046948764473199844,0.2240465134382248,0.23631252348423004,-0.21815365552902222,0.5872747302055359,0.2710666060447693
469680,-0.04971586912870407,0.21995534002780914,0.23011773824691772,-0.18918783962726593,0.6017051339149475,0.2674342691898346
469720,-0.04797065258026123,0.22223201394081116,0.2320990264415741,-0.2024252712726593,0.5866337418556213,0.26415374875068665
469760,-0.052881840616464615,0.22374525666236877,0.23289620876312256,-0.20830821990966797,0.6137050986289978,0.2639199197292328
469800,-0.04740121215581894,0.2242366075515747,0.2343093752861023,-0.22017209231853485,0.569639265537262,0.2607921361923218
469840,-0.04536084830760956,0.22274723649024963,0.2297562211751938,-0.214695006608963,0.5500589609146118,0.2597339451313019
469880,-0.049949098378419876,0.2228563129901886,0.22467368841171265,-0.20857006311416626,0.5777691602706909,0.25886496901512146
469920,-0.04520890489220619,0.22073198854923248,0.22650273144245148,-0.1959284096956253,0.5471209287643433,0.2572430670261383
469960,-0.044673264026641846,0.22239449620246887,0.23033037781715393,-0.21058188378810883,0.5443194508552551,0.25317856669425964
470000,-0.04767110198736191,0.22249342501163483,0.233601376414299,-0.21731451153755188,0.5652080774307251,0.25261181592941284
470040,-0.04456104338169098,0.2256094366312027,0.23730015754699707,-0.2378120720386505,0.5471131801605225,0.25087976455688477
470080,-0.04462812840938568,0.2208303064107895,0.23649883270263672,-0.20144864916801453,0.5433944463729858,0.24737249314785004
470120,-0.045791398733854294,0.21795031428337097,0.2396126091480255,-0.1868932843208313,0.5407668948173523,0.24298886954784393
470160,-0.045571304857730865,0.22002267837524414,0.2413608431816101,-0.19788911938667297,0.5392648577690125,0.24189308285713196
470200,-0.044546712189912796,0.21726976335048676,0.24057121574878693,-0.18104466795921326,0.5290994644165039,0.23636052012443542
470240,-0.039822645485401154,0.21991126239299774,0.2401055246591568,-0.19705183804035187,0.5078598856925964,0.23607581853866577
470280,-0.04227953776717186,0.22651176154613495,0.24161702394485474,-0.2334781289100647,0.5148204565048218,0.2394081950187683
470320,-0.046756405383348465,0.22677233815193176,0.23308134078979492,-0.23677107691764832,0.552673876285553,0.23850347101688385
470360,-0.04495472088456154,0.22972805798053741,0.2337150275707245,-0.2611437439918518,0.5322555303573608,0.24012772738933563
470400,-0.04960767552256584,0.22794370353221893,0.22664795815944672,-0.23357371985912323,0.5697165727615356,0.23697064816951752
470440,-0.053442008793354034,0.22742582857608795,0.22177627682685852,-0.22730393707752228,0.5881985425949097,0.23894809186458588
470480,-0.052244316786527634,0.22899489104747772,0.22614020109176636,-0.22978918254375458,0.5821005702018738,0.2361268848180771
470520,-0.04925091937184334,0.22829002141952515,0.23152391612529755,-0.22053000330924988,0.5532154440879822,0.22962835431098938
470560,-0.04848239943385124,0.22576949000358582,0.22991663217544556,-0.198049858212471,0.5486173033714294,0.22554244101047516
470600,-0.047607313841581345,0.2275657057762146,0.23232699930667877,-0.20540505647659302,0.538169264793396,0.22049188613891602
470640,-0.049334969371557236,0.23017552495002747,0.2323310524225235,-0.21831664443016052,0.5597485899925232,0.22220632433891296
470680,-0.048832911998033524,0.22897545993328094,0.2318662405014038,-0.21295316517353058,0.5595270991325378,0.2205343246459961
470720,-0.04485030099749565,0.22829899191856384,0.2356945127248764,-0.21401061117649078,0.5330392122268677,0.21601423621177673
470760,-0.04394085332751274,0.2215406745672226,0.23340874910354614,-0.17765940725803375,0.5373888611793518,0.2123715728521347
470800,-0.04680422693490982,0.22687290608882904,0.23471084237098694,-0.21191708743572235,0.5479224920272827,0.21610866487026215
470840,-0.04869747906923294,0.2288672924041748,0.2332184612751007,-0.22182290256023407,0.5645488500595093,0.21561118960380554
470880,-0.04746096208691597,0.22646953165531158,0.23121143877506256,-0.20585250854492188,0.5599103569984436,0.21278677880764008
470920,-0.04842502623796463,0.2295575886964798,0.2348232865333557,-0.2245098501443863,0.5651183724403381,0.2120777815580368
470960,-0.0434124693274498,0.22351546585559845,0.23707135021686554,-0.1886829286813736,0.5343130230903625,0.20503373444080353
471000,-0.04094270244240761,0.222251757979393,0.2332812249660492,-0.17574550211429596,0.5195440649986267,0.20211690664291382
471040,-0.04028599336743355,0.22086945176124573,0.23369520902633667,-0.17020271718502045,0.5146028399467468,0.19862551987171173
471080,-0.040879685431718826,0.21894612908363342,0.22694022953510284,-0.15917383134365082,0.5248417854309082,0.196687713265419
471120,-0.042282987385988235,0.21957291662693024,0.22928300499916077,-0.1648605465888977,0.5284581780433655,0.1939597874879837
471160,-0.040861453860998154,0.21791543066501617,0.23205949366092682,-0.14976023137569427,0.5237811207771301,0.1887826770544052
471200,-0.044895537197589874,0.21863046288490295,0.2334032505750656,-0.1672464907169342,0.5417726635932922,0.18693223595619202
471240,-0.04784379154443741,0.22237449884414673,0.23000884056091309,-0.1822226196527481,0.5641031861305237,0.18552130460739136
471280,-0.04514610022306442,0.22202351689338684,0.22797617316246033,-0.18291661143302917,0.5435242056846619,0.1832798719406128
471320,-0.04287068173289299,0.22352415323257446,0.22558948397636414,-0.18417733907699585,0.5316242575645447,0.18041937053203583
471360,-0.04538096487522125,0.22496198117733002,0.22347325086593628,-0.19400782883167267,0.5601027607917786,0.17692165076732635
471400,-0.04233245924115181,0.22482535243034363,0.22257521748542786,-0.19097816944122314,0.5384021997451782,0.1756492704153061
471440,-0.04305955767631531,0.22098013758659363,0.22185106575489044,-0.1780042201280594,0.5491223931312561,0.17365199327468872
471480,-0.039212409406900406,0.22125977277755737,0.2272370308637619,-0.1836552768945694,0.5211814045906067,0.17175638675689697
471520,-0.037579793483018875,0.21777769923210144,0.23172490298748016,-0.161300390958786,0.5122525095939636,0.1701762080192566
471560,-0.03616270050406456,0.21678239107131958,0.23099642992019653,-0.15611258149147034,0.5057953596115112,0.1685548722743988
471600,-0.036055777221918106,0.21856969594955444,0.23424065113067627,-0.18035577237606049,0.49956822395324707,0.16791550815105438
471640,-0.04392937570810318,0.21326138079166412,0.2304152250289917,-0.14682847261428833,0.5516278147697449,0.16674821078777313
471680,-0.04793518781661987,0.21832439303398132,0.2279152274131775,-0.18712854385375977,0.5759296417236328,0.16153432428836823
471720,-0.042922936379909515,0.22092494368553162,0.23062758147716522,-0.2031611204147339,0.5538402199745178,0.16172181069850922
471760,-0.038546547293663025,0.22628100216388702,0.23410524427890778,-0.23496674001216888,0.5303285717964172,0.15798090398311615
471800,-0.03649160638451576,0.2292703241109848,0.23645015060901642,-0.2515324354171753,0.5202932953834534,0.1572440266609192
471840,-0.03665871173143387,0.22825555503368378,0.23400183022022247,-0.24914178252220154,0.5233436226844788,0.1527266651391983
471880,-0.03504391014575958,0.22562071681022644,0.23178933560848236,-0.2412089705467224,0.5211288332939148,0.1509568691253662
471920,-0.03165730834007263,0.22776301205158234,0.23644886910915375,-0.25235235691070557,0.4948062002658844,0.1453811228275299
471960,-0.03134041652083397,0.22865921258926392,0.23747417330741882,-0.25319379568099976,0.49894362688064575,0.14453214406967163
472000,-0.03016422875225544,0.22663754224777222,0.2463066130876541,-0.23493357002735138,0.4879625141620636,0.14202038943767548
472040,-0.02958989329636097,0.22662679851055145,0.2449541538953781,-0.23293262720108032,0.491066575050354,0.13956935703754425
472080,-0.03872191160917282,0.2265891283750534,0.2414354532957077,-0.22827328741550446,0.5435758233070374,0.14568910002708435
472120,-0.03944447264075279,0.2287328690290451,0.24531617760658264,-0.24248813092708588,0.5541553497314453,0.1440870612859726
472160,-0.03970973938703537,0.23082928359508514,0.24661590158939362,-0.253917932510376,0.5517783761024475,0.14126242697238922
472200,-0.04155988618731499,0.22885294258594513,0.246888667345047,-0.24144896864891052,0.5602307319641113,0.14404940605163574
472240,-0.04061535745859146,0.22980275750160217,0.2470240294933319,-0.23718273639678955,0.5448058247566223,0.14289255440235138
472280,-0.03415913134813309,0.2292865365743637,0.24922767281532288,-0.24088218808174133,0.5017768740653992,0.13423912227153778
472320,-0.035078421235084534,0.22507593035697937,0.24244725704193115,-0.2045755535364151,0.5085847973823547,0.1401500701904297
472360,-0.033199965953826904,0.2288305163383484,0.24490883946418762,-0.22818955779075623,0.5081469416618347,0.1351340413093567
472400,-0.0331462062895298,0.22959934175014496,0.23799534142017365,-0.23825985193252563,0.5120581388473511,0.1308850646018982
472440,-0.03646994009613991,0.2288471907377243,0.23610283434391022,-0.234389528632164,0.5322330594062805,0.13457462191581726
472480,-0.038100793957710266,0.2292877584695816,0.23925530910491943,-0.23619303107261658,0.5452239513397217,0.1348417103290558
472520,-0.041365355253219604,0.2297748327255249,0.24274398386478424,-0.23578889667987823,0.5791615843772888,0.13510601222515106
472560,-0.046581342816352844,0.2294832170009613,0.24365279078483582,-0.2304084748029709,0.6072878241539001,0.13729192316532135
472600,-0.05355881154537201,0.23099152743816376,0.2417927235364914,-0.2352689951658249,0.6473307609558105,0.13982540369033813
472640,-0.05714404955506325,0.23008102178573608,0.2427911013364792,-0.22566327452659607,0.6604180335998535,0.14654852449893951
472680,-0.05090360343456268,0.23093561828136444,0.24736402928829193,-0.24055837094783783,0.6114733219146729,0.1340884417295456
472720,-0.04913422092795372,0.22926601767539978,0.24964338541030884,-0.2278515249490738,0.5959483981132507,0.13272565603256226
472760,-0.04642629623413086,0.22751495242118835,0.25316566228866577,-0.20557788014411926,0.5742615461349487,0.13607633113861084
472800,-0.04907796531915665,0.227412611246109,0.24780164659023285,-0.20170770585536957,0.5899809002876282,0.13453274965286255
472840,-0.05048007890582085,0.22330383956432343,0.24193614721298218,-0.17514467239379883,0.6014207005500793,0.14200785756111145
472880,-0.04939970001578331,0.22090645134449005,0.24018003046512604,-0.16287125647068024,0.5847207903862,0.14561372995376587
472920,-0.04426981508731842,0.22096829116344452,0.2427966445684433,-0.16463296115398407,0.5498466491699219,0.14253640174865723
472960,-0.04138660058379173,0.2233361303806305,0.2444046288728714,-0.1789022833108902,0.5216522812843323,0.13787908852100372
473000,-0.03915414214134216,0.22600165009498596,0.24444712698459625,-0.1959945261478424,0.5118358731269836,0.13255053758621216
473040,-0.03864716365933418,0.2271261066198349,0.2511438727378845,-0.1991327852010727,0.5085194110870361,0.12968756258487701
473080,-0.04348320513963699,0.22408320009708405,0.24839633703231812,-0.18877661228179932,0.5434013605117798,0.1282423436641693
473120,-0.042767658829689026,0.22641925513744354,0.2500015199184418,-0.2020193189382553,0.5464857220649719,0.1218571811914444
473160,-0.046996816992759705,0.2250329852104187,0.24405211210250854,-0.18885305523872375,0.5699860453605652,0.12038859724998474
473200,-0.04874594509601593,0.2294173538684845,0.2464025318622589,-0.21273629367351532,0.5815861225128174,0.11185997724533081
473240,-0.04997840151190758,0.22551821172237396,0.24450258910655975,-0.1981780081987381,0.5865395069122314,0.11169758439064026
473280,-0.04978375881910324,0.22245731949806213,0.23374836146831512,-0.17219947278499603,0.585643470287323,0.11168409883975983
473320,-0.051571331918239594,0.2192782461643219,0.23211552202701569,-0.15836568176746368,0.5980165600776672,0.1126478910446167
473360,-0.04920414462685585,0.2230531871318817,0.23695577681064606,-0.1832554042339325,0.584690272808075,0.10734167695045471
473400,-0.04959834739565849,0.2283640205860138,0.24086783826351166,-0.2187303602695465,0.5889928936958313,0.09516017884016037
473440,-0.05695826932787895,0.23528099060058594,0.23931539058685303,-0.26053550839424133,0.6320456862449646,0.08244553208351135
473480,-0.05712861567735672,0.23177292943000793,0.23370996117591858,-0.24020570516586304,0.6202602386474609,0.08469174057245255
473520,-0.0562027171254158,0.2244650423526764,0.23036080598831177,-0.19127583503723145,0.6046628355979919,0.09441117942333221
473560,-0.05789968743920326,0.23102432489395142,0.23531566560268402,-0.23045088350772858,0.6133214235305786,0.08511477708816528
473600,-0.049734488129615784,0.22987692058086395,0.23986411094665527,-0.21668197214603424,0.5565850734710693,0.0863102599978447
