Timestamp,stateEstimate.x,stateEstimate.y,stateEstimate.z,stateEstimate.roll,stateEstimate.pitch,stateEstimate.yaw
32319,0.028060512617230415,0.27375122904777527,0.25310027599334717,-0.25238871574401855,0.39572620391845703,-0.2868616580963135
32359,0.03539693355560303,0.2749224007129669,0.24309904873371124,-0.25535163283348083,0.3631688356399536,-0.29273149371147156
32399,0.03234288468956947,0.2647485136985779,0.2558005750179291,-0.19005483388900757,0.3875628411769867,-0.29645368456840515
32439,0.03572147339582443,0.27609750628471375,0.26166093349456787,-0.25286370515823364,0.3766070306301117,-0.279865026473999
32479,0.031844884157180786,0.27412742376327515,0.2723408341407776,-0.23769468069076538,0.41338589787483215,-0.27743297815322876
32519,0.022022701799869537,0.27285194396972656,0.27536308765411377,-0.22551874816417694,0.4813067615032196,-0.27462613582611084
32559,0.005411434918642044,0.2665609121322632,0.273345947265625,-0.19499345123767853,0.5785715579986572,-0.27626320719718933
32599,0.005355626344680786,0.26521721482276917,0.2784883975982666,-0.19356803596019745,0.5722053050994873,-0.27407729625701904
32639,0.0019368280190974474,0.26859861612319946,0.26913756132125854,-0.21097400784492493,0.5786528587341309,-0.27461981773376465
32679,-0.0002836069033946842,0.2663749158382416,0.2516275942325592,-0.17998173832893372,0.5939211249351501,-0.2693433463573456
32719,-0.0009626172832213342,0.26831236481666565,0.2524595558643341,-0.19242973625659943,0.5828811526298523,-0.27165448665618896
32759,0.006428610999137163,0.27154862880706787,0.24899664521217346,-0.21345996856689453,0.5375497937202454,-0.27024319767951965
32799,0.01171462144702673,0.2737483084201813,0.2515745759010315,-0.228073850274086,0.499178946018219,-0.26684877276420593
32839,0.00803426280617714,0.2729845345020294,0.2525842487812042,-0.20455938577651978,0.5162871479988098,-0.2623201608657837
32879,0.006579259876161814,0.27335652709007263,0.24938452243804932,-0.20482948422431946,0.5274764895439148,-0.26302123069763184
32919,0.006804673001170158,0.2793218791484833,0.2542850375175476,-0.2375686913728714,0.5155819058418274,-0.27380362153053284
32959,0.013130785897374153,0.28216829895973206,0.25458166003227234,-0.24585677683353424,0.48528096079826355,-0.2696465253829956
32999,0.017761437222361565,0.27825728058815,0.2547462284564972,-0.22442607581615448,0.4554089605808258,-0.24925221502780914
33039,0.018658319488167763,0.27927687764167786,0.2513693869113922,-0.2312023937702179,0.4586193859577179,-0.2521296441555023
33079,0.026627205312252045,0.2779870629310608,0.25138378143310547,-0.22021739184856415,0.4232597053050995,-0.2365935742855072
33119,0.021497080102562904,0.28410831093788147,0.256293386220932,-0.24785611033439636,0.45555171370506287,-0.2625713348388672
33159,0.021066421642899513,0.2733096778392792,0.2552306354045868,-0.1860719621181488,0.46190038323402405,-0.2390298992395401
33199,0.022891908884048462,0.27928099036216736,0.2496224045753479,-0.21241645514965057,0.4559226334095001,-0.24738629162311554
33239,0.01676597259938717,0.28145888447761536,0.24753080308437347,-0.215459942817688,0.49011972546577454,-0.25533899664878845
33279,0.02330278791487217,0.2801614999771118,0.24514725804328918,-0.20689067244529724,0.4506172835826874,-0.23932664096355438
33319,0.009791797958314419,0.28977441787719727,0.23825141787528992,-0.2528392970561981,0.528195858001709,-0.27318301796913147
33359,0.01044661644846201,0.2814332842826843,0.23890577256679535,-0.20088766515254974,0.5183176398277283,-0.25354093313217163
33399,0.01284951064735651,0.27704599499702454,0.24343156814575195,-0.1811237335205078,0.49398738145828247,-0.23984631896018982
33439,0.009266328997910023,0.27349966764450073,0.251672625541687,-0.16303130984306335,0.5166608691215515,-0.23703162372112274
33479,0.008325734175741673,0.2658463418483734,0.24205979704856873,-0.129917711019516,0.5127790570259094,-0.2207733392715454
33519,-0.001929650199599564,0.26320788264274597,0.23748011887073517,-0.11366913467645645,0.5527641177177429,-0.2291896492242813
33559,-0.0016987259732559323,0.260433554649353,0.22498351335525513,-0.09432028234004974,0.5465341806411743,-0.21539190411567688
33599,0.0015822851564735174,0.24859334528446198,0.22181354463100433,-0.030609024688601494,0.5128065943717957,-0.16161347925662994
33639,-0.0007811272516846657,0.2459234744310379,0.21989646553993225,-0.023761652410030365,0.5075667500495911,-0.15469996631145477
33679,0.0024522922467440367,0.23689435422420502,0.22379781305789948,0.01662636175751686,0.4894648790359497,-0.11686914414167404
33719,0.0024682404473423958,0.23925422132015228,0.22839151322841644,-0.0070060845464468,0.4820080101490021,-0.12736232578754425
33759,-0.004508275538682938,0.23366676270961761,0.22887268662452698,0.009133494459092617,0.516934335231781,-0.14431801438331604
33799,-0.001758660888299346,0.23301748931407928,0.23049183189868927,-0.003829273395240307,0.5071254968643188,-0.1422930806875229
33839,-0.004575009923428297,0.2288096845149994,0.22558893263339996,-0.002252984791994095,0.5251798629760742,-0.1626991629600525
33879,-0.0022722601424902678,0.22956237196922302,0.2278711050748825,-0.02433186024427414,0.5055774450302124,-0.1592315286397934
33919,-0.0010741561418399215,0.22934003174304962,0.22567199170589447,-0.034711431711912155,0.49777498841285706,-0.1576845943927765
33959,-0.005347333382815123,0.2331548035144806,0.23222118616104126,-0.07731632888317108,0.5201442241668701,-0.20299898087978363
33999,-0.00422449829056859,0.23295901715755463,0.23335057497024536,-0.09597430378198624,0.5147643685340881,-0.20683401823043823
34039,-0.007906217128038406,0.23280805349349976,0.22979667782783508,-0.10212486237287521,0.5362824201583862,-0.2337590754032135
34079,-0.006401706952601671,0.23383967578411102,0.2326539158821106,-0.12119477987289429,0.5174614787101746,-0.22553370893001556
34119,-0.004960847552865744,0.23128283023834229,0.23897694051265717,-0.11773313581943512,0.5126625299453735,-0.21737273037433624
34159,-0.011914455331861973,0.23333840072155,0.23249727487564087,-0.12508413195610046,0.5534915328025818,-0.2547905147075653
34199,-0.01943977363407612,0.2412795126438141,0.2340143918991089,-0.18080361187458038,0.5851361751556396,-0.30348750948905945
34239,-0.021980928257107735,0.24256376922130585,0.23372702300548553,-0.19262050092220306,0.5868492722511292,-0.3140416145324707
34279,-0.02085258439183235,0.24523723125457764,0.24029728770256042,-0.2046603411436081,0.5650655031204224,-0.3113621473312378
34319,-0.017338979989290237,0.24336621165275574,0.2414339929819107,-0.2017257958650589,0.5334734916687012,-0.2959558665752411
34359,-0.017598817124962807,0.238381490111351,0.23198524117469788,-0.1674550622701645,0.5348225831985474,-0.27700337767601013
34399,-0.012856031768023968,0.2344740480184555,0.22377553582191467,-0.14663997292518616,0.49288100004196167,-0.2564682364463806
34439,-0.009468820877373219,0.23735271394252777,0.21540428698062897,-0.16894641518592834,0.4699486792087555,-0.2586655616760254
34479,-0.004683235194534063,0.24562107026576996,0.2105347365140915,-0.22097522020339966,0.4307330548763275,-0.27299484610557556
34519,-0.005361688323318958,0.24127855896949768,0.21262302994728088,-0.197519913315773,0.4228372573852539,-0.2665306031703949
34559,-0.003814395982772112,0.24666279554367065,0.21546773612499237,-0.22648799419403076,0.4156744182109833,-0.26913559436798096
34599,-0.008046540431678295,0.24364779889583588,0.20891626179218292,-0.20642882585525513,0.43674302101135254,-0.26070958375930786
34639,-0.009196114726364613,0.24321040511131287,0.20794060826301575,-0.2049446403980255,0.4448358416557312,-0.25943028926849365
34679,-0.012126007117331028,0.24164919555187225,0.20806054770946503,-0.20506513118743896,0.4537219703197479,-0.25384682416915894
34719,-0.01353944931179285,0.24529898166656494,0.21856582164764404,-0.23130658268928528,0.45238736271858215,-0.2488911747932434
34759,-0.009560019709169865,0.24428434669971466,0.22110989689826965,-0.23512521386146545,0.4287630021572113,-0.25703826546669006
34799,-0.020011693239212036,0.24710096418857574,0.21774521470069885,-0.2507457435131073,0.4973205029964447,-0.2160559445619583
34839,-0.016230463981628418,0.24279075860977173,0.2182769477367401,-0.22670671343803406,0.46448785066604614,-0.2332070916891098
34879,-0.012570979073643684,0.24195586144924164,0.2225913107395172,-0.22082218527793884,0.44507157802581787,-0.2462935596704483
34919,-0.013281258754432201,0.240902841091156,0.22394147515296936,-0.2192203849554062,0.45017677545547485,-0.24443873763084412
34959,-0.008225323632359505,0.2439262866973877,0.22640569508075714,-0.22365091741085052,0.42003434896469116,-0.2584592401981354
34999,-0.004711118992418051,0.230934739112854,0.23102888464927673,-0.15602149069309235,0.4069369435310364,-0.2842852771282196
35039,-0.004036263097077608,0.22932353615760803,0.22586296498775482,-0.1517229825258255,0.403717041015625,-0.28906285762786865
35079,-0.006371664814651012,0.23132868111133575,0.2253287136554718,-0.16902177035808563,0.42082667350769043,-0.2732962667942047
35119,-0.013479894027113914,0.23533378541469574,0.21924695372581482,-0.19878415763378143,0.4572715759277344,-0.23737522959709167
35159,-0.010751698166131973,0.2368154674768448,0.22254204750061035,-0.20944350957870483,0.4409586191177368,-0.24539774656295776
35199,-0.021572250872850418,0.24909581243991852,0.2244403064250946,-0.2797238230705261,0.504658043384552,-0.17653945088386536
35239,-0.022570030763745308,0.2508247196674347,0.23295779526233673,-0.28946778178215027,0.5102016925811768,-0.1714373677968979
35279,-0.02118811197578907,0.2483270764350891,0.23577091097831726,-0.27311432361602783,0.49910712242126465,-0.18011091649532318
35319,-0.019291682168841362,0.24853669106960297,0.2283708155155182,-0.2700076699256897,0.48984241485595703,-0.18600653111934662
35359,-0.02171408012509346,0.2541845738887787,0.22994567453861237,-0.30078306794166565,0.5008624792098999,-0.1676536649465561
35399,-0.014752407558262348,0.25508299469947815,0.2269120216369629,-0.3030591309070587,0.45444926619529724,-0.19871553778648376
35439,-0.019277650862932205,0.25038403272628784,0.22378869354724884,-0.2688593864440918,0.47902610898017883,-0.18614713847637177
35479,-0.016898516565561295,0.2488575130701065,0.22047510743141174,-0.25834792852401733,0.4603064954280853,-0.20336872339248657
35519,-0.02609921805560589,0.25216323137283325,0.2118886560201645,-0.2699313163757324,0.5162956714630127,-0.15191033482551575
35559,-0.02807803824543953,0.25482913851737976,0.21639804542064667,-0.2828560769557953,0.5268455743789673,-0.14138518273830414
35599,-0.028061887249350548,0.25907525420188904,0.21669691801071167,-0.30689841508865356,0.5265796184539795,-0.13414593040943146
35639,-0.029561132192611694,0.2646137773990631,0.21761715412139893,-0.3387390673160553,0.5224451422691345,-0.12599697709083557
35679,-0.025398219004273415,0.270746111869812,0.22928212583065033,-0.36919599771499634,0.492180198431015,-0.14753547310829163
35719,-0.024036753922700882,0.26486653089523315,0.2372249811887741,-0.3315083980560303,0.47581201791763306,-0.16709117591381073
35759,-0.02671332098543644,0.2733783423900604,0.23652613162994385,-0.3816465735435486,0.4967498779296875,-0.13904908299446106
35799,-0.02419811673462391,0.27314823865890503,0.23822848498821259,-0.37434130907058716,0.4790303707122803,-0.15202105045318604
35839,-0.023635340854525566,0.2768435776233673,0.2488410323858261,-0.3852459788322449,0.4772992432117462,-0.1547728329896927
35879,-0.02241526171565056,0.2721647322177887,0.24418985843658447,-0.34850260615348816,0.46723151206970215,-0.16367016732692719
35919,-0.020993439480662346,0.26972460746765137,0.24469417333602905,-0.3283645808696747,0.46442899107933044,-0.16687466204166412
35959,-0.026511356234550476,0.274617463350296,0.2520073354244232,-0.3430100977420807,0.5026506185531616,-0.13420307636260986
35999,-0.022860681638121605,0.2717518210411072,0.24416224658489227,-0.322430819272995,0.47605353593826294,-0.15444177389144897
36039,-0.030546829104423523,0.28404468297958374,0.24521981179714203,-0.3807394206523895,0.5168198347091675,-0.11041884869337082
36079,-0.03176667541265488,0.286386638879776,0.25048717856407166,-0.37899401783943176,0.5102086067199707,-0.11221102625131607
36119,-0.02801077999174595,0.28640931844711304,0.25581103563308716,-0.3705030679702759,0.4837104380130768,-0.135456383228302
36159,-0.03155003860592842,0.28385037183761597,0.2538633942604065,-0.34290409088134766,0.5010729432106018,-0.12189479172229767
36199,-0.03266887739300728,0.27725526690483093,0.2438177615404129,-0.294161319732666,0.5047678351402283,-0.1200118362903595
36239,-0.03080258145928383,0.2757069766521454,0.2570408284664154,-0.2833811342716217,0.49666860699653625,-0.1235601007938385
36279,-0.030144615098834038,0.2724621295928955,0.25972676277160645,-0.2628268301486969,0.48864051699638367,-0.12500067055225372
36319,-0.024580353870987892,0.2722334563732147,0.2563444674015045,-0.2618606686592102,0.4605826437473297,-0.14086027443408966
36359,-0.02904401533305645,0.2746898829936981,0.25684934854507446,-0.26973724365234375,0.48672986030578613,-0.13092319667339325
36399,-0.029684213921427727,0.27500879764556885,0.25563469529151917,-0.2621748447418213,0.482858806848526,-0.13287371397018433
36439,-0.023122595623135567,0.2713351547718048,0.25616493821144104,-0.23981043696403503,0.4425979554653168,-0.14490196108818054
36479,-0.025429125875234604,0.2712409794330597,0.254120409488678,-0.23032845556735992,0.4479265511035919,-0.14585156738758087
36519,-0.021779794245958328,0.2687835395336151,0.25606098771095276,-0.20675024390220642,0.43521150946617126,-0.14880415797233582
36559,-0.01773083209991455,0.26408472657203674,0.25865867733955383,-0.1799822449684143,0.4136243164539337,-0.15322841703891754
36599,-0.017755573615431786,0.2589719295501709,0.2532463073730469,-0.14354179799556732,0.408964604139328,-0.16112589836120605
36639,-0.011615249328315258,0.2573224902153015,0.24787025153636932,-0.1312786042690277,0.3754868507385254,-0.15281035006046295
36679,-0.009038778021931648,0.2542196214199066,0.2455693781375885,-0.1190059706568718,0.3642248213291168,-0.14943568408489227
36719,-0.013250164687633514,0.25989821553230286,0.23765859007835388,-0.1534799188375473,0.3839426636695862,-0.14738616347312927
36759,-0.011096968315541744,0.25782060623168945,0.24200128018856049,-0.14153346419334412,0.37868601083755493,-0.1489931046962738
36799,-0.012034966610372066,0.26185205578804016,0.24743790924549103,-0.16378481686115265,0.39048632979393005,-0.14852362871170044
36839,-0.016447685658931732,0.25891992449760437,0.25084832310676575,-0.14706683158874512,0.41886985301971436,-0.17612864077091217
36879,-0.0169729832559824,0.2501397132873535,0.2523488402366638,-0.10433968156576157,0.4216439127922058,-0.1954687088727951
36919,-0.01593107543885708,0.2496868222951889,0.2586038112640381,-0.10916998982429504,0.4179753363132477,-0.19259874522686005
36959,-0.010655855759978294,0.25565868616104126,0.2599979639053345,-0.1577932983636856,0.3802538216114044,-0.14581634104251862
36999,-0.009097415953874588,0.2575452923774719,0.26070436835289,-0.16374830901622772,0.3749541938304901,-0.13859835267066956
37039,-0.009974249638617039,0.2626360356807709,0.26315516233444214,-0.190472811460495,0.37805360555648804,-0.1354883909225464
37079,-0.01091761700809002,0.25938957929611206,0.2614651918411255,-0.1787930279970169,0.39132869243621826,-0.15559950470924377
37119,-0.006104232743382454,0.2612740397453308,0.2667069435119629,-0.1969747543334961,0.36411258578300476,-0.12431702762842178
37159,-0.0024946369230747223,0.2626931965351105,0.2637864649295807,-0.20438313484191895,0.34794268012046814,-0.10899386554956436
37199,0.00116223085206002,0.26261043548583984,0.26465892791748047,-0.2069224715232849,0.32413992285728455,-0.08678250014781952
37239,-0.0059187151491642,0.2663156986236572,0.24736230075359344,-0.22744859755039215,0.3754926323890686,-0.12127583473920822
37279,-0.00812784768640995,0.26927176117897034,0.25008296966552734,-0.23918113112449646,0.3930819034576416,-0.1303921490907669
37319,-0.012897959910333157,0.26566705107688904,0.2537177801132202,-0.21381522715091705,0.42181992530822754,-0.1582086831331253
37359,-0.010557722300291061,0.26623180508613586,0.2580046057701111,-0.21400322020053864,0.4122142791748047,-0.14967893064022064
37399,-0.010585715994238853,0.26312294602394104,0.2611981928348541,-0.2018599659204483,0.4141882658004761,-0.15258215367794037
37439,-0.004368010442703962,0.25631940364837646,0.25293928384780884,-0.1658044159412384,0.38958680629730225,-0.13954384624958038
37479,-0.005644484423100948,0.2579737901687622,0.25279226899147034,-0.17247453331947327,0.39662855863571167,-0.14452141523361206
37519,-0.00521727604791522,0.255801260471344,0.25093206763267517,-0.1593330353498459,0.3927176296710968,-0.14304643869400024
37559,-0.0021381708793342113,0.25614476203918457,0.2524603307247162,-0.15915191173553467,0.3781556785106659,-0.13690485060214996
37599,0.0003549619868863374,0.2541094124317169,0.2556079924106598,-0.15715454518795013,0.37190544605255127,-0.13500267267227173
37639,0.00033983925823122263,0.24685631692409515,0.24817098677158356,-0.11528518050909042,0.3813793361186981,-0.14152173697948456
37679,-0.0031169590074568987,0.25050196051597595,0.25240084528923035,-0.1428728848695755,0.4021318256855011,-0.15381455421447754
37719,-0.0023046606220304966,0.2516801059246063,0.25232771039009094,-0.15441979467868805,0.3943878412246704,-0.1510268747806549
37759,-0.00727405771613121,0.2622334361076355,0.2454879879951477,-0.21670404076576233,0.4138328433036804,-0.1677720695734024
37799,-0.0039886049926280975,0.25936248898506165,0.24565456807613373,-0.20742923021316528,0.38801684975624084,-0.1538320779800415
37839,-0.0027400499675422907,0.26420411467552185,0.25053414702415466,-0.24392284452915192,0.37703293561935425,-0.15624265372753143
37879,-0.0050575449131429195,0.2627224624156952,0.2353086620569229,-0.2329755574464798,0.3959493339061737,-0.15958133339881897
37919,-0.0014131700154393911,0.25681543350219727,0.23475711047649384,-0.21014060080051422,0.38446319103240967,-0.15162180364131927
37959,-0.004280423745512962,0.2565818130970001,0.23699945211410522,-0.2125851958990097,0.4023605287075043,-0.15683713555335999
37999,-0.003752538003027439,0.25527364015579224,0.24011555314064026,-0.20627571642398834,0.40414494276046753,-0.15313757956027985
38039,-0.003935682587325573,0.2592127323150635,0.2318354845046997,-0.2152492254972458,0.42020848393440247,-0.15896442532539368
38079,0.002523653209209442,0.26140472292900085,0.23124311864376068,-0.22622612118721008,0.3864424526691437,-0.1550748646259308
38119,0.00533493235707283,0.2596393823623657,0.2335597574710846,-0.21153534948825836,0.3880181312561035,-0.1491468995809555
38159,0.002323260297998786,0.2680244743824005,0.24093054234981537,-0.2582852840423584,0.40899229049682617,-0.16415810585021973
38199,0.002513563958927989,0.27045392990112305,0.23639747500419617,-0.2665565013885498,0.40840965509414673,-0.16482794284820557
38239,0.004779650364071131,0.26839613914489746,0.23969601094722748,-0.2525410056114197,0.40448251366615295,-0.15958982706069946
38279,0.01970754563808441,0.28271397948265076,0.24229663610458374,-0.33409395813941956,0.3210204541683197,-0.20043598115444183
38319,0.01894877292215824,0.2758295238018036,0.24667586386203766,-0.2897379398345947,0.34523457288742065,-0.1813531517982483
38359,0.008056451566517353,0.2727639973163605,0.24368816614151,-0.2615703344345093,0.4209333658218384,-0.1466628909111023
38399,0.0016908588586375117,0.2641739249229431,0.24236740171909332,-0.2032506912946701,0.459442675113678,-0.11511490494012833
38439,0.0014361104695126414,0.26146718859672546,0.24828162789344788,-0.1905934363603592,0.4656411409378052,-0.10865043103694916
38479,0.0011536076199263334,0.26017290353775024,0.24561817944049835,-0.19277682900428772,0.4754864275455475,-0.10432789474725723
38519,-0.0015973416157066822,0.2580353617668152,0.24341721832752228,-0.17798039317131042,0.4984522759914398,-0.08912242203950882
38559,0.0003511543618515134,0.25853419303894043,0.2524091303348541,-0.1810862421989441,0.48903509974479675,-0.09491957724094391
38599,-0.004814215935766697,0.2623137831687927,0.2523444592952728,-0.2022082507610321,0.5162374377250671,-0.09487207978963852
38639,-0.004860217683017254,0.2547018527984619,0.25322794914245605,-0.1636320799589157,0.5250533223152161,-0.07369387149810791
38679,-0.003902838798239827,0.2539396584033966,0.2503854036331177,-0.16269750893115997,0.5161446332931519,-0.07362549006938934
38719,-0.010538370348513126,0.2490566372871399,0.25603020191192627,-0.1343076378107071,0.5630137920379639,-0.04884816333651543
38759,-0.011049075052142143,0.2493225783109665,0.25750094652175903,-0.14002692699432373,0.5655639171600342,-0.049335841089487076
38799,-0.010847709141671658,0.25192907452583313,0.259509801864624,-0.16596081852912903,0.5587173700332642,-0.06718932092189789
38839,-0.019648121669888496,0.25063809752464294,0.25418972969055176,-0.15514695644378662,0.6096194386482239,-0.04879673570394516
38879,-0.021807515993714333,0.2478991448879242,0.25372451543807983,-0.13391977548599243,0.6188656091690063,-0.03181302919983864
38919,-0.02113453671336174,0.2458927482366562,0.25270378589630127,-0.12673106789588928,0.6161884665489197,-0.024642925709486008
38959,-0.02873179130256176,0.25019457936286926,0.25422966480255127,-0.15263019502162933,0.6510695219039917,-0.04119572415947914
38999,-0.02654578536748886,0.2482646107673645,0.2534053921699524,-0.14800655841827393,0.6329083442687988,-0.03798762708902359
39039,-0.03289395198225975,0.2458365559577942,0.2570227384567261,-0.13149888813495636,0.6636623740196228,-0.018471714109182358
39079,-0.034229204058647156,0.247785747051239,0.2556563913822174,-0.14147312939167023,0.6643133759498596,-0.029272565618157387
39119,-0.04601285606622696,0.26012492179870605,0.25402265787124634,-0.21770991384983063,0.7107937932014465,-0.10116057097911835
39159,-0.04409302398562431,0.2504974901676178,0.2538253664970398,-0.16322843730449677,0.6969984769821167,-0.04859187826514244
39199,-0.037858400493860245,0.2499169260263443,0.2534172236919403,-0.16782909631729126,0.6473366022109985,-0.05868782475590706
39239,-0.042937569320201874,0.25017938017845154,0.252729207277298,-0.17584945261478424,0.6707034707069397,-0.06319450587034225
39279,-0.03458870202302933,0.25081706047058105,0.24313414096832275,-0.18753965198993683,0.6110560894012451,-0.07966610044240952
39319,-0.025406071916222572,0.2462795078754425,0.2269786149263382,-0.17153723537921906,0.5594236850738525,-0.07287850975990295
39359,-0.02373695746064186,0.24789443612098694,0.23004397749900818,-0.18419979512691498,0.536920428276062,-0.08668875694274902
39399,-0.016808470711112022,0.2459510862827301,0.24092328548431396,-0.1733090877532959,0.493109792470932,-0.08075439929962158
39439,-0.01937185786664486,0.2457921952009201,0.23781217634677887,-0.17449627816677094,0.5051145553588867,-0.08026260882616043
39479,-0.018654055893421173,0.24276582896709442,0.2392953783273697,-0.1617765575647354,0.5005286931991577,-0.07142827659845352
39519,-0.016395119950175285,0.24229565262794495,0.24316512048244476,-0.16248387098312378,0.48297396302223206,-0.07600212842226028
39559,-0.02056964300572872,0.24838857352733612,0.23530633747577667,-0.19794286787509918,0.4989039897918701,-0.08847631514072418
39599,-0.020317884162068367,0.25010329484939575,0.22515283524990082,-0.20499107241630554,0.4888080060482025,-0.08733946084976196
39639,-0.013270917348563671,0.24973535537719727,0.21258485317230225,-0.20693108439445496,0.4472227394580841,-0.0936976969242096
39679,-0.00967788603156805,0.25099077820777893,0.2083875685930252,-0.21953804790973663,0.4216572344303131,-0.0989229679107666
39719,-0.007952166721224785,0.2460290789604187,0.20165197551250458,-0.1955198347568512,0.41033807396888733,-0.10131783038377762
39759,-0.008218083530664444,0.2437635064125061,0.19576513767242432,-0.18987774848937988,0.41469377279281616,-0.1010245606303215
39799,-0.008201987482607365,0.24628779292106628,0.1875668317079544,-0.20629890263080597,0.4183264672756195,-0.09871065616607666
39839,-0.007584694307297468,0.2389637529850006,0.196468323469162,-0.17015159130096436,0.42726925015449524,-0.10337185859680176
39879,-0.00959195476025343,0.23982352018356323,0.19791772961616516,-0.18190047144889832,0.43209370970726013,-0.09936758875846863
39919,-0.016463715583086014,0.23771710693836212,0.20394586026668549,-0.17317064106464386,0.4713633358478546,-0.09755350649356842
39959,-0.020382734015583992,0.24237734079360962,0.20336857438087463,-0.20325055718421936,0.4877033829689026,-0.0798039436340332
39999,-0.019920749589800835,0.24517911672592163,0.20799186825752258,-0.23174214363098145,0.4893425405025482,-0.06906749308109283
40039,-0.017954852432012558,0.24791927635669708,0.21130868792533875,-0.2555798888206482,0.4798060953617096,-0.06075899675488472
40079,-0.014535405673086643,0.25739067792892456,0.22002607583999634,-0.3047109842300415,0.45754677057266235,-0.04383350536227226
40119,-0.010305768810212612,0.2492312639951706,0.21767385303974152,-0.25780680775642395,0.4306165874004364,-0.06897462904453278
40159,-0.015823742374777794,0.2473601996898651,0.22117914259433746,-0.2494507133960724,0.4651043713092804,-0.05981913208961487
40199,-0.0121275270357728,0.25199970602989197,0.22393900156021118,-0.2735435366630554,0.44080889225006104,-0.05459299683570862
40239,-0.009786931797862053,0.25193676352500916,0.22350801527500153,-0.2704380452632904,0.42553195357322693,-0.05907426401972771
40279,-0.011792773380875587,0.250801682472229,0.227260559797287,-0.2543489933013916,0.43615731596946716,-0.0606190450489521
40319,-0.020617978647351265,0.24952809512615204,0.21732431650161743,-0.24508099257946014,0.4860594868659973,-0.04762299731373787
40359,-0.023611458018422127,0.2555593252182007,0.22402264177799225,-0.2717733681201935,0.493142306804657,-0.027705488726496696
40399,-0.026641467586159706,0.24894209206104279,0.22981391847133636,-0.23187799751758575,0.5091897249221802,-0.03823979198932648
40439,-0.023276757448911667,0.2542566955089569,0.22990822792053223,-0.26287680864334106,0.4890911877155304,-0.03191198408603668
40479,-0.019456030800938606,0.25382861495018005,0.22927094995975494,-0.2588413655757904,0.47101786732673645,-0.036762211471796036
40519,-0.015747474506497383,0.25964978337287903,0.22791698575019836,-0.2878257632255554,0.4560891091823578,-0.030430909246206284
40559,-0.012223889119923115,0.25839582085609436,0.22390829026699066,-0.280935138463974,0.44254040718078613,-0.03614862263202667
40599,-0.015155489556491375,0.2624288499355316,0.21982420980930328,-0.2951944172382355,0.4557281732559204,-0.022736305370926857
40639,-0.010194722563028336,0.2658829391002655,0.2127186357975006,-0.31288328766822815,0.4185134470462799,-0.028673619031906128
40679,-0.0062898751348257065,0.2656276524066925,0.21641704440116882,-0.3058789074420929,0.4082390367984772,-0.03532326966524124
40719,-0.002205089433118701,0.2601964473724365,0.2351190596818924,-0.2737239897251129,0.39300960302352905,-0.05408479645848274
40759,-0.0002753809676505625,0.26072704792022705,0.2389603704214096,-0.27289289236068726,0.39457300305366516,-0.05433978512883186
40799,0.000640335725620389,0.2642139792442322,0.24000494182109833,-0.2894364893436432,0.39390644431114197,-0.04809420183300972
40839,-0.0016352225793525577,0.2620205581188202,0.24056941270828247,-0.27077803015708923,0.40897712111473083,-0.04700445383787155
40879,-0.0020831499714404345,0.263504296541214,0.24287627637386322,-0.2724629342556,0.41824448108673096,-0.042762864381074905
40919,-0.0016638446832075715,0.26123565435409546,0.24433360993862152,-0.2545245587825775,0.42016780376434326,-0.052619367837905884
40959,-0.0049804579466581345,0.26297929883003235,0.24067780375480652,-0.25271496176719666,0.43940383195877075,-0.04294613376259804
40999,-0.011651393957436085,0.2663363814353943,0.2361242175102234,-0.2621673047542572,0.4738703966140747,-0.024419598281383514
41039,-0.018894797191023827,0.27089935541152954,0.2304575890302658,-0.2793295085430145,0.5185487866401672,-1.7414820831618272e-05
41079,-0.01547142956405878,0.26616862416267395,0.22678475081920624,-0.2427639365196228,0.4997215270996094,-0.0169979277998209
41119,-0.01253326516598463,0.26848113536834717,0.2292681187391281,-0.2589787244796753,0.4786832630634308,-0.019900791347026825
41159,-0.011438554152846336,0.2746356129646301,0.2306605726480484,-0.2877527177333832,0.46886780858039856,-0.017061589285731316
41199,-0.009917383082211018,0.27205562591552734,0.22690141201019287,-0.26800042390823364,0.4675948917865753,-0.01948564685881138
41239,-0.011800344102084637,0.2756989598274231,0.22711190581321716,-0.28519371151924133,0.47478610277175903,-0.014214693568646908
41279,-0.013307218439877033,0.270640105009079,0.22861680388450623,-0.24987587332725525,0.4832451343536377,-0.012690824456512928
41319,-0.016813017427921295,0.272371768951416,0.23310117423534393,-0.2574768662452698,0.48580560088157654,-0.007705827709287405
41359,-0.015130599029362202,0.2712758183479309,0.2414148449897766,-0.24432812631130219,0.4619095027446747,-0.01791718788444996
41399,-0.009479600936174393,0.2675536870956421,0.23962894082069397,-0.22137047350406647,0.4270094633102417,-0.026201268658041954
41439,-0.020071931183338165,0.26288875937461853,0.24050430953502655,-0.19372452795505524,0.49466681480407715,-0.01341510470956564
41479,-0.019927367568016052,0.25646328926086426,0.23544801771640778,-0.15807124972343445,0.4927111864089966,-0.008823771961033344
41519,-0.012909196317195892,0.25231534242630005,0.23690329492092133,-0.14045919477939606,0.4534514248371124,-0.006217749789357185
41559,-0.00809411983937025,0.2512516379356384,0.23744791746139526,-0.14021369814872742,0.4187995493412018,-0.006179173942655325
41599,-0.005615584086626768,0.24634024500846863,0.2342802733182907,-0.10581431537866592,0.408073753118515,-0.002178165363147855
41639,-0.007744630798697472,0.24251192808151245,0.2326265275478363,-0.08263684809207916,0.42200806736946106,-0.0037820369470864534
41679,-0.006097322795540094,0.24374297261238098,0.22837500274181366,-0.10410625487565994,0.40961194038391113,0.0016051630955189466
41719,-0.011988217011094093,0.24354767799377441,0.22598566114902496,-0.10821706801652908,0.4477705955505371,-0.016922028735280037
41759,-0.02142370492219925,0.2519090175628662,0.22033292055130005,-0.15299516916275024,0.5009358525276184,-0.04838518053293228
41799,-0.027372999116778374,0.24634693562984467,0.22150249779224396,-0.12244044244289398,0.5381196141242981,-0.06472422927618027
41839,-0.026849815621972084,0.24770855903625488,0.22230343520641327,-0.14106044173240662,0.5355042815208435,-0.06774634122848511
41879,-0.03376634791493416,0.24370470643043518,0.22326023876667023,-0.11233248561620712,0.5729288458824158,-0.08317768573760986
41919,-0.030885329470038414,0.24195659160614014,0.21333086490631104,-0.10223543643951416,0.5466728806495667,-0.062277473509311676
41959,-0.028986025601625443,0.24278263747692108,0.21432627737522125,-0.11919444054365158,0.5327415466308594,-0.06518219411373138
41999,-0.026132432743906975,0.24168765544891357,0.21923471987247467,-0.129639133810997,0.5033280253410339,-0.05258461460471153
42039,-0.01863366924226284,0.23595941066741943,0.22291943430900574,-0.1090402603149414,0.4584166705608368,-0.01925675757229328
42079,-0.020178191363811493,0.2354535162448883,0.22224201261997223,-0.11138860881328583,0.4621597230434418,-0.02335250936448574
42119,-0.02143242582678795,0.23360860347747803,0.22104193270206451,-0.10522692650556564,0.46736064553260803,-0.02802097052335739
42159,-0.022649815306067467,0.23962673544883728,0.22293004393577576,-0.15011529624462128,0.4723849296569824,-0.05315292999148369
42199,-0.013614448718726635,0.24524299800395966,0.2198043018579483,-0.18536032736301422,0.40954458713531494,-0.025252798572182655
42239,-0.011810599826276302,0.2472476214170456,0.2223386913537979,-0.1984362006187439,0.402863085269928,-0.02574736624956131
42279,-0.007294876500964165,0.2507447302341461,0.23048260807991028,-0.22291068732738495,0.38189491629600525,-0.021381832659244537
42319,-0.008209899067878723,0.2545483410358429,0.23359647393226624,-0.23807735741138458,0.3829461336135864,-0.02869073860347271
42359,-0.008137289434671402,0.25734686851501465,0.23860996961593628,-0.2509247064590454,0.39252305030822754,-0.033256080001592636
42399,0.00139194808434695,0.2502218186855316,0.22775878012180328,-0.20725645124912262,0.34889164566993713,-0.010927661322057247
42439,0.0033124207984656096,0.25632914900779724,0.2315482646226883,-0.24128146469593048,0.3454417884349823,-0.01673239842057228
42479,0.010411293245851994,0.24915191531181335,0.23747652769088745,-0.208660289645195,0.31557223200798035,-0.011134077794849873
42519,0.013087762519717216,0.25016018748283386,0.23402604460716248,-0.213698610663414,0.309577077627182,-0.010635660961270332
42559,0.015611990354955196,0.24792224168777466,0.22794663906097412,-0.19924503564834595,0.30178365111351013,-0.01212422363460064
42599,0.011876363307237625,0.253744900226593,0.22399841248989105,-0.23084184527397156,0.33752113580703735,-0.009804511442780495
42639,0.011565562337636948,0.26533740758895874,0.2275591790676117,-0.293642520904541,0.3418828845024109,0.006857977714389563
42679,0.008801777847111225,0.25925853848457336,0.23431922495365143,-0.25631994009017944,0.371243953704834,-0.00013137572386767715
42719,0.00996271800249815,0.2578096389770508,0.23358136415481567,-0.2477366328239441,0.3641512393951416,-0.0038414904847741127
42759,0.008051733486354351,0.25858864188194275,0.23329895734786987,-0.24953992664813995,0.37484532594680786,-0.002786405151709914
42799,0.010724548250436783,0.2587762176990509,0.23381496965885162,-0.24728740751743317,0.357291579246521,-0.00644060829654336
42839,0.012897019274532795,0.2599876821041107,0.23774269223213196,-0.25145503878593445,0.34889358282089233,-0.005874135531485081
42879,0.012808352708816528,0.26410195231437683,0.24731723964214325,-0.27644938230514526,0.3560713529586792,0.003844677237793803
42919,0.01120108924806118,0.263271301984787,0.2543754279613495,-0.2617194354534149,0.3758261501789093,0.007526894565671682
42959,0.0067167747765779495,0.26243531703948975,0.2526439130306244,-0.2559036612510681,0.40785568952560425,0.014421907253563404
42999,0.0034148457925766706,0.26808249950408936,0.25757038593292236,-0.28541576862335205,0.42862823605537415,0.028460143133997917
43039,-0.004389483947306871,0.2617446780204773,0.2518046796321869,-0.24884968996047974,0.4672488868236542,0.037380512803792953
43079,0.000748439400922507,0.26059186458587646,0.26012080907821655,-0.2468203455209732,0.4418835937976837,0.02544458396732807
43119,0.007712323684245348,0.2564524710178375,0.2687701880931854,-0.2241910696029663,0.4113527536392212,0.013763923197984695
43159,0.010686801746487617,0.25655055046081543,0.26951372623443604,-0.22602303326129913,0.39202460646629333,0.008647914975881577
43199,0.011600409634411335,0.25889068841934204,0.2639775276184082,-0.23371753096580505,0.39127102494239807,0.010807191021740437
43239,0.005846931133419275,0.24668027460575104,0.27672845125198364,-0.18167701363563538,0.42247289419174194,0.024377381429076195
43279,0.002528849057853222,0.2504056990146637,0.2778395712375641,-0.20092472434043884,0.4429328739643097,0.030240584164857864
43319,0.007188907824456692,0.2542147934436798,0.28506168723106384,-0.2163025289773941,0.4179796874523163,0.024540351703763008
43359,0.008613566868007183,0.2539462745189667,0.2824816107749939,-0.21861523389816284,0.4187454581260681,0.026298508048057556
43399,0.007874486036598682,0.2569994330406189,0.28083187341690063,-0.23572619259357452,0.4200023412704468,0.026357637718319893
43439,0.005045623052865267,0.25676509737968445,0.2808596193790436,-0.23170001804828644,0.44002389907836914,0.029578283429145813
43479,-0.001356518710963428,0.2461773008108139,0.27798721194267273,-0.17359596490859985,0.47628292441368103,0.05149117484688759
43519,-0.010302905924618244,0.24642467498779297,0.26407697796821594,-0.1743663251399994,0.5188803672790527,0.05821088328957558
43559,-0.01930338330566883,0.2582367956638336,0.24603815376758575,-0.23071971535682678,0.5522510409355164,0.049398310482501984
43599,-0.015894055366516113,0.25109824538230896,0.25206100940704346,-0.19582517445087433,0.5316979289054871,0.061005450785160065
43639,-0.012487062253057957,0.24772074818611145,0.25691497325897217,-0.18477556109428406,0.5030522346496582,0.06119459494948387
43679,-0.021987641230225563,0.24810373783111572,0.24894268810749054,-0.19257178902626038,0.5502663850784302,0.06609579920768738
43719,-0.021297771483659744,0.25172895193099976,0.24774150550365448,-0.21615132689476013,0.5370298027992249,0.050287358462810516
43759,-0.017428070306777954,0.25659868121147156,0.2555244266986847,-0.24181903898715973,0.5146918892860413,0.027295581996440887
43799,-0.018029650673270226,0.2588173449039459,0.25944751501083374,-0.2607385814189911,0.5033201575279236,0.011413942091166973
43839,-0.02915097028017044,0.2631343603134155,0.26088759303092957,-0.2880706191062927,0.5549730658531189,-0.0046106865629553795
43879,-0.022582801058888435,0.2619323432445526,0.2507988512516022,-0.27944454550743103,0.5038185715675354,-0.0019221099792048335
43919,-0.027376582846045494,0.26223090291023254,0.2524733245372772,-0.2734248638153076,0.5195963382720947,0.006147483829408884
43959,-0.031177734956145287,0.2542508840560913,0.25852248072624207,-0.2225704938173294,0.5436856150627136,0.05523595213890076
43999,-0.029173709452152252,0.2491353303194046,0.2701359987258911,-0.18638181686401367,0.5339746475219727,0.08535851538181305
44039,-0.029888028278946877,0.2502117156982422,0.2783673405647278,-0.19093409180641174,0.5429949760437012,0.08398907631635666
44079,-0.03082115761935711,0.2470950037240982,0.27725735306739807,-0.1681136190891266,0.5570637583732605,0.10603466629981995
44119,-0.030763443559408188,0.24869760870933533,0.27547919750213623,-0.18307502567768097,0.5515919327735901,0.09462883323431015
44159,-0.015338514931499958,0.23929475247859955,0.2554886043071747,-0.13544699549674988,0.46865323185920715,0.13769640028476715
44199,-0.019790805876255035,0.24581149220466614,0.25363805890083313,-0.17451855540275574,0.4901152551174164,0.10561896115541458
44239,-0.01859494112432003,0.24523477256298065,0.25345560908317566,-0.17626498639583588,0.4845839738845825,0.10561752319335938
44279,-0.03566926717758179,0.25554659962654114,0.24822501838207245,-0.231664776802063,0.5807996392250061,0.056680433452129364
44319,-0.030512625351548195,0.2534596621990204,0.2536277770996094,-0.22311890125274658,0.5341016054153442,0.06494364142417908
44359,-0.026623481884598732,0.24929453432559967,0.25327983498573303,-0.19511660933494568,0.5124759674072266,0.08428792655467987
44399,-0.022361934185028076,0.24058736860752106,0.25407400727272034,-0.1474711298942566,0.4865127503871918,0.11198496073484421
44439,-0.02617436647415161,0.23272837698459625,0.2504657208919525,-0.10709378868341446,0.507160484790802,0.12862560153007507
44479,-0.02174033783376217,0.23362630605697632,0.25480708479881287,-0.12373533844947815,0.48160412907600403,0.12511134147644043
44519,-0.023212231695652008,0.2353278398513794,0.24960792064666748,-0.1373276710510254,0.48397570848464966,0.12098828703165054
44559,-0.01711125299334526,0.23599164187908173,0.25068411231040955,-0.1489802449941635,0.45069998502731323,0.12851984798908234
44599,-0.011509259231388569,0.2322687804698944,0.2374061644077301,-0.1281720995903015,0.4278968870639801,0.14125292003154755
44639,-0.009205480106174946,0.2390708029270172,0.24381069839000702,-0.1750105768442154,0.41563114523887634,0.14171044528484344
44679,0.001160412677563727,0.2401411384344101,0.2363739162683487,-0.18273596465587616,0.3553934097290039,0.15856759250164032
44719,-0.007638966199010611,0.24262039363384247,0.22933651506900787,-0.19811095297336578,0.41562268137931824,0.13971108198165894
44759,-0.00712498277425766,0.24412347376346588,0.22451084852218628,-0.20911827683448792,0.4195284843444824,0.14046087861061096
44799,-0.0035490882582962513,0.25065112113952637,0.22939109802246094,-0.2556290924549103,0.4027118980884552,0.15452899038791656
44839,-0.007217953447252512,0.25131717324256897,0.22574016451835632,-0.26790449023246765,0.4297272264957428,0.15460842847824097
44879,-0.005008252803236246,0.24608410894870758,0.2342311441898346,-0.24436163902282715,0.4291015565395355,0.14579136669635773
44919,-0.004957220051437616,0.2528713345527649,0.23481422662734985,-0.2775505781173706,0.43159541487693787,0.16114802658557892
44959,-0.010886927135288715,0.25306031107902527,0.22982816398143768,-0.28208640217781067,0.46463292837142944,0.1620485633611679
44999,-0.011184164322912693,0.25655558705329895,0.2268335223197937,-0.3098239004611969,0.47087523341178894,0.17566382884979248
45039,-0.009907250292599201,0.2557707726955414,0.22806687653064728,-0.3066495656967163,0.4670834243297577,0.17119750380516052
45079,-0.008730530738830566,0.25686752796173096,0.2276546061038971,-0.31044259667396545,0.4558871388435364,0.17086035013198853
45119,-0.00427611917257309,0.25740939378738403,0.2287653237581253,-0.3074387013912201,0.4271337389945984,0.16415826976299286
45159,-0.00283411075361073,0.259406715631485,0.22675971686840057,-0.3186938166618347,0.4275631904602051,0.16721010208129883
45199,-0.0027559325098991394,0.25925564765930176,0.22594507038593292,-0.310149610042572,0.4356573224067688,0.16718025505542755
45239,0.0010220167459920049,0.26201876997947693,0.22990809381008148,-0.32085371017456055,0.41869261860847473,0.16443559527397156
45279,-0.0014349139528349042,0.2565579414367676,0.22739911079406738,-0.2908267378807068,0.4478271007537842,0.1570606678724289
45319,0.005674554035067558,0.25180575251579285,0.23085270822048187,-0.2645726203918457,0.4081072509288788,0.1273340880870819
45359,0.007297888398170471,0.24836838245391846,0.2242218405008316,-0.24365460872650146,0.4063977301120758,0.11631584912538528
45399,0.006086014211177826,0.2507956624031067,0.2149854302406311,-0.24646064639091492,0.4222957193851471,0.12119996547698975
45439,0.006251798011362553,0.2519683241844177,0.21303078532218933,-0.2526302635669708,0.4288969933986664,0.12263128906488419
45479,0.007909446023404598,0.2453538477420807,0.2066158652305603,-0.21249230206012726,0.4264000654220581,0.099437415599823
45519,0.007328214589506388,0.249468132853508,0.19407838582992554,-0.23691393435001373,0.4381791651248932,0.11577551811933517
45559,-0.0005563068552874029,0.24971608817577362,0.19712749123573303,-0.2446545660495758,0.4905939996242523,0.13599158823490143
45599,-0.003910197876393795,0.25052669644355774,0.20067504048347473,-0.24973568320274353,0.5065410137176514,0.13988371193408966
45639,-0.005709091667085886,0.2511262595653534,0.20466046035289764,-0.26568278670310974,0.522328794002533,0.15073977410793304
45679,-0.0072179026901721954,0.256489634513855,0.2112545371055603,-0.2956086993217468,0.5297787189483643,0.16226691007614136
45719,-0.005480559542775154,0.25441890954971313,0.21500910818576813,-0.28264352679252625,0.5207077860832214,0.15527069568634033
45759,-0.009172060526907444,0.2595309615135193,0.21574842929840088,-0.304900199174881,0.5356718301773071,0.16221630573272705
45799,-0.0058462913148105145,0.25869885087013245,0.22065722942352295,-0.2935945391654968,0.5157548785209656,0.15556666254997253
45839,-0.005002455785870552,0.2595665156841278,0.22973918914794922,-0.2862391769886017,0.5177472233772278,0.1554596722126007
45879,-0.004290538374334574,0.2614007592201233,0.22979667782783508,-0.29831722378730774,0.5169042348861694,0.1513577252626419
45919,-0.0033681842032819986,0.26010748744010925,0.22870707511901855,-0.2849448025226593,0.5142090916633606,0.1511084884405136
45959,0.0077659739181399345,0.25203201174736023,0.21578891575336456,-0.24655386805534363,0.4440579116344452,0.13183866441249847
45999,0.002315731020644307,0.24951915442943573,0.22095060348510742,-0.231598898768425,0.48097655177116394,0.14122183620929718
46039,-0.0031507969833910465,0.2456851601600647,0.22900709509849548,-0.2138165831565857,0.5160993337631226,0.1494467556476593
46079,-0.005854114890098572,0.25158992409706116,0.2366369366645813,-0.25194045901298523,0.5280754566192627,0.14896714687347412
46119,-0.00787346065044403,0.25285929441452026,0.23633579909801483,-0.2565617263317108,0.5232991576194763,0.14722897112369537
46159,-0.0047632851637899876,0.25772523880004883,0.23924954235553741,-0.2848742604255676,0.5068638324737549,0.14102385938167572
46199,-0.005408073775470257,0.2577308714389801,0.24607548117637634,-0.2783221900463104,0.5162131190299988,0.14051060378551483
46239,-0.0033214143477380276,0.25390639901161194,0.2467360943555832,-0.25424376130104065,0.5044220089912415,0.14527086913585663
46279,-0.0026347467210143805,0.2576528489589691,0.2510310709476471,-0.27471885085105896,0.5037769079208374,0.13907264173030853
46319,0.0018706845585256815,0.26419389247894287,0.2525961399078369,-0.30897676944732666,0.47453927993774414,0.1261792629957199
46359,0.0027751196175813675,0.2617325186729431,0.25157231092453003,-0.29525265097618103,0.47383496165275574,0.13012303411960602
46399,-0.0034695537760853767,0.2608228027820587,0.2452242374420166,-0.28155338764190674,0.5124902129173279,0.13703015446662903
46439,-0.007488439325243235,0.25550585985183716,0.24850182235240936,-0.2399711310863495,0.5327610373497009,0.14803990721702576
46479,-0.016251130029559135,0.2574731707572937,0.24302218854427338,-0.24844913184642792,0.5798402428627014,0.14785605669021606
46519,-0.016133258119225502,0.2624884247779846,0.23355919122695923,-0.2682519853115082,0.5714998245239258,0.13745051622390747
46559,-0.02370830997824669,0.25731509923934937,0.23582063615322113,-0.2420000433921814,0.6091200113296509,0.14790832996368408
46599,-0.020388919860124588,0.2511233985424042,0.2408037930727005,-0.20604020357131958,0.5795741081237793,0.1633702516555786
46639,-0.0176344346255064,0.25217458605766296,0.2477467805147171,-0.21192359924316406,0.5580171346664429,0.15787142515182495
46679,-0.015193041414022446,0.2484150528907776,0.2441049963235855,-0.18979127705097198,0.5438318252563477,0.17082257568836212
46719,-0.014383728615939617,0.24793057143688202,0.24418754875659943,-0.19058287143707275,0.5325303077697754,0.17044077813625336
46759,-0.014844384975731373,0.2490336298942566,0.24020394682884216,-0.19807955622673035,0.5304002165794373,0.16414237022399902
46799,-0.011664253659546375,0.25077691674232483,0.2290429025888443,-0.2045186460018158,0.513607919216156,0.1602049022912979
46839,-0.005695957690477371,0.2535325884819031,0.22078663110733032,-0.21934761106967926,0.4638643264770508,0.16076363623142242
46879,-0.0056051225401461124,0.25659820437431335,0.2220849245786667,-0.2304624766111374,0.46092525124549866,0.15387241542339325
46919,-0.005614402238279581,0.26694968342781067,0.22935783863067627,-0.28029969334602356,0.4589829742908478,0.1344175636768341
46959,-0.010428882203996181,0.2711518108844757,0.23795482516288757,-0.29641515016555786,0.48504239320755005,0.12372054904699326
46999,-0.01124156266450882,0.2649690508842468,0.23651370406150818,-0.26060470938682556,0.4900813102722168,0.13156579434871674
47039,-0.01391876395791769,0.2699182629585266,0.23362843692302704,-0.28304237127304077,0.49973779916763306,0.12257320433855057
47079,-0.013075846247375011,0.2639574706554413,0.23482079803943634,-0.24797523021697998,0.495850533246994,0.1331482231616974
47119,-0.015305077657103539,0.26754030585289,0.23673409223556519,-0.2639256417751312,0.5079689025878906,0.13123300671577454
47159,-0.01816423423588276,0.26871734857559204,0.23747961223125458,-0.2650564908981323,0.5228380560874939,0.1300724595785141
47199,-0.01761985383927822,0.2696762979030609,0.24591411650180817,-0.2671683430671692,0.5065844058990479,0.12654152512550354
47239,-0.01719506084918976,0.2609841823577881,0.23713019490242004,-0.21330754458904266,0.4911098778247833,0.14061763882637024
47279,-0.017782196402549744,0.26238012313842773,0.22928376495838165,-0.22472089529037476,0.48723557591438293,0.1362311691045761
47319,-0.019453885033726692,0.25881075859069824,0.22701780498027802,-0.21299110352993011,0.4893987774848938,0.13605649769306183
47359,-0.02373623661696911,0.2542518377304077,0.22583070397377014,-0.17772245407104492,0.512890100479126,0.1414005607366562
47399,-0.028526892885565758,0.24976767599582672,0.22546084225177765,-0.1545860767364502,0.5394111275672913,0.14569345116615295
47439,-0.034039456397295,0.25257042050361633,0.21694014966487885,-0.16456939280033112,0.5668312907218933,0.1386835277080536
47479,-0.03158718720078468,0.2535530924797058,0.22052347660064697,-0.1825343519449234,0.5391840934753418,0.13786590099334717
47519,-0.02993588335812092,0.2497759312391281,0.22197477519512177,-0.16787579655647278,0.5260722637176514,0.14550691843032837
47559,-0.031076496466994286,0.25016844272613525,0.22386400401592255,-0.1761358082294464,0.5328406095504761,0.14185956120491028
47599,-0.031302981078624725,0.2503579258918762,0.2313319891691208,-0.18326957523822784,0.5271446704864502,0.1391255259513855
47639,-0.0289265476167202,0.25126731395721436,0.22870562970638275,-0.18911218643188477,0.5024816393852234,0.14217647910118103
47679,-0.02361035905778408,0.24973535537719727,0.22468703985214233,-0.18360984325408936,0.46529775857925415,0.15494276583194733
47719,-0.023199254646897316,0.24753502011299133,0.21431384980678558,-0.16903159022331238,0.46821627020835876,0.15563873946666718
47759,-0.020327359437942505,0.24702554941177368,0.21787069737911224,-0.17335589230060577,0.449348509311676,0.1597091406583786
47799,-0.021713590249419212,0.24521414935588837,0.21918022632598877,-0.1643299162387848,0.45418787002563477,0.15833806991577148
47839,-0.027317728847265244,0.2510731518268585,0.21501296758651733,-0.19821736216545105,0.4810916483402252,0.1462167203426361
47879,-0.02356015518307686,0.24804489314556122,0.2136630266904831,-0.17404286563396454,0.4557817578315735,0.1538296788930893
47919,-0.026726044714450836,0.24941392242908478,0.2157873809337616,-0.183294877409935,0.476470023393631,0.14478757977485657
47959,-0.013856318779289722,0.2479555904865265,0.20492105185985565,-0.18076707422733307,0.4128997325897217,0.16216419637203217
47999,-0.016030652448534966,0.24990712106227875,0.21065764129161835,-0.19638308882713318,0.4226834177970886,0.15702234208583832
48039,-0.015653975307941437,0.252495676279068,0.2192065566778183,-0.21117781102657318,0.42451366782188416,0.15738198161125183
48079,-0.013358465395867825,0.253195583820343,0.2166425734758377,-0.21981360018253326,0.42500656843185425,0.16094423830509186
48119,-0.013464681804180145,0.25912410020828247,0.21920694410800934,-0.25735729932785034,0.4160744547843933,0.17101049423217773
48159,-0.0029410659335553646,0.2500127851963043,0.22244542837142944,-0.21017545461654663,0.35923126339912415,0.169558584690094
48199,-0.0036551058292388916,0.25189343094825745,0.2282882183790207,-0.21786098182201385,0.3698626756668091,0.17184986174106598
48239,-0.006212194450199604,0.2574765384197235,0.23108991980552673,-0.25500497221946716,0.3834547996520996,0.18623778223991394
48279,-0.005691025406122208,0.25748211145401,0.2251705676317215,-0.2506495714187622,0.38325035572052,0.17973722517490387
48319,-0.0016728603513911366,0.2567068934440613,0.22469109296798706,-0.24926269054412842,0.36493974924087524,0.17927871644496918
48359,-0.00034156307810917497,0.2548864185810089,0.22424757480621338,-0.24734477698802948,0.3687126040458679,0.1771288514137268
48399,0.007959077134728432,0.2571430504322052,0.22776833176612854,-0.2606409192085266,0.33683255314826965,0.1841704100370407
48439,0.008353575132787228,0.2577965259552002,0.22831186652183533,-0.25744521617889404,0.3464069962501526,0.17968185245990753
48479,0.0072976830415427685,0.2585541903972626,0.2229144424200058,-0.2603742182254791,0.36105668544769287,0.18321116268634796
48519,0.003761901753023267,0.25819987058639526,0.22422535717487335,-0.2558842897415161,0.3840409815311432,0.1832507997751236
48559,0.004911256022751331,0.2610320746898651,0.22438256442546844,-0.2647341191768646,0.39072391390800476,0.19065998494625092
48599,0.008122473023831844,0.26034700870513916,0.2258865386247635,-0.2564643621444702,0.3781210780143738,0.18155823647975922
48639,0.009190747514367104,0.25990235805511475,0.23091335594654083,-0.25220245122909546,0.37607645988464355,0.17870594561100006
48679,0.010957080870866776,0.26392418146133423,0.233825221657753,-0.2735147774219513,0.3758384883403778,0.19167284667491913
48719,0.007995281368494034,0.2667177617549896,0.23186470568180084,-0.2824988067150116,0.4019625782966614,0.205125093460083
48759,0.0004531179438345134,0.25993776321411133,0.24018330872058868,-0.23987841606140137,0.451038122177124,0.19315782189369202
48799,-0.006760138552635908,0.25472116470336914,0.24181042611598969,-0.21455973386764526,0.49583354592323303,0.19488893449306488
48839,-0.024797555059194565,0.27499955892562866,0.24139559268951416,-0.3268736004829407,0.5901739597320557,0.2680501937866211
48879,-0.03160234913229942,0.28367701172828674,0.24116583168506622,-0.3648865520954132,0.6172467470169067,0.29006633162498474
48919,-0.03533174842596054,0.28056126832962036,0.23499608039855957,-0.33769431710243225,0.6341988444328308,0.2931581735610962
48959,-0.03194747492671013,0.28402578830718994,0.23276954889297485,-0.34888771176338196,0.604765772819519,0.2757147252559662
48999,-0.03020739182829857,0.27960947155952454,0.23404620587825775,-0.3221023380756378,0.5850138068199158,0.267934113740921
49039,-0.033646777272224426,0.27591854333877563,0.23886823654174805,-0.28684186935424805,0.5940712094306946,0.2836045026779175
49079,-0.031322237104177475,0.28244855999946594,0.23920132219791412,-0.3159213066101074,0.5799260139465332,0.2649339437484741
49119,-0.030216235667467117,0.27482014894485474,0.23807068169116974,-0.2669866979122162,0.5725706219673157,0.28443342447280884
49159,-0.03233351185917854,0.27207016944885254,0.23355595767498016,-0.24126483500003815,0.5756542682647705,0.2981686592102051
49199,-0.028716234490275383,0.2737429440021515,0.23238036036491394,-0.25070902705192566,0.5517907738685608,0.2835521399974823
49239,-0.02936135232448578,0.2717219889163971,0.23629546165466309,-0.24204590916633606,0.5537945032119751,0.28894954919815063
49279,-0.03352431207895279,0.27274397015571594,0.23467053472995758,-0.24735406041145325,0.5749706029891968,0.29128679633140564
49319,-0.03157692030072212,0.2715086042881012,0.23164093494415283,-0.23905442655086517,0.5512609481811523,0.2858997583389282
49359,-0.034771859645843506,0.27312204241752625,0.23939833045005798,-0.2485172152519226,0.5651869177818298,0.2887611985206604
49399,-0.028519919142127037,0.2678055763244629,0.23628778755664825,-0.21728821098804474,0.528325617313385,0.2953794002532959
49439,-0.02295379340648651,0.2685990631580353,0.2402556836605072,-0.2232665866613388,0.4864538908004761,0.2758331298828125
49479,-0.023082872852683067,0.266245037317276,0.2448798418045044,-0.20879927277565002,0.4873989224433899,0.28453895449638367
49519,-0.022804241627454758,0.2620501220226288,0.24504826962947845,-0.18691980838775635,0.4798472225666046,0.29510483145713806
49559,-0.030688701197504997,0.2679726779460907,0.2419521063566208,-0.22029460966587067,0.5088679194450378,0.2795622646808624
49599,-0.025974702090024948,0.2646927833557129,0.2381732165813446,-0.20305807888507843,0.4777187705039978,0.28891050815582275
49639,-0.022763462737202644,0.25812771916389465,0.2471913844347,-0.1591203808784485,0.4486272931098938,0.31210047006607056
49679,-0.02875751256942749,0.2592952847480774,0.24956147372722626,-0.16760532557964325,0.477134108543396,0.3084108531475067
49719,-0.025719834491610527,0.26167166233062744,0.2536880373954773,-0.18793673813343048,0.45962783694267273,0.299819678068161
49759,-0.03169390186667442,0.2587704360485077,0.24390719830989838,-0.17803803086280823,0.5012416839599609,0.2946562170982361
49799,-0.035394735634326935,0.253474622964859,0.2307797223329544,-0.14829614758491516,0.5216647982597351,0.30014026165008545
49839,-0.016014015302062035,0.24938736855983734,0.21216820180416107,-0.12099433690309525,0.4107299745082855,0.33783382177352905
49879,-0.009601510129868984,0.2511938214302063,0.2166515588760376,-0.1386646181344986,0.37911516427993774,0.3419884443283081
49919,-0.007755151949822903,0.25363412499427795,0.21337927877902985,-0.15445871651172638,0.3775182366371155,0.3379795551300049
49959,-0.010219591669738293,0.24864263832569122,0.21402831375598907,-0.12973111867904663,0.3998981714248657,0.3296419680118561
49999,-0.011854313313961029,0.24874554574489594,0.214107945561409,-0.13830658793449402,0.4113476574420929,0.32419517636299133
50039,-0.013225643895566463,0.24813033640384674,0.21564462780952454,-0.1407470405101776,0.423380583524704,0.31496039032936096
50079,-0.01135690975934267,0.2505347430706024,0.21985340118408203,-0.1663629710674286,0.41793912649154663,0.3173142373561859
50119,-0.016646483913064003,0.2547703981399536,0.22207111120224,-0.18705594539642334,0.4628652036190033,0.2947835624217987
50159,-0.011759880930185318,0.24756574630737305,0.22168709337711334,-0.14531701803207397,0.4411264955997467,0.2996549904346466
50199,-0.012588761746883392,0.25060251355171204,0.22433167695999146,-0.16399222612380981,0.4404553472995758,0.29892346262931824
50239,-0.01944400742650032,0.2516242563724518,0.22007064521312714,-0.17220591008663177,0.47886043787002563,0.27755317091941833
50279,-0.016487155109643936,0.25199154019355774,0.22918619215488434,-0.18039298057556152,0.46777987480163574,0.28207674622535706
50319,-0.01542140357196331,0.25640442967414856,0.22896330058574677,-0.20222154259681702,0.4590780735015869,0.2873404920101166
50359,-0.012172529473900795,0.25047388672828674,0.23436285555362701,-0.1698700487613678,0.43727907538414,0.29063093662261963
50399,-0.01216868869960308,0.25796329975128174,0.23646536469459534,-0.2166079729795456,0.42928969860076904,0.3001547157764435
50439,-0.015588165260851383,0.2561350464820862,0.22499704360961914,-0.20478105545043945,0.45364102721214294,0.2871316075325012
50479,-0.016534462571144104,0.25272080302238464,0.22154821455478668,-0.18113179504871368,0.4605579674243927,0.2806922197341919
50519,-0.01428277138620615,0.25049805641174316,0.22722052037715912,-0.16953212022781372,0.44294729828834534,0.2813619077205658
50559,-0.013044600374996662,0.25294795632362366,0.22378326952457428,-0.18716907501220703,0.4397795498371124,0.2814086079597473
50599,-0.008332720957696438,0.25096675753593445,0.22940471768379211,-0.17910665273666382,0.4121313691139221,0.2852437198162079
50639,-0.0033497025724500418,0.24820992350578308,0.23172932863235474,-0.17234379053115845,0.3933154046535492,0.2868386209011078
50679,-0.0018309402512386441,0.24343883991241455,0.23515884578227997,-0.14428646862506866,0.3886343240737915,0.280823290348053
50719,0.0014523460995405912,0.24857574701309204,0.23343144357204437,-0.17363113164901733,0.37155118584632874,0.2890836298465729
50759,0.0029701045714318752,0.24276407063007355,0.23814089596271515,-0.14678755402565002,0.36928921937942505,0.2822471559047699
50799,0.008757525123655796,0.24863456189632416,0.2383575439453125,-0.17997433245182037,0.35138168931007385,0.29297858476638794
50839,0.002775845816358924,0.25462839007377625,0.24137744307518005,-0.2133244276046753,0.39024078845977783,0.2958398163318634
50879,0.004714202135801315,0.2633395791053772,0.2487676590681076,-0.2616906762123108,0.3782239854335785,0.30824825167655945
50919,0.002621636725962162,0.2611006796360016,0.24844352900981903,-0.2473938912153244,0.4022767245769501,0.30242493748664856
50959,0.001673367922194302,0.25894972681999207,0.2592698335647583,-0.23301464319229126,0.4134228825569153,0.29804688692092896
50999,0.0034050641115754843,0.2621585428714752,0.25788047909736633,-0.24189254641532898,0.4066360592842102,0.30051079392433167
51039,0.0033277967013418674,0.25823891162872314,0.2570517957210541,-0.22041121125221252,0.41665321588516235,0.2945020794868469
51079,-0.0015580365434288979,0.25592589378356934,0.2509378492832184,-0.2096806764602661,0.45330101251602173,0.30177003145217896
51119,-0.003872788045555353,0.2523219883441925,0.2578624188899994,-0.1901380717754364,0.47231656312942505,0.3011624813079834
