Timestamp,stateEstimate.x,stateEstimate.y,stateEstimate.z,stateEstimate.roll,stateEstimate.pitch,stateEstimate.yaw
598289,0.08714523166418076,0.2588954269886017,0.012746298685669899,0.1921592652797699,0.030992330983281136,0.9057220816612244
598329,0.0862455740571022,0.25947922468185425,0.012452163733541965,0.1534881740808487,0.03582406044006348,0.9099111557006836
598369,0.08505570143461227,0.2613043487071991,0.013848617672920227,0.12705464661121368,0.09389180690050125,0.8860059380531311
598409,0.08779171109199524,0.2609475255012512,0.01446426473557949,0.18154868483543396,0.013910030946135521,0.9035524129867554
598449,0.0876879170536995,0.25986289978027344,0.014871037565171719,0.18055464327335358,0.013556293211877346,0.9301069378852844
598489,0.08808482438325882,0.2608954906463623,0.014812137931585312,0.1503908932209015,0.0011799749918282032,0.9293750524520874
598529,0.08674763888120651,0.25980818271636963,0.014359612949192524,0.164058655500412,0.05955677852034569,0.94375079870224
598569,0.08840536326169968,0.2606663107872009,0.013895493000745773,0.15364108979701996,0.034617532044649124,0.951471745967865
598609,0.0854521319270134,0.26279619336128235,0.012666087597608566,0.1320524513721466,0.1472913771867752,0.9240370392799377
598649,0.08602528274059296,0.26210516691207886,0.012682927772402763,0.14103493094444275,0.07888778299093246,0.9411415457725525
598689,0.08469419926404953,0.2617371678352356,0.011407853104174137,0.20620109140872955,0.12172167748212814,0.9141075611114502
598729,0.08478780835866928,0.2622918486595154,0.011774321086704731,0.19979658722877502,0.09071783721446991,0.8991551995277405
598769,0.08497939258813858,0.26212015748023987,0.013328361324965954,0.19552622735500336,0.08259627968072891,0.9101405739784241
598809,0.08338254690170288,0.26143649220466614,0.013671889901161194,0.2453925758600235,0.11819346994161606,0.8789710402488708
598849,0.08229602128267288,0.2623142898082733,0.013516058214008808,0.24045617878437042,0.13543730974197388,0.8528006076812744
598889,0.08277416974306107,0.2625032961368561,0.013800747692584991,0.19598831236362457,0.12838180363178253,0.8894395232200623
598929,0.08261550217866898,0.26487258076667786,0.014362283051013947,0.14651982486248016,0.11469865590333939,0.8533149361610413
598969,0.08453252166509628,0.26408901810646057,0.014777088537812233,0.19606150686740875,0.03357052057981491,0.8186208605766296
599009,0.08443523198366165,0.26578202843666077,0.015079792588949203,0.14015519618988037,0.040674839168787,0.819642961025238
599049,0.08457940816879272,0.2660486400127411,0.014008143916726112,0.13724423944950104,0.03435323014855385,0.8284997344017029
599089,0.08386104553937912,0.26745548844337463,0.01321718841791153,0.11617721617221832,0.05049890652298927,0.797535240650177
599129,0.08536744862794876,0.26554590463638306,0.01354355551302433,0.18997593224048615,-0.0060604470781981945,0.7994673848152161
599169,0.08424623310565948,0.26538002490997314,0.01332145743072033,0.1716136634349823,0.043803874403238297,0.8173431754112244
599209,0.08606016635894775,0.26553046703338623,0.01270296797156334,0.16812795400619507,0.006879119668155909,0.8191094994544983
599249,0.08520597964525223,0.26499688625335693,0.012726154178380966,0.17161546647548676,0.04659005254507065,0.8297608494758606
599289,0.08578643947839737,0.2658233642578125,0.012776359915733337,0.18339093029499054,-0.0014423499815165997,0.7817385196685791
599329,0.08469285815954208,0.2667670249938965,0.013226041570305824,0.19777216017246246,0.046890098601579666,0.7390263676643372
599369,0.08474376052618027,0.26924648880958557,0.012735923752188683,0.14157061278820038,0.03751165792346001,0.7014074921607971
599409,0.0827772468328476,0.2698438763618469,0.01245688647031784,0.07793647050857544,0.13679660856723785,0.7200292944908142
599449,0.08342210948467255,0.2686386704444885,0.012229777872562408,0.10074716061353683,0.1408434361219406,0.7502759695053101
599489,0.0834643691778183,0.2681424021720886,0.012476176023483276,0.11075957864522934,0.09457533061504364,0.7561163306236267
599529,0.08403035998344421,0.26873114705085754,0.011905782856047153,0.15055592358112335,0.06743564456701279,0.7076160311698914
599569,0.08435555547475815,0.26858633756637573,0.011795665137469769,0.13870324194431305,0.040250856429338455,0.7295705080032349
599609,0.08401632308959961,0.2681898772716522,0.012264048680663109,0.12380025535821915,0.05438251048326492,0.752496600151062
599649,0.08527631312608719,0.26859259605407715,0.013007004745304585,0.13057978451251984,0.020042438060045242,0.7406575083732605
599689,0.08332046866416931,0.2699885666370392,0.013092772103846073,0.10469479113817215,0.04988797381520271,0.6994895935058594
599729,0.083692766726017,0.2708335220813751,0.013134422712028027,0.12715135514736176,0.030261101201176643,0.6597887873649597
599769,0.0845167487859726,0.27249675989151,0.012750128284096718,0.1286686807870865,-0.018780183047056198,0.6104077100753784
599809,0.08451364189386368,0.2724113166332245,0.012033175677061081,0.15044279396533966,-0.014800487086176872,0.5975625514984131
599849,0.08435799181461334,0.2744775712490082,0.012289171107113361,0.11687362939119339,0.011254159733653069,0.5445458292961121
599889,0.0827636867761612,0.274347186088562,0.012130014598369598,0.15025591850280762,0.061295367777347565,0.5262552499771118
599929,0.0827576145529747,0.27371183037757874,0.011625686660408974,0.1990843415260315,0.050234388560056686,0.5149915814399719
599969,0.08318231254816055,0.27462753653526306,0.011650723405182362,0.17217542231082916,0.01984354294836521,0.4980517625808716
600009,0.08053890615701675,0.27516597509384155,0.011297665536403656,0.15503200888633728,0.12230736017227173,0.4871012568473816
600049,0.0822378545999527,0.27525943517684937,0.011852854862809181,0.149739608168602,0.04595927149057388,0.5047220587730408
600089,0.08217094838619232,0.2757028639316559,0.012306328862905502,0.1303851306438446,0.05406811088323593,0.5149972438812256
600129,0.08218879252672195,0.2753850221633911,0.012375135906040668,0.15313655138015747,0.06808526813983917,0.5039647221565247
600169,0.08169160038232803,0.27629104256629944,0.012695944868028164,0.14807112514972687,0.0931137353181839,0.47187790274620056
600209,0.08202395588159561,0.2777276635169983,0.013913137838244438,0.16128228604793549,0.032873544842004776,0.4157959520816803
600249,0.08263655006885529,0.27713248133659363,0.014293870888650417,0.17776450514793396,0.01172884926199913,0.42569077014923096
600289,0.08334719389677048,0.2772486209869385,0.014058778062462807,0.14616984128952026,0.017459355294704437,0.4547380208969116
600329,0.0823679119348526,0.2777649760246277,0.014236693270504475,0.12938754260540009,0.07125228643417358,0.4489130973815918
600369,0.08413170278072357,0.277528315782547,0.013854165561497211,0.17172129452228546,0.0207504965364933,0.43183112144470215
600409,0.08398804813623428,0.2780146598815918,0.014429024420678616,0.15916141867637634,0.034752991050481796,0.42133721709251404
600449,0.08213552832603455,0.2774691879749298,0.01322528813034296,0.15252910554409027,0.08199543505907059,0.4497622847557068
600489,0.0837404802441597,0.2765502333641052,0.012678852304816246,0.18972067534923553,0.05295713618397713,0.44691210985183716
600529,0.08372567594051361,0.2759285867214203,0.011498600244522095,0.19102390110492706,0.07837530225515366,0.4653051793575287
600569,0.0837879627943039,0.27702009677886963,0.0121954046189785,0.15711678564548492,0.07521940022706985,0.4665328562259674
600609,0.08687686920166016,0.2766725420951843,0.012012728489935398,0.2067626565694809,-0.03930354490876198,0.44405075907707214
600649,0.08700583130121231,0.27872413396835327,0.012225965969264507,0.15755772590637207,-0.028049904853105545,0.404723584651947
600689,0.08686287701129913,0.2797839641571045,0.012164712883532047,0.13773830235004425,-0.0022570935543626547,0.3911254107952118
600729,0.08740580081939697,0.2795737683773041,0.011977514252066612,0.1340772658586502,0.004015457816421986,0.3970416188240051
600769,0.08827477693557739,0.27950355410575867,0.0132890110835433,0.1378908008337021,0.003067309269681573,0.40822553634643555
600809,0.08590474724769592,0.2804345190525055,0.012023914605379105,0.08973520249128342,0.09396473318338394,0.40684211254119873
600849,0.08594245463609695,0.28027454018592834,0.01193882618099451,0.13040393590927124,0.06278684735298157,0.40918540954589844
600889,0.08587510138750076,0.2797573506832123,0.012778052128851414,0.17390933632850647,0.04854926839470863,0.4091399610042572
600929,0.08657685667276382,0.281090646982193,0.013333369046449661,0.15536680817604065,0.05450607091188431,0.39627501368522644
600969,0.085761159658432,0.2790529131889343,0.01377330906689167,0.13941480219364166,0.10132846981287003,0.42724940180778503
601009,0.08647333830595016,0.27938827872276306,0.013213042169809341,0.11930727958679199,0.06344401836395264,0.441226989030838
601049,0.08640506863594055,0.2806510627269745,0.013524286448955536,0.12422184646129608,0.03702252358198166,0.42379915714263916
601089,0.08437342196702957,0.2785211503505707,0.012600802816450596,0.2290300726890564,0.11937597393989563,0.4240518808364868
601129,0.08538273721933365,0.27755221724510193,0.011915700510144234,0.21230225265026093,0.10408741235733032,0.444349467754364
601169,0.08613483607769012,0.2797497808933258,0.011426477693021297,0.15068966150283813,0.07858846336603165,0.44690367579460144
601209,0.08739137649536133,0.2791650593280792,0.011513259261846542,0.1939758062362671,0.04167730361223221,0.4391089975833893
601249,0.0866069421172142,0.2791842520236969,0.011310821399092674,0.19338178634643555,0.06940712034702301,0.4413160979747772
601289,0.08658623695373535,0.28024977445602417,0.011923598125576973,0.18293777108192444,0.04945646598935127,0.43785786628723145
601329,0.08575215190649033,0.28131306171417236,0.01239060703665018,0.19278934597969055,0.07894673943519592,0.41752707958221436
601369,0.0861310213804245,0.28190332651138306,0.012229052372276783,0.191356360912323,0.09089725464582443,0.40311282873153687
601409,0.0858239233493805,0.28328388929367065,0.012119770981371403,0.14936195313930511,0.11165183782577515,0.3890345096588135
601449,0.08503317087888718,0.2848421335220337,0.012054474093019962,0.1485377848148346,0.11825703829526901,0.3542543649673462
601489,0.08630146086215973,0.2826617658138275,0.012482400052249432,0.1733158677816391,0.05980236455798149,0.37246403098106384
601529,0.08552631735801697,0.2834012508392334,0.012742445804178715,0.1589326709508896,0.07603468745946884,0.3666103184223175
601569,0.08428974449634552,0.2850005626678467,0.01250432338565588,0.14273598790168762,0.10022756457328796,0.3343048393726349
601609,0.08633194863796234,0.28431326150894165,0.012315142899751663,0.20759010314941406,0.02954292856156826,0.30382513999938965
601649,0.08613850176334381,0.28364506363868713,0.01219320297241211,0.22288204729557037,0.0707157701253891,0.30903780460357666
601689,0.08646062761545181,0.28557106852531433,0.012477681040763855,0.16757287085056305,0.026018429547548294,0.29366812109947205
601729,0.08620388805866241,0.2841656506061554,0.012704446911811829,0.2050991654396057,0.03932618722319603,0.30455389618873596
601769,0.08510648459196091,0.28464585542678833,0.012085939757525921,0.1580130010843277,0.07655550539493561,0.3133750259876251
601809,0.08572657406330109,0.2852078378200531,0.011979212053120136,0.13900120556354523,0.030837982892990112,0.3131580948829651
601849,0.08509788662195206,0.28512051701545715,0.011880102567374706,0.16184096038341522,0.07424073666334152,0.30910754203796387
601889,0.0866059809923172,0.28577667474746704,0.01179916225373745,0.18530429899692535,0.03850100189447403,0.2867574393749237
601929,0.08610008656978607,0.2856398820877075,0.011850508861243725,0.12932196259498596,0.06547948718070984,0.30626925826072693
601969,0.08619648963212967,0.28506529331207275,0.011866801418364048,0.12451189756393433,0.07688185572624207,0.30974361300468445
602009,0.08468320965766907,0.286758691072464,0.012310070917010307,0.11802583932876587,0.08014804124832153,0.2956887483596802
602049,0.08395620435476303,0.2865617275238037,0.012669049203395844,0.13034607470035553,0.099531389772892,0.2848443388938904
602089,0.08546814322471619,0.2851833701133728,0.013391970656812191,0.13189342617988586,0.04494410380721092,0.31766563653945923
602129,0.0857672393321991,0.284752756357193,0.013048340566456318,0.13138605654239655,0.04526282846927643,0.325232595205307
602169,0.08623220026493073,0.2848333716392517,0.013522982597351074,0.1401352882385254,0.023165643215179443,0.3193625509738922
602209,0.08270841091871262,0.2835737466812134,0.013004300184547901,0.20632541179656982,0.12626127898693085,0.29915958642959595
602249,0.08506900817155838,0.2834930419921875,0.012699471786618233,0.16737166047096252,0.04888903349637985,0.3201104998588562
602289,0.08575320988893509,0.2833547294139862,0.012773305177688599,0.1833336353302002,0.038626041263341904,0.3140735924243927
602329,0.08427564054727554,0.28514137864112854,0.012836522422730923,0.13357004523277283,0.07377954572439194,0.3034113645553589
602369,0.08430463820695877,0.28381213545799255,0.012864894233644009,0.17321622371673584,0.0647759959101677,0.3188667893409729
602409,0.08281076699495316,0.28251367807388306,0.012063812464475632,0.1645355075597763,0.12647077441215515,0.3509514033794403
602449,0.08439083397388458,0.28379544615745544,0.011863253079354763,0.17125356197357178,0.044408611953258514,0.32194846868515015
602489,0.08275967836380005,0.28322258591651917,0.01227598451077938,0.1398027390241623,0.09532152861356735,0.3529289960861206
602529,0.08170332759618759,0.28339076042175293,0.012139967642724514,0.13778309524059296,0.0944354459643364,0.34642982482910156
602569,0.0810437798500061,0.2821715176105499,0.012904967181384563,0.14769095182418823,0.1315491497516632,0.35474565625190735
602609,0.08270785957574844,0.2814543843269348,0.013009161688387394,0.1621316522359848,0.038474924862384796,0.35471925139427185
602649,0.08157862722873688,0.2832125127315521,0.012638452462852001,0.12835220992565155,0.06697381287813187,0.3192361295223236
602689,0.08123991638422012,0.2812831699848175,0.011589400470256805,0.19392386078834534,0.08698311448097229,0.3236043453216553
602729,0.08217347413301468,0.28143060207366943,0.012061143293976784,0.148057222366333,0.055772244930267334,0.35910916328430176
602769,0.08250883966684341,0.27839773893356323,0.012827284634113312,0.19261683523654938,0.03712683543562889,0.421795517206192
602809,0.08314402401447296,0.2790457606315613,0.012661509215831757,0.12995566427707672,0.009669017978012562,0.4481901526451111
602849,0.08283495157957077,0.2797127962112427,0.0132078742608428,0.11755851656198502,0.012354587204754353,0.43545955419540405
602889,0.0819045677781105,0.27816855907440186,0.012839044444262981,0.17728567123413086,0.02406218834221363,0.43604496121406555
602929,0.0827023983001709,0.2792246639728546,0.012852868996560574,0.13321155309677124,-0.005124315153807402,0.43328726291656494
602969,0.0830039530992508,0.2801789939403534,0.011557482182979584,0.11419540643692017,0.031934235244989395,0.42685359716415405
603009,0.08299776166677475,0.2806569039821625,0.012036935426294804,0.10431478917598724,0.03339741379022598,0.4165849983692169
603049,0.0836813896894455,0.28001075983047485,0.012869380414485931,0.1093531996011734,0.018869953230023384,0.4394224286079407
603089,0.08391012996435165,0.2797466814517975,0.012137738056480885,0.12432588636875153,-0.007846320047974586,0.44977274537086487
603129,0.08263696730136871,0.28152140974998474,0.012005534954369068,0.07917067408561707,0.07317913323640823,0.4083898067474365
603169,0.08436523377895355,0.28026533126831055,0.01287025585770607,0.11181283742189407,-0.004222292918711901,0.4383041262626648
603209,0.08497577905654907,0.2792071998119354,0.013471345417201519,0.12224552035331726,0.002667451510205865,0.45432713627815247
603249,0.08395054936408997,0.27923330664634705,0.013420403935015202,0.1642981618642807,0.030942415818572044,0.4236730635166168
603289,0.08213676512241364,0.2829749882221222,0.013320510275661945,0.08713037520647049,0.0775766521692276,0.36228522658348083
603329,0.08289620280265808,0.280563086271286,0.012874830514192581,0.15765738487243652,0.057437337934970856,0.4037252962589264
603369,0.08274488151073456,0.28172823786735535,0.012919234111905098,0.11492732912302017,0.07027457654476166,0.3950699269771576
603409,0.08446607738733292,0.2793583869934082,0.013413903303444386,0.13654665648937225,0.020211337134242058,0.44818881154060364
603449,0.08568669855594635,0.27922186255455017,0.013718904927372932,0.14699462056159973,-0.007360333111137152,0.45608147978782654
603489,0.08632240444421768,0.27921783924102783,0.013866361230611801,0.15160943567752838,-0.015297194942831993,0.452358216047287
603529,0.08611881732940674,0.27840426564216614,0.014153698459267616,0.1628662645816803,-0.00206456589512527,0.47361505031585693
603569,0.08415860682725906,0.2804594337940216,0.01388455554842949,0.07462287694215775,0.0873475894331932,0.4627947509288788
603609,0.08452564477920532,0.2794977128505707,0.013144250959157944,0.12372146546840668,0.03773941099643707,0.46153342723846436
603649,0.08500998467206955,0.2789114713668823,0.012622996233403683,0.15630938112735748,0.03506193682551384,0.46582159399986267
603689,0.08484838902950287,0.28149765729904175,0.01350989006459713,0.0889044851064682,0.05297115817666054,0.4379587173461914
603729,0.08480969071388245,0.2813225984573364,0.01248673815280199,0.10524901747703552,0.033312153071165085,0.4482736587524414
603769,0.0859512910246849,0.27993378043174744,0.012197083793580532,0.144185870885849,0.007061597425490618,0.45812249183654785
603809,0.0853814110159874,0.2817511558532715,0.011547167785465717,0.10423120111227036,0.06265345960855484,0.42964884638786316
603849,0.0864921510219574,0.27967363595962524,0.01198967732489109,0.1701471358537674,0.049549560993909836,0.4437735676765442
603889,0.08588516712188721,0.2811720669269562,0.011500926688313484,0.09983279556035995,0.08776998519897461,0.4362875521183014
603929,0.08768076449632645,0.2794755697250366,0.01120780874043703,0.12290067225694656,0.036361463367938995,0.47160372138023376
603969,0.0861225500702858,0.2785974144935608,0.011773989535868168,0.09895079582929611,0.10250100493431091,0.48859429359436035
604009,0.0880826860666275,0.2786273956298828,0.012207606807351112,0.15270861983299255,0.02605508454144001,0.47167709469795227
604049,0.08858959376811981,0.28029394149780273,0.012281023897230625,0.13559752702713013,0.016491107642650604,0.4540654122829437
604089,0.08721849322319031,0.28100448846817017,0.011761236935853958,0.1472734808921814,0.08169587701559067,0.4298485815525055
604129,0.0875309482216835,0.2812311351299286,0.011875132098793983,0.1106097400188446,0.050047799944877625,0.44559812545776367
604169,0.08814851939678192,0.2813849449157715,0.011940017342567444,0.120921291410923,0.030514119192957878,0.43608078360557556
604209,0.08871501684188843,0.281179815530777,0.012481706216931343,0.1409526765346527,0.004928982816636562,0.4341261386871338
604249,0.08822605758905411,0.2809086740016937,0.013325477950274944,0.1650705188512802,0.0107617462053895,0.42585426568984985
604289,0.08812538534402847,0.2810172438621521,0.012949836440384388,0.1665879637002945,0.015019680373370647,0.4182194471359253
604329,0.08685704320669174,0.282250314950943,0.012648685835301876,0.12574969232082367,0.04302264004945755,0.4192435145378113
604369,0.08680020272731781,0.28093934059143066,0.012429669499397278,0.1389896422624588,0.05086042732000351,0.4380455017089844
604409,0.08873125165700912,0.2802013158798218,0.010974746197462082,0.15828604996204376,-0.004663002677261829,0.43706199526786804
604449,0.0880918949842453,0.2803523540496826,0.011604893952608109,0.1780242919921875,0.0009774781065061688,0.4315219223499298
604489,0.08502846211194992,0.27859732508659363,0.011304482817649841,0.2268279790878296,0.12048537284135818,0.4556405544281006
604529,0.08616538345813751,0.2801209092140198,0.01107881125062704,0.1959402859210968,0.055372510105371475,0.4356992840766907
604569,0.08512339740991592,0.27971094846725464,0.01252730842679739,0.14861521124839783,0.06849172711372375,0.45671141147613525
604609,0.08462539315223694,0.2810286581516266,0.012767532840371132,0.10590752214193344,0.07984613627195358,0.4607508182525635
604649,0.0845222920179367,0.28203338384628296,0.013513774611055851,0.11223457008600235,0.09502772986888885,0.4505506157875061
604689,0.08613929897546768,0.2795417606830597,0.01317587774246931,0.13272851705551147,0.05562485009431839,0.4804864525794983
604729,0.0868828296661377,0.2793633043766022,0.013736266642808914,0.1181853711605072,0.06399337202310562,0.48947906494140625
604769,0.08596479147672653,0.2794936001300812,0.012252225540578365,0.11736579239368439,0.06998417526483536,0.4924519658088684
604809,0.08598613739013672,0.2795681357383728,0.012978164479136467,0.149002805352211,0.05599076673388481,0.48055458068847656
604849,0.08637630939483643,0.2795475721359253,0.012569711543619633,0.1691473126411438,0.02709379605948925,0.47983479499816895
604889,0.08506853878498077,0.28100845217704773,0.012274817563593388,0.12285318970680237,0.05316229909658432,0.48156917095184326
604929,0.08591938018798828,0.2798243761062622,0.01250343769788742,0.16030777990818024,0.0242803655564785,0.479278564453125
604969,0.08558158576488495,0.28151431679725647,0.013066491112112999,0.16185447573661804,0.02876744046807289,0.44797083735466003
605009,0.08628839999437332,0.2807820439338684,0.013534382916986942,0.18880078196525574,0.016458643600344658,0.4528496265411377
605049,0.08641526848077774,0.2806851863861084,0.014250976033508778,0.1595001071691513,0.013119633309543133,0.4724419116973877
605089,0.08525152504444122,0.280531644821167,0.014360147528350353,0.17699693143367767,0.027889402583241463,0.4715035557746887
605129,0.08537883311510086,0.27986714243888855,0.013616695068776608,0.1931285709142685,0.055286116898059845,0.4794492721557617
605169,0.085477314889431,0.279934287071228,0.013708516955375671,0.19195491075515747,0.02499234676361084,0.48576563596725464
605209,0.08599939197301865,0.28004130721092224,0.013475686311721802,0.13379210233688354,0.022147372364997864,0.5003792643547058
605249,0.08663877844810486,0.2787783741950989,0.013258123770356178,0.14813388884067535,0.0303863063454628,0.5083847045898438
605289,0.08703538030385971,0.27897781133651733,0.012545425444841385,0.1911308467388153,0.02945200353860855,0.49911338090896606
605329,0.087977834045887,0.28011566400527954,0.012576350010931492,0.16627971827983856,0.030903009697794914,0.4882119596004486
605369,0.08711212873458862,0.28090327978134155,0.012192919850349426,0.11690936982631683,0.100709468126297,0.4963642358779907
605409,0.08805273473262787,0.2796989679336548,0.012002307921648026,0.148096963763237,0.06991872936487198,0.5049548745155334
605449,0.08939635753631592,0.2798705995082855,0.011871548369526863,0.15291722118854523,0.034305375069379807,0.5093007683753967
605489,0.08931697905063629,0.2780095040798187,0.012224084697663784,0.20258381962776184,0.03175067901611328,0.5244325399398804
605529,0.0888398289680481,0.2787508964538574,0.012486796826124191,0.20794527232646942,0.08338812738656998,0.5245416760444641
605569,0.08795703202486038,0.2794156074523926,0.012692526914179325,0.1712503284215927,0.114401675760746,0.5199764370918274
605609,0.08916372060775757,0.278219610452652,0.012883673422038555,0.19045931100845337,0.07823759317398071,0.5331310033798218
605649,0.0895402580499649,0.27821648120880127,0.01261006947606802,0.1406341940164566,0.07902683317661285,0.541395902633667
605689,0.08904696255922318,0.2783978283405304,0.013107938691973686,0.1603332906961441,0.0760323703289032,0.540357768535614
605729,0.08712368458509445,0.2785658538341522,0.013188857585191727,0.12375210970640182,0.11261002719402313,0.5505430698394775
605769,0.08875028043985367,0.27695128321647644,0.012810075655579567,0.16349364817142487,0.06981982290744781,0.5677863359451294
605809,0.0884304940700531,0.2772555649280548,0.013402828015387058,0.19012293219566345,0.08184029906988144,0.5621612668037415
605849,0.08935524523258209,0.27782371640205383,0.013412164524197578,0.14065122604370117,0.05719291418790817,0.5825402140617371
605889,0.09082511812448502,0.27792391180992126,0.013355441391468048,0.13085448741912842,-0.014789211563766003,0.601751446723938
605929,0.08995150029659271,0.2771995961666107,0.013663867488503456,0.17339949309825897,0.010771459899842739,0.6045297980308533
605969,0.09014217555522919,0.27876096963882446,0.012187066487967968,0.1497303545475006,0.036202844232320786,0.599436342716217
606009,0.08955726772546768,0.2780621647834778,0.01234582718461752,0.19212403893470764,0.04016714543104172,0.598879873752594
606049,0.08966277539730072,0.28024613857269287,0.011332392692565918,0.07691480964422226,0.048319581896066666,0.5941720008850098
606089,0.08853894472122192,0.2795625329017639,0.011001132428646088,0.1389310508966446,0.09090759605169296,0.5970265865325928
606129,0.08717865496873856,0.27862003445625305,0.012460739351809025,0.11297302693128586,0.14655524492263794,0.5963112115859985
606169,0.08960425853729248,0.27708619832992554,0.012802342884242535,0.12410049885511398,0.020735716447234154,0.6218002438545227
606209,0.08876573294401169,0.27547487616539,0.012193783186376095,0.1412218064069748,0.06356330215930939,0.612064778804779
606249,0.08987151086330414,0.2759946584701538,0.013303136453032494,0.15162216126918793,0.06050078570842743,0.6100488305091858
606289,0.08764515072107315,0.2764623463153839,0.013547519221901894,0.11087965220212936,0.14938412606716156,0.5996058583259583
606329,0.08682157099246979,0.276038259267807,0.01307725254446268,0.11146636307239532,0.12347912788391113,0.6105251312255859
606369,0.08775538951158524,0.2744874656200409,0.013642018660902977,0.16518327593803406,0.08449704945087433,0.6154288053512573
606409,0.08761744946241379,0.275897741317749,0.012542318552732468,0.1440838873386383,0.08089499175548553,0.6102018356323242
606449,0.08688844740390778,0.27606457471847534,0.011799386702477932,0.12264946103096008,0.0972762480378151,0.6261789798736572
606489,0.08575055003166199,0.2745950520038605,0.011767299845814705,0.10708034783601761,0.12979072332382202,0.6528106927871704
606529,0.08723177015781403,0.27206936478614807,0.01309291087090969,0.16168063879013062,0.06243468075990677,0.6742708683013916
606569,0.08757567405700684,0.27042490243911743,0.01364925131201744,0.1626441925764084,0.05427982658147812,0.7088996171951294
606609,0.08770143240690231,0.2715504765510559,0.01396624930202961,0.11100555211305618,0.047205716371536255,0.7163216471672058
606649,0.08644817024469376,0.2720990777015686,0.014176307246088982,0.13545089960098267,0.09472841769456863,0.703888475894928
606689,0.08622908592224121,0.27122771739959717,0.013074196875095367,0.14093562960624695,0.0945366770029068,0.7226138114929199
606729,0.08735650777816772,0.2728745639324188,0.012209293432533741,0.10829272121191025,0.058998752385377884,0.7159610390663147
606769,0.08817993104457855,0.27328425645828247,0.0127854123711586,0.10159981995820999,0.014789159409701824,0.7258098125457764
606809,0.08567089587450027,0.27379557490348816,0.012106586247682571,0.09305699169635773,0.11303965002298355,0.7045820355415344
606849,0.08597814291715622,0.275380402803421,0.011932935565710068,0.08710305392742157,0.08986854553222656,0.6747453808784485
606889,0.08623625338077545,0.274433434009552,0.013673173263669014,0.08130665123462677,0.06965959817171097,0.7025994062423706
606929,0.08758760243654251,0.27295875549316406,0.013598049990832806,0.1448933333158493,0.016266031190752983,0.7171295285224915
606969,0.0870947390794754,0.27175095677375793,0.013048279099166393,0.15793941915035248,0.007927006110548973,0.7326369881629944
607009,0.08630265295505524,0.27062898874282837,0.013991118408739567,0.1303846687078476,0.07863661646842957,0.7523221969604492
607049,0.08602019399404526,0.2711334526538849,0.01461919117718935,0.11177954077720642,0.06361336261034012,0.7536316514015198
607089,0.0861736387014389,0.27110207080841064,0.01415229868143797,0.11762458831071854,0.05204625800251961,0.7664296627044678
607129,0.08551464974880219,0.2694491446018219,0.013823227025568485,0.1868066042661667,0.07839392870664597,0.7667891979217529
607169,0.08535385131835938,0.2691449224948883,0.013073509559035301,0.21538853645324707,0.07493844628334045,0.7447189688682556
607209,0.08438463509082794,0.2694627642631531,0.012104760855436325,0.1674075722694397,0.10173770785331726,0.7522330284118652
607249,0.0836586207151413,0.2711426019668579,0.012690694071352482,0.11645646393299103,0.11829288303852081,0.7456722259521484
607289,0.08370660245418549,0.2717895805835724,0.012297659181058407,0.1293431520462036,0.10952595621347427,0.7233092784881592
607329,0.08588574081659317,0.26984703540802,0.012074500322341919,0.17648886144161224,0.052565254271030426,0.7337124347686768
607369,0.08692281693220139,0.2715115249156952,0.012695185840129852,0.15825478732585907,0.046804219484329224,0.6965479850769043
607409,0.08674643188714981,0.271798312664032,0.012706552632153034,0.12426329404115677,0.06224603205919266,0.716496467590332
607449,0.0871737003326416,0.2711329162120819,0.012441803701221943,0.1425895243883133,0.04870356246829033,0.7295259833335876
607489,0.08622054755687714,0.2726290822029114,0.012618285603821278,0.1265418529510498,0.05577704310417175,0.6973875164985657
607529,0.0854988768696785,0.2710322439670563,0.012399679981172085,0.15905079245567322,0.04789142310619354,0.7172732949256897
607569,0.08460509032011032,0.2713630199432373,0.011793682351708412,0.11401272565126419,0.07784958928823471,0.7357382774353027
607609,0.08478379249572754,0.27076658606529236,0.011776474304497242,0.1564195156097412,0.037545546889305115,0.7234084010124207
607649,0.08480816334486008,0.26996737718582153,0.012618526816368103,0.16854916512966156,0.027995089069008827,0.7351308465003967
607689,0.08508369326591492,0.27140167355537415,0.012400983832776546,0.15023283660411835,0.04182804748415947,0.7015234231948853
607729,0.0852096751332283,0.2731296122074127,0.01264122687280178,0.10628257691860199,0.03917238116264343,0.685755729675293
607769,0.08460857719182968,0.2729114592075348,0.012068280950188637,0.13507181406021118,0.07384728640317917,0.6851245164871216
607809,0.08433342725038528,0.2721010148525238,0.012780068442225456,0.17807583510875702,0.08320700377225876,0.6812421083450317
607849,0.0863112136721611,0.2716122567653656,0.013713417574763298,0.15660052001476288,0.02035062201321125,0.702255368232727
607889,0.08599738031625748,0.27235206961631775,0.012144885025918484,0.1497770994901657,0.021042460575699806,0.6792552471160889
607929,0.08575332909822464,0.2722109854221344,0.012003225274384022,0.14955376088619232,0.024284282699227333,0.6671108603477478
607969,0.08573216199874878,0.27312538027763367,0.011434951797127724,0.1543577015399933,0.031273629516363144,0.6424773931503296
608009,0.08630593866109848,0.27277711033821106,0.011021656915545464,0.15712565183639526,0.021557064726948738,0.6482052206993103
608049,0.08657777309417725,0.2697659730911255,0.012120304629206657,0.23301658034324646,0.022073140367865562,0.6772437691688538
608089,0.08655794709920883,0.2707294821739197,0.012103557586669922,0.18255294859409332,0.04434177279472351,0.6579775810241699
608129,0.08764871209859848,0.27086538076400757,0.010761238634586334,0.17871153354644775,0.018632378429174423,0.6545616984367371
608169,0.08807823061943054,0.2693324089050293,0.011544005945324898,0.17590072751045227,0.02322789840400219,0.6777974367141724
608209,0.08956674486398697,0.2667251527309418,0.013000661507248878,0.236392542719841,-0.002958207856863737,0.6960886120796204
608249,0.08877573162317276,0.2662714719772339,0.013672159984707832,0.17709653079509735,0.03381700813770294,0.7131779193878174
608289,0.0885341465473175,0.2658363878726959,0.01318676769733429,0.2007867395877838,0.02927340194582939,0.711974561214447
608329,0.08800701797008514,0.26556485891342163,0.012801798060536385,0.2238568812608719,0.07634145021438599,0.7172136306762695
608369,0.08919879049062729,0.2668589949607849,0.013358550146222115,0.14325623214244843,0.022189022973179817,0.7018008232116699
608409,0.08985895663499832,0.26547619700431824,0.012963967397809029,0.18044635653495789,0.018271194770932198,0.7225232720375061
608449,0.09020145237445831,0.2657480239868164,0.01305419486016035,0.1429842859506607,0.017947733402252197,0.7306932210922241
608489,0.09034077823162079,0.26488199830055237,0.013195774517953396,0.15663664042949677,0.01330237090587616,0.7480714321136475
608529,0.08944409340620041,0.26457637548446655,0.01276309136301279,0.11725983023643494,0.060239892452955246,0.7676688432693481
608569,0.08879141509532928,0.26491621136665344,0.013351904228329659,0.08632443100214005,0.0738583505153656,0.7745066285133362
608609,0.08987333625555038,0.2637183964252472,0.012876913882791996,0.1134161502122879,0.05930187180638313,0.7959019541740417
608649,0.08913718909025192,0.26448681950569153,0.012928014621138573,0.09932129830121994,0.10749964416027069,0.8041094541549683
608689,0.08934235572814941,0.2641220688819885,0.01177576370537281,0.07403025776147842,0.0980452373623848,0.8345971703529358
608729,0.0895003080368042,0.26451733708381653,0.011298153549432755,0.10998020321130753,0.06071535497903824,0.8331899642944336
608769,0.08824436366558075,0.2644953727722168,0.011404943652451038,0.0800333172082901,0.0946517214179039,0.8568769693374634
608809,0.08909342437982559,0.2650679349899292,0.010652853175997734,0.10419470816850662,0.05472972244024277,0.8456752300262451
608849,0.088406041264534,0.2645266652107239,0.011026264168322086,0.10988149046897888,0.08759103715419769,0.8542631268501282
608889,0.08920973539352417,0.26346442103385925,0.012100118212401867,0.204398050904274,0.07078070193529129,0.8300406336784363
608929,0.0899912565946579,0.2656683623790741,0.012512009590864182,0.1672329157590866,0.03614981845021248,0.8187249302864075
608969,0.08893578499555588,0.26670601963996887,0.012832882814109325,0.1403011679649353,0.0772266536951065,0.8232088088989258
609009,0.08953600376844406,0.26733386516571045,0.012629589065909386,0.1157008484005928,0.06660740822553635,0.8355274796485901
609049,0.09137756377458572,0.2635834813117981,0.012785973958671093,0.25281384587287903,0.026538504287600517,0.8451018333435059
609089,0.09170051664113998,0.26271528005599976,0.013498780317604542,0.23878033459186554,0.02721656858921051,0.8670772314071655
609129,0.0918235033750534,0.26457470655441284,0.013486349955201149,0.21962256729602814,0.027215514332056046,0.8493213057518005
609169,0.09057226777076721,0.2653912901878357,0.012511364184319973,0.19414561986923218,0.07287919521331787,0.8429512977600098
609209,0.08973380923271179,0.2659216523170471,0.012261129915714264,0.17884986102581024,0.09466028213500977,0.8423826098442078
609249,0.09034735709428787,0.2661651074886322,0.011648762971162796,0.1764194220304489,0.06860063970088959,0.8362413048744202
609289,0.09067754447460175,0.26692694425582886,0.012580077163875103,0.17033882439136505,0.06269150227308273,0.8348554968833923
609329,0.09136752039194107,0.26712262630462646,0.012873121537268162,0.12327486276626587,0.05312063544988632,0.8506801128387451
609369,0.09019295126199722,0.2676762044429779,0.012602653354406357,0.1265677809715271,0.12015294283628464,0.8562148213386536
609409,0.09070608019828796,0.26553064584732056,0.012020666152238846,0.16421939432621002,0.08923205733299255,0.8740487098693848
609449,0.09073317050933838,0.267095685005188,0.01289380993694067,0.11366326361894608,0.10448238998651505,0.880390465259552
609489,0.09099263697862625,0.26652881503105164,0.013046754524111748,0.12958674132823944,0.07563228160142899,0.8775539398193359
609529,0.09021362662315369,0.2662467360496521,0.011979282833635807,0.09716666489839554,0.11449280381202698,0.89258873462677
609569,0.0915786549448967,0.26398277282714844,0.013154587708413601,0.175657719373703,0.039173293858766556,0.9073610305786133
609609,0.09174949675798416,0.265654593706131,0.013374880887567997,0.14034590125083923,0.029720943421125412,0.9014883637428284
609649,0.09084970504045486,0.2655605375766754,0.013040775433182716,0.10237519443035126,0.07071553170681,0.9100039601325989
609689,0.08999734371900558,0.26579391956329346,0.012699177488684654,0.12262067198753357,0.07784660160541534,0.898544430732727
609729,0.08989127725362778,0.26638737320899963,0.012897869572043419,0.10557262599468231,0.0731767863035202,0.8885611295700073
609769,0.08985206484794617,0.26652610301971436,0.013458170928061008,0.11242962628602982,0.07167114317417145,0.8862401247024536
609809,0.09106139093637466,0.26576486229896545,0.014281409792602062,0.1429987996816635,0.01944078505039215,0.9028688669204712
609849,0.09046237170696259,0.2649814784526825,0.013627889566123486,0.1461201012134552,0.02631187066435814,0.9065978527069092
609889,0.0904366597533226,0.2649475038051605,0.013487860560417175,0.13445062935352325,0.022229028865695,0.9062977433204651
609929,0.0883907824754715,0.26521608233451843,0.012482456862926483,0.1598677784204483,0.09615936875343323,0.9002976417541504
609969,0.09061254560947418,0.2665835916996002,0.012630878016352654,0.10239890962839127,0.017121270298957825,0.9112306237220764
610009,0.09212568402290344,0.2659463882446289,0.012776321731507778,0.12070874124765396,0.019454186782240868,0.9184889197349548
610049,0.09188157320022583,0.26510539650917053,0.01247465144842863,0.17230044305324554,0.03612888231873512,0.9251877069473267
610089,0.09089002013206482,0.26530659198760986,0.01148172002285719,0.199922114610672,0.0500815212726593,0.9243135452270508
610129,0.09201481938362122,0.2668902575969696,0.011934497393667698,0.16709136962890625,0.022030934691429138,0.9166380167007446
610169,0.09326431155204773,0.26559802889823914,0.013415602967143059,0.18884052336215973,-0.00817715935409069,0.9189417958259583
610209,0.09240325540304184,0.2667977511882782,0.013712006621062756,0.1405857503414154,0.04018305242061615,0.9020257592201233
610249,0.09250645339488983,0.266608864068985,0.012721845880150795,0.17059561610221863,0.06927048414945602,0.9120846390724182
610289,0.0938175767660141,0.26758047938346863,0.013302338309586048,0.17299561202526093,0.014821075834333897,0.9016335606575012
610329,0.09357374906539917,0.2671237885951996,0.013267870992422104,0.1956375241279602,0.0556555800139904,0.9121214747428894
610369,0.09257614612579346,0.26738518476486206,0.01414514984935522,0.17980271577835083,0.046400345861911774,0.8968641757965088
610409,0.09157015383243561,0.26832762360572815,0.013838687911629677,0.15228243172168732,0.06807457655668259,0.8799924850463867
610449,0.0906262993812561,0.2661277651786804,0.013183718547224998,0.14652737975120544,0.07904472947120667,0.8614790439605713
610489,0.09123595058917999,0.266801655292511,0.013566214591264725,0.14661423861980438,0.05560922250151634,0.8519588112831116
610529,0.09128370881080627,0.2668658196926117,0.013385829515755177,0.16531500220298767,0.035518620163202286,0.8498203754425049
610569,0.09222167730331421,0.26591017842292786,0.01242066640406847,0.20048892498016357,-0.0064740353263914585,0.8418020009994507
610609,0.09199915081262589,0.26582038402557373,0.01255113072693348,0.1869538426399231,0.005119204521179199,0.8307876586914062
610649,0.0918387770652771,0.26609596610069275,0.012270173989236355,0.17634136974811554,0.016392838209867477,0.8173226118087769
610689,0.09169008582830429,0.26724210381507874,0.012436158955097198,0.16307474672794342,0.008071688003838062,0.8021098375320435
610729,0.09170036762952805,0.2678368091583252,0.012337606400251389,0.16069872677326202,0.010769304819405079,0.7911331653594971
610769,0.09026028960943222,0.27087265253067017,0.012057782150804996,0.09032555669546127,0.04592418298125267,0.779058039188385
610809,0.08929262310266495,0.2720136344432831,0.012798910960555077,0.07388735562562943,0.06234957277774811,0.7605669498443604
610849,0.09004759043455124,0.27106380462646484,0.011564698070287704,0.09834486991167068,0.028957173228263855,0.7632506489753723
610889,0.09001647680997849,0.2698102295398712,0.012520643882453442,0.1049736961722374,0.028851713985204697,0.7572696208953857
610929,0.08883953094482422,0.2704002857208252,0.011877898126840591,0.0902324765920639,0.06284055858850479,0.7478901147842407
610969,0.08987560123205185,0.26959162950515747,0.011850806884467602,0.13343854248523712,0.020360032096505165,0.755378007888794
611009,0.08950745314359665,0.26709896326065063,0.011882424354553223,0.16378401219844818,0.020425377413630486,0.7461408972740173
611049,0.08908350765705109,0.2670360207557678,0.012332115322351456,0.15304400026798248,0.04893374815583229,0.7415366768836975
611089,0.08860168606042862,0.2671109437942505,0.0122583182528615,0.13643404841423035,0.024728456512093544,0.7204568982124329
611129,0.08941105008125305,0.26534783840179443,0.011369450017809868,0.1984025239944458,0.01778670959174633,0.7217156291007996
611169,0.08978621661663055,0.2669662535190582,0.011909378692507744,0.15741950273513794,0.015742896124720573,0.7166345715522766
611209,0.09005394577980042,0.26700639724731445,0.011927135288715363,0.1854710727930069,0.0010376424761489034,0.7049217820167542
611249,0.09068798273801804,0.26761674880981445,0.011950480751693249,0.1781892329454422,0.006403924431651831,0.7161924242973328
611289,0.090658999979496,0.269462525844574,0.012766776606440544,0.12430663406848907,0.0198823194950819,0.7089738249778748
611329,0.08974313735961914,0.2689788341522217,0.012942258268594742,0.1290791928768158,0.0253642238676548,0.6897562146186829
611369,0.09076695889234543,0.2690012753009796,0.01310315914452076,0.13544951379299164,0.026417648419737816,0.7060062885284424
611409,0.0884552150964737,0.2666613757610321,0.01379607617855072,0.2089950144290924,0.09826846420764923,0.680470883846283
611449,0.08866142481565475,0.26757779717445374,0.013295548036694527,0.16446495056152344,0.07943965494632721,0.689293622970581
611489,0.08928162604570389,0.26803895831108093,0.01282147504389286,0.1585148125886917,0.07188662141561508,0.7092151045799255
611529,0.08923200517892838,0.2688191533088684,0.012032637372612953,0.1292552649974823,0.07784542441368103,0.7018454074859619
611569,0.08801548182964325,0.26857954263687134,0.013272411189973354,0.11723896116018295,0.14731860160827637,0.6929768323898315
611609,0.08842486888170242,0.2660379111766815,0.012887686491012573,0.20129595696926117,0.07204879075288773,0.6449064016342163
611649,0.08704142272472382,0.2667354643344879,0.01337217353284359,0.1637098342180252,0.13839609920978546,0.6441232562065125
611689,0.08807328343391418,0.2659706473350525,0.012528904713690281,0.16199246048927307,0.09289634972810745,0.6526523232460022
611729,0.08759470283985138,0.26570823788642883,0.012700814753770828,0.20003226399421692,0.11360792070627213,0.6445502042770386
611769,0.08822377771139145,0.2662358582019806,0.013218563050031662,0.1859917789697647,0.05907086282968521,0.6297257542610168
611809,0.08917953073978424,0.26896682381629944,0.013567529618740082,0.11255532503128052,0.03640901297330856,0.6474137306213379
611849,0.08969201892614365,0.267724871635437,0.013472747057676315,0.12542106211185455,0.033413805067539215,0.6654382348060608
611889,0.08938343077898026,0.26863059401512146,0.013617395423352718,0.1350211203098297,0.02512381039559841,0.6571828126907349
611929,0.08843562752008438,0.26950013637542725,0.013403769582509995,0.09345728158950806,0.03640568628907204,0.6394245624542236
611969,0.08939807862043381,0.2680974304676056,0.013276362791657448,0.12057255208492279,0.029080482199788094,0.6612294912338257
612009,0.08885007351636887,0.2677000164985657,0.013638674281537533,0.1408502161502838,0.044942617416381836,0.6444582939147949
612049,0.08742334693670273,0.2711063325405121,0.012964321300387383,0.04972955957055092,0.08078823238611221,0.6316227316856384
612089,0.08888952434062958,0.270173043012619,0.012954073958098888,0.13178841769695282,0.023014606907963753,0.6432373523712158
612129,0.0898698940873146,0.26986268162727356,0.012077813036739826,0.13985152542591095,0.01865476928651333,0.6585269570350647
612169,0.08975627273321152,0.27031534910202026,0.012302689254283905,0.11801409721374512,0.025408746674656868,0.64650958776474
612209,0.08863217383623123,0.2705673575401306,0.011309838853776455,0.11712107807397842,0.08992020040750504,0.6368553042411804
612249,0.08750150352716446,0.2721666097640991,0.010945428162813187,0.09252188354730606,0.11479099094867706,0.6196727752685547
612289,0.08758804202079773,0.27166125178337097,0.010361320339143276,0.12206564098596573,0.06108447164297104,0.629261314868927
612329,0.08835699409246445,0.27119681239128113,0.011594537645578384,0.17139533162117004,0.033368032425642014,0.6303864121437073
612369,0.08805625140666962,0.2713252007961273,0.012988360598683357,0.17576925456523895,0.02378196455538273,0.6236542463302612
612409,0.08826514333486557,0.27011075615882874,0.013206589967012405,0.19005781412124634,-0.005296028684824705,0.6255083084106445
612449,0.08860140293836594,0.27008748054504395,0.013542121276259422,0.18952448666095734,-0.0028165620751678944,0.6249725222587585
612489,0.08765081316232681,0.27226847410202026,0.014027686789631844,0.1413969099521637,0.036995891481637955,0.6166349649429321
612529,0.08799387514591217,0.2728627026081085,0.013383077457547188,0.12325575947761536,0.017088599503040314,0.6065472960472107
612569,0.0887853354215622,0.27172330021858215,0.013383003883063793,0.16557402908802032,-0.005364933516830206,0.6022660732269287
612609,0.08788932859897614,0.27231737971305847,0.013832385651767254,0.15244470536708832,0.04770150035619736,0.6020817756652832
612649,0.09007609635591507,0.2689390480518341,0.01372305117547512,0.2379845380783081,-0.0056262509897351265,0.6099079251289368
612689,0.0895293802022934,0.2692820429801941,0.01311472523957491,0.22674460709095,0.0023363910149782896,0.5898259282112122
612729,0.0873064249753952,0.26916539669036865,0.012286145240068436,0.17812977731227875,0.07397033274173737,0.5624140501022339
612769,0.08704686164855957,0.2698708772659302,0.012451739981770515,0.15860216319561005,0.09416822344064713,0.55745929479599
612809,0.08708295226097107,0.2689335346221924,0.01303869765251875,0.19200488924980164,0.09502579271793365,0.5507960319519043
612849,0.08674857765436172,0.27017199993133545,0.012298725545406342,0.13737910985946655,0.060188163071870804,0.502311110496521
612889,0.08593818545341492,0.2699311077594757,0.011675226502120495,0.16625306010246277,0.08586488664150238,0.49345025420188904
612929,0.08801300078630447,0.26895225048065186,0.01161985658109188,0.20467647910118103,-0.0035006459802389145,0.4719419777393341
612969,0.08798236399888992,0.26963844895362854,0.012026322074234486,0.18689103424549103,0.0010861731134355068,0.4601025879383087
613009,0.08690495043992996,0.2696172893047333,0.012015404179692268,0.17309442162513733,0.00629931828007102,0.41354498267173767
613049,0.08724852651357651,0.26967543363571167,0.013408379629254341,0.14575521647930145,0.00956609658896923,0.40539056062698364
613089,0.08509321510791779,0.27010953426361084,0.013037743046879768,0.12008929997682571,0.06085453927516937,0.36902710795402527
613129,0.0862450823187828,0.2700332701206207,0.013627005741000175,0.15178263187408447,0.008395847864449024,0.3493568003177643
613169,0.08180341869592667,0.27231934666633606,0.013587281107902527,0.1007586419582367,0.16073502600193024,0.3429494798183441
613209,0.08234477788209915,0.27209070324897766,0.012650410644710064,0.10868014395236969,0.09388336539268494,0.3359712064266205
613249,0.0822921022772789,0.27245697379112244,0.01236843504011631,0.13591136038303375,0.08972340077161789,0.34511440992355347
613289,0.08072817325592041,0.2724441587924957,0.011738105677068233,0.13566263020038605,0.12541614472866058,0.3213602900505066
613329,0.0799059346318245,0.2716994285583496,0.011755500920116901,0.17422448098659515,0.11757814884185791,0.2953452467918396
613369,0.08115913718938828,0.2723977863788605,0.012609098106622696,0.13874295353889465,0.06862425804138184,0.3230113983154297
613409,0.08169692754745483,0.2733955979347229,0.01361776515841484,0.10778120905160904,0.05585765093564987,0.33225202560424805
613449,0.08243879675865173,0.2728188633918762,0.013139947317540646,0.12391337752342224,0.044807806611061096,0.34087464213371277
613489,0.08313808590173721,0.2722964584827423,0.013192158192396164,0.11815354228019714,0.040028005838394165,0.3451406955718994
613529,0.0839386135339737,0.2709079384803772,0.012824131175875664,0.14518851041793823,0.025797517970204353,0.3752158284187317
613569,0.08391345292329788,0.27253586053848267,0.012792710214853287,0.09755945950746536,0.041072163730859756,0.3769550919532776
613609,0.08341286331415176,0.2729548215866089,0.011928618885576725,0.10685378313064575,0.05227715149521828,0.3658650517463684
613649,0.08325956016778946,0.27193760871887207,0.01224514003843069,0.1447434425354004,0.05396679416298866,0.3538858890533447
613689,0.0835466980934143,0.2726745009422302,0.013388321734964848,0.15555641055107117,0.02827274613082409,0.3484182059764862
613729,0.08321189880371094,0.27145519852638245,0.012975011020898819,0.13518479466438293,0.027770349755883217,0.3490484356880188
613769,0.08322605490684509,0.2725442349910736,0.014745546504855156,0.1182282343506813,0.016914822161197662,0.34070414304733276
613809,0.08222456276416779,0.27387791872024536,0.01473089400678873,0.13085709512233734,0.0545516312122345,0.3341740369796753
613849,0.08162063360214233,0.2741217017173767,0.014289588667452335,0.12305034697055817,0.05472395569086075,0.31751614809036255
613889,0.08253347128629684,0.27090364694595337,0.014324173331260681,0.18218474090099335,0.03256089240312576,0.32609277963638306
613929,0.08081358671188354,0.2711416780948639,0.01353637408465147,0.14449216425418854,0.09834928810596466,0.30829766392707825
613969,0.08140908926725388,0.26885443925857544,0.01331604178994894,0.17762510478496552,0.10209793597459793,0.3236636221408844
614009,0.08141831308603287,0.26929259300231934,0.012763997539877892,0.21786896884441376,0.09179327636957169,0.32777008414268494
614049,0.08297212421894073,0.2710869014263153,0.012764612212777138,0.1655658483505249,0.03829151391983032,0.3207069933414459
614089,0.08234866708517075,0.2711069583892822,0.012791352346539497,0.162985160946846,0.03775900602340698,0.31966423988342285
614129,0.08068295568227768,0.2724255919456482,0.01268862932920456,0.12908409535884857,0.10722377151250839,0.3184586465358734
614169,0.0819045677781105,0.2719387114048004,0.013682842254638672,0.14440812170505524,0.06887713074684143,0.31505849957466125
614209,0.0836731418967247,0.2724100947380066,0.013970923610031605,0.13064955174922943,0.02375529147684574,0.33013489842414856
614249,0.08356135338544846,0.2718084156513214,0.014144793152809143,0.13532869517803192,0.02516731433570385,0.32892516255378723
614289,0.08106574416160583,0.27147868275642395,0.013796198181807995,0.16139602661132812,0.12144161015748978,0.3279132544994354
614329,0.08157003670930862,0.2707670331001282,0.012108915485441685,0.1653287559747696,0.1039595827460289,0.3318755626678467
614369,0.08076640963554382,0.26977816224098206,0.011390844359993935,0.17575503885746002,0.1675260215997696,0.3544299304485321
614409,0.08051889389753342,0.2696758508682251,0.011838643811643124,0.16097241640090942,0.16200727224349976,0.372149258852005
614449,0.08140866458415985,0.2684502899646759,0.011352453380823135,0.16651427745819092,0.12266630679368973,0.3899117112159729
614489,0.0794958546757698,0.2683485448360443,0.011430994607508183,0.15376071631908417,0.18892982602119446,0.395852655172348
614529,0.08034677058458328,0.2692975699901581,0.01158667542040348,0.15525604784488678,0.14677099883556366,0.39517879486083984
614569,0.08115514367818832,0.2701939344406128,0.012115896679461002,0.11758187413215637,0.1008472666144371,0.4149688482284546
614609,0.08056572824716568,0.2712976634502411,0.012500200420618057,0.11305807530879974,0.10230756551027298,0.3905292749404907
614649,0.07991750538349152,0.2713373005390167,0.01237521693110466,0.13192284107208252,0.08671851456165314,0.3714829087257385
614689,0.07871732115745544,0.2703816890716553,0.012449248693883419,0.1358332335948944,0.07941454648971558,0.38251104950904846
614729,0.07851377129554749,0.27167531847953796,0.013199151493608952,0.09945758432149887,0.07507169991731644,0.37526237964630127
614769,0.07852093875408173,0.27117833495140076,0.011908624321222305,0.15665936470031738,0.06837143748998642,0.3721742630004883
614809,0.07908705621957779,0.27056464552879333,0.011904955841600895,0.15860843658447266,0.050679586827754974,0.3863678276538849
614849,0.07944058626890182,0.2700013220310211,0.011039694771170616,0.14683060348033905,0.05364071577787399,0.43153175711631775
614889,0.07922687381505966,0.27093398571014404,0.011706056073307991,0.14420506358146667,0.052414923906326294,0.41486573219299316
614929,0.0785054937005043,0.27220967411994934,0.012713497504591942,0.10969489812850952,0.04916736111044884,0.38641494512557983
614969,0.07741544395685196,0.27288883924484253,0.012595290318131447,0.12097907811403275,0.10754186660051346,0.3653057813644409
615009,0.07749076187610626,0.27167803049087524,0.01166237611323595,0.13813379406929016,0.10146503895521164,0.39748162031173706
615049,0.07623306661844254,0.27004289627075195,0.011784614063799381,0.17340990900993347,0.16759808361530304,0.4341185390949249
615089,0.07718076556921005,0.27071413397789,0.011871119029819965,0.15501897037029266,0.11518314480781555,0.44229620695114136
615129,0.07745686173439026,0.2708754539489746,0.012326400727033615,0.17197634279727936,0.0822971984744072,0.41081729531288147
615169,0.07603161036968231,0.2725081145763397,0.012667966075241566,0.1162315085530281,0.13059942424297333,0.39579346776008606
615209,0.07622259855270386,0.2719482183456421,0.011747796088457108,0.11524270474910736,0.0928288921713829,0.4160378873348236
615249,0.0761774480342865,0.2708514332771301,0.011707612313330173,0.1254892349243164,0.08809877932071686,0.4479832351207733
615289,0.07668543606996536,0.271291047334671,0.010872166603803635,0.10883250087499619,0.08855632692575455,0.4676384925842285
615329,0.07677046954631805,0.27082449197769165,0.012173454277217388,0.10457915812730789,0.07358656078577042,0.5042396187782288
615369,0.07666945457458496,0.270696759223938,0.011737658642232418,0.11615608632564545,0.05980535224080086,0.4955591857433319
615409,0.0754409208893776,0.27235913276672363,0.011855232529342175,0.09093953669071198,0.0906236469745636,0.4634321928024292
615449,0.07621369510889053,0.2730046212673187,0.013404455967247486,0.09559465944766998,0.0788109228014946,0.4407883286476135
615489,0.07658316195011139,0.269609659910202,0.011819352395832539,0.17795313894748688,0.05530588701367378,0.48371797800064087
615529,0.07586217671632767,0.27009308338165283,0.011862976476550102,0.16570840775966644,0.06481580436229706,0.46255525946617126
615569,0.07652038335800171,0.27107077836990356,0.012358522973954678,0.12552911043167114,0.059378206729888916,0.46164557337760925
615609,0.07491324096918106,0.2697747051715851,0.012250354513525963,0.17494986951351166,0.12448080629110336,0.46266502141952515
615649,0.07572513818740845,0.26887187361717224,0.012214387767016888,0.1895027905702591,0.10414478927850723,0.48180925846099854
615689,0.07758177816867828,0.2709321081638336,0.011770601384341717,0.14226432144641876,0.05473567545413971,0.45600244402885437
615729,0.07699397206306458,0.2708570659160614,0.01142993662506342,0.16276869177818298,0.03160617873072624,0.4346753656864166
615769,0.07574586570262909,0.27379173040390015,0.011941553093492985,0.07634421437978745,0.08058945089578629,0.39762210845947266
615809,0.07634001970291138,0.27339911460876465,0.011953096836805344,0.09134819358587265,0.06227530166506767,0.41290178894996643
615849,0.0744420737028122,0.2748408913612366,0.013801195658743382,0.06648208200931549,0.08997144550085068,0.3896650969982147
615889,0.07558558881282806,0.2737027704715729,0.012505125254392624,0.09464816749095917,0.05234070122241974,0.4260924756526947
615929,0.07606840878725052,0.2748112082481384,0.012762995436787605,0.11239510774612427,0.05108661204576492,0.39767828583717346
615969,0.07555588334798813,0.27559274435043335,0.01208151038736105,0.12070285528898239,0.0814061090350151,0.36693474650382996
616009,0.07617256790399551,0.27522900700569153,0.012901066802442074,0.11660277098417282,0.04581920802593231,0.4050981104373932
616049,0.07524412125349045,0.275808185338974,0.012995186261832714,0.1547926813364029,0.056911587715148926,0.36293649673461914
616089,0.07537542283535004,0.2759780287742615,0.013481982052326202,0.1424456089735031,0.04965028166770935,0.3733202815055847
616129,0.07657816261053085,0.27440962195396423,0.013018123805522919,0.17746609449386597,0.07046794146299362,0.4038001000881195
616169,0.07662783563137054,0.2724146246910095,0.011924181133508682,0.18479599058628082,0.07251288741827011,0.4678947627544403
616209,0.07682254165410995,0.27266377210617065,0.011846558190882206,0.17109009623527527,0.040993738919496536,0.4681749641895294
616249,0.07765854895114899,0.2729320526123047,0.010616026818752289,0.19858750700950623,0.0024082656018435955,0.4521915316581726
616289,0.07805922627449036,0.2739146947860718,0.010865715332329273,0.1820170283317566,0.004485227633267641,0.41462528705596924
616329,0.07712309807538986,0.27444204688072205,0.010617980733513832,0.16229432821273804,0.041170984506607056,0.4033335745334625
616369,0.07777378708124161,0.27447330951690674,0.011007305234670639,0.16428998112678528,0.03693242743611336,0.3958570063114166
616409,0.07771547138690948,0.2736775875091553,0.013278122991323471,0.15264064073562622,0.041333530098199844,0.4247945547103882
616449,0.0778508111834526,0.27329328656196594,0.012587025761604309,0.13297438621520996,0.041564472019672394,0.44707176089286804
616489,0.07760464400053024,0.2727402150630951,0.012461422942578793,0.16497917473316193,0.028336212038993835,0.4484565854072571
616529,0.07771357893943787,0.27360689640045166,0.011421062052249908,0.12777312099933624,0.05839291960000992,0.44928863644599915
616569,0.07896594703197479,0.2711109220981598,0.012040458619594574,0.16187748312950134,0.04167567566037178,0.4824967086315155
616609,0.07823134958744049,0.26966410875320435,0.012513482943177223,0.20487575232982635,0.064151830971241,0.4961412847042084
616649,0.07849664986133575,0.26890477538108826,0.012400195933878422,0.18883275985717773,0.06576648354530334,0.511730968952179
616689,0.0770515501499176,0.267910897731781,0.011860011145472527,0.2268218696117401,0.10878005623817444,0.5199140310287476
616729,0.07814190536737442,0.2687367796897888,0.013050124980509281,0.21480527520179749,0.0684870257973671,0.4975707232952118
616769,0.07832515984773636,0.26909753680229187,0.013174204155802727,0.18928742408752441,0.047800030559301376,0.4904782474040985
616809,0.07858134061098099,0.27021265029907227,0.013204842805862427,0.155340313911438,0.05567925050854683,0.4792182743549347
616849,0.07902028411626816,0.2710402309894562,0.013214541599154472,0.154983252286911,0.04850572347640991,0.46260058879852295
616889,0.0786016508936882,0.27252867817878723,0.013318954966962337,0.10610196739435196,0.05744592845439911,0.4765734374523163
616929,0.07972560822963715,0.2727363407611847,0.01193604152649641,0.11997728049755096,0.039646413177251816,0.465939998626709
616969,0.07993018627166748,0.27195271849632263,0.011379474774003029,0.13502644002437592,0.038702938705682755,0.48297199606895447
617009,0.08048505336046219,0.2699444890022278,0.01240141224116087,0.13442136347293854,0.06703542917966843,0.5357036590576172
617049,0.07954344153404236,0.27022218704223633,0.012739037163555622,0.14988963305950165,0.07073932886123657,0.5207246541976929
617089,0.08000529557466507,0.27075862884521484,0.012937202118337154,0.1314064860343933,0.06477572023868561,0.5345865488052368
617129,0.0788063332438469,0.26934945583343506,0.012219509109854698,0.15625479817390442,0.10927931219339371,0.5485987067222595
617169,0.07884667813777924,0.2685738801956177,0.012088432908058167,0.16535219550132751,0.08984866738319397,0.559080183506012
617209,0.07893092930316925,0.2677761912345886,0.012825981713831425,0.17687813937664032,0.09065838903188705,0.5617512464523315
